{
"type": "FeatureCollection",
"features": [
{ "type": "Feature", "properties": { "address": "3297 Folsom St.", "who": "Rudy Pada<br>Cyril Yu<br>Bernie Curran<br>Rodrigo Santos", "total": 4, "url": "https://sfplanninggis.org/pim/?tab=Property&search=3297+folsom+st" }, "geometry": { "type": "Point", "coordinates": [ -122.4132118, 37.7451718 ] } },
{ "type": "Feature", "properties": { "address": "170 Ofarrell St.", "who": "Rudy Pada<br>Cyril Yu<br>Bernie Curran<br>Rodrigo Santos", "total": 4, "url": "https://sfplanninggis.org/pim/?tab=Property&search=170+ofarrell+st" }, "geometry": { "type": "Point", "coordinates": [ -122.4072604, 37.787006 ] } },
{ "type": "Feature", "properties": { "address": "4 Embarcadero Center", "who": "Rudy Pada<br>Cyril Yu<br>Bernie Curran<br>Rodrigo Santos", "total": 4, "url": "https://sfplanninggis.org/pim/?tab=Property&search=4+embarcadero+center" }, "geometry": { "type": "Point", "coordinates": [ -122.3962196, 37.7952419 ] } },
{ "type": "Feature", "properties": { "address": "181 Edgehill Wy.", "who": "Rudy Pada<br>Cyril Yu<br>Bernie Curran<br>Rodrigo Santos", "total": 4, "url": "https://sfplanninggis.org/pim/?tab=Property&search=181+edgehill+wy" }, "geometry": { "type": "Point", "coordinates": [ -122.459617, 37.743594 ] } },
{ "type": "Feature", "properties": { "address": "74 06th St.", "who": "Rudy Pada<br>Cyril Yu<br>Bernie Curran<br>Rodrigo Santos", "total": 4, "url": "https://sfplanninggis.org/pim/?tab=Property&search=74+06th+st" }, "geometry": { "type": "Point", "coordinates": [ -122.4093591, 37.7810476 ] } },
{ "type": "Feature", "properties": { "address": "3251 20th Ave.", "who": "Rudy Pada<br>Cyril Yu<br>Bernie Curran<br>Rodrigo Santos", "total": 4, "url": "https://sfplanninggis.org/pim/?tab=Property&search=3251+20th+ave" }, "geometry": { "type": "Point", "coordinates": [ -122.4769749, 37.7277303 ] } },
{ "type": "Feature", "properties": { "address": "345 06th St.", "who": "Rudy Pada<br>Cyril Yu<br>Bernie Curran<br>Rodrigo Santos", "total": 4, "url": "https://sfplanninggis.org/pim/?tab=Property&search=345+06th+st" }, "geometry": { "type": "Point", "coordinates": [ -122.4046496, 37.7782419 ] } },
{ "type": "Feature", "properties": { "address": "56 Clipper St.", "who": "Rudy Pada<br>Cyril Yu<br>Bernie Curran<br>Rodrigo Santos", "total": 4, "url": "https://sfplanninggis.org/pim/?tab=Property&search=56+clipper+st" }, "geometry": { "type": "Point", "coordinates": [ -122.4262529, 37.7495505 ] } },
{ "type": "Feature", "properties": { "address": "1 Embarcadero Center", "who": "Rudy Pada<br>Cyril Yu<br>Bernie Curran<br>Rodrigo Santos", "total": 4, "url": "https://sfplanninggis.org/pim/?tab=Property&search=1+embarcadero+center" }, "geometry": { "type": "Point", "coordinates": [ -122.3995845, 37.794369499999988 ] } },
{ "type": "Feature", "properties": { "address": "125 Crown Tr.", "who": "Rudy Pada<br>Cyril Yu<br>Bernie Curran<br>Rodrigo Santos", "total": 4, "url": "https://sfplanninggis.org/pim/?tab=Property&search=125+crown+tr" }, "geometry": { "type": "Point", "coordinates": [ -122.4469782, 37.7576944 ] } },
{ "type": "Feature", "properties": { "address": "1020 Union St.", "who": "Rudy Pada<br>Cyril Yu<br>Bernie Curran<br>Rodrigo Santos", "total": 4, "url": "https://sfplanninggis.org/pim/?tab=Property&search=1020+union+st" }, "geometry": { "type": "Point", "coordinates": [ -122.4162386, 37.8003107 ] } },
{ "type": "Feature", "properties": { "address": "1042 Montgomery St.", "who": "Rudy Pada<br>Cyril Yu<br>Bernie Curran<br>Rodrigo Santos", "total": 4, "url": "https://sfplanninggis.org/pim/?tab=Property&search=1042+montgomery+st" }, "geometry": { "type": "Point", "coordinates": [ -122.4037991, 37.798888 ] } },
{ "type": "Feature", "properties": { "address": "2619 Laguna St.", "who": "Rudy Pada<br>Cyril Yu<br>Bernie Curran<br>Rodrigo Santos", "total": 4, "url": "https://sfplanninggis.org/pim/?tab=Property&search=2619+laguna+st" }, "geometry": { "type": "Point", "coordinates": [ -122.4303784, 37.7955456 ] } },
{ "type": "Feature", "properties": { "address": "787 Castro St.", "who": "Rudy Pada<br>Cyril Yu<br>Bernie Curran<br>Rodrigo Santos", "total": 4, "url": "https://sfplanninggis.org/pim/?tab=Property&search=787+castro+st" }, "geometry": { "type": "Point", "coordinates": [ -122.4343213, 37.756375 ] } },
{ "type": "Feature", "properties": { "address": "4306 19th St.", "who": "Rudy Pada<br>Cyril Yu<br>Bernie Curran<br>Rodrigo Santos", "total": 4, "url": "https://sfplanninggis.org/pim/?tab=Property&search=4306+19th+st" }, "geometry": { "type": "Point", "coordinates": [ -122.4372968, 37.7593444 ] } },
{ "type": "Feature", "properties": { "address": "3659 Washington St.", "who": "Rudy Pada<br>Cyril Yu<br>Bernie Curran<br>Rodrigo Santos", "total": 4, "url": "https://sfplanninggis.org/pim/?tab=Property&search=3659+washington+st" }, "geometry": { "type": "Point", "coordinates": [ -122.4531823, 37.7889771 ] } },
{ "type": "Feature", "properties": { "address": "185 Berry St.", "who": "Rudy Pada<br>Cyril Yu<br>Bernie Curran<br>Rodrigo Santos", "total": 4, "url": "https://sfplanninggis.org/pim/?tab=Property&search=185+berry+st" }, "geometry": { "type": "Point", "coordinates": [ -122.3929466, 37.77596 ] } },
{ "type": "Feature", "properties": { "address": "131 Missouri St.", "who": "Rudy Pada<br>Cyril Yu<br>Bernie Curran<br>Rodrigo Santos", "total": 4, "url": "https://sfplanninggis.org/pim/?tab=Property&search=131+missouri+st" }, "geometry": { "type": "Point", "coordinates": [ -122.3964186, 37.7646873 ] } },
{ "type": "Feature", "properties": { "address": "555 California St.", "who": "Rudy Pada<br>Cyril Yu<br>Bernie Curran<br>Rodrigo Santos", "total": 4, "url": "https://sfplanninggis.org/pim/?tab=Property&search=555+california+st" }, "geometry": { "type": "Point", "coordinates": [ -122.4036761, 37.7920903 ] } },
{ "type": "Feature", "properties": { "address": "3318 Mission St.", "who": "Rudy Pada<br>Cyril Yu<br>Bernie Curran", "total": 3, "url": "https://sfplanninggis.org/pim/?tab=Property&search=3318+mission+st" }, "geometry": { "type": "Point", "coordinates": [ -122.4214415, 37.743722 ] } },
{ "type": "Feature", "properties": { "address": "222 Ewing Tr.", "who": "Rudy Pada<br>Cyril Yu<br>Bernie Curran", "total": 3, "url": "https://sfplanninggis.org/pim/?tab=Property&search=222+ewing+tr" }, "geometry": { "type": "Point", "coordinates": [ -122.4491831, 37.7802314 ] } },
{ "type": "Feature", "properties": { "address": "360 Hyde St.", "who": "Rudy Pada<br>Cyril Yu<br>Bernie Curran", "total": 3, "url": "https://sfplanninggis.org/pim/?tab=Property&search=360+hyde+st" }, "geometry": { "type": "Point", "coordinates": [ -122.415896, 37.7842751 ] } },
{ "type": "Feature", "properties": { "address": "80 Oliver St.", "who": "Rudy Pada<br>Cyril Yu<br>Bernie Curran", "total": 3, "url": "https://sfplanninggis.org/pim/?tab=Property&search=80+oliver+st" }, "geometry": { "type": "Point", "coordinates": [ -122.4501623, 37.7085345 ] } },
{ "type": "Feature", "properties": { "address": "625 San Jose Ave.", "who": "Cyril Yu<br>Bernie Curran<br>Rodrigo Santos", "total": 3, "url": "https://sfplanninggis.org/pim/?tab=Property&search=625+san+jose+ave" }, "geometry": { "type": "Point", "coordinates": [ -122.4217623, 37.7456436 ] } },
{ "type": "Feature", "properties": { "address": "1488 Van Dyke Ave.", "who": "Rudy Pada<br>Bernie Curran<br>Rodrigo Santos", "total": 3, "url": "https://sfplanninggis.org/pim/?tab=Property&search=1488+van+dyke+ave" }, "geometry": { "type": "Point", "coordinates": [ -122.3901941, 37.7281151 ] } },
{ "type": "Feature", "properties": { "address": "3534 Taraval St.", "who": "Rudy Pada<br>Bernie Curran<br>Rodrigo Santos", "total": 3, "url": "https://sfplanninggis.org/pim/?tab=Property&search=3534+taraval+st" }, "geometry": { "type": "Point", "coordinates": [ -122.5042332, 37.7420549 ] } },
{ "type": "Feature", "properties": { "address": "548 Staples Ave.", "who": "Rudy Pada<br>Bernie Curran<br>Rodrigo Santos", "total": 3, "url": "https://sfplanninggis.org/pim/?tab=Property&search=548+staples+ave" }, "geometry": { "type": "Point", "coordinates": [ -122.4534692, 37.7293268 ] } },
{ "type": "Feature", "properties": { "address": "879 Dolores St.", "who": "Cyril Yu<br>Bernie Curran<br>Rodrigo Santos", "total": 3, "url": "https://sfplanninggis.org/pim/?tab=Property&search=879+dolores+st" }, "geometry": { "type": "Point", "coordinates": [ -122.425131, 37.755438 ] } },
{ "type": "Feature", "properties": { "address": "144 Townsend St.", "who": "Rudy Pada<br>Cyril Yu<br>Bernie Curran", "total": 3, "url": "https://sfplanninggis.org/pim/?tab=Property&search=144+townsend+st" }, "geometry": { "type": "Point", "coordinates": [ -122.3919931, 37.780195 ] } },
{ "type": "Feature", "properties": { "address": "2120 Funston Ave.", "who": "Rudy Pada<br>Bernie Curran<br>Rodrigo Santos", "total": 3, "url": "https://sfplanninggis.org/pim/?tab=Property&search=2120+funston+ave" }, "geometry": { "type": "Point", "coordinates": [ -122.4693466, 37.7485271 ] } },
{ "type": "Feature", "properties": { "address": "32 Richland Ave.", "who": "Rudy Pada<br>Cyril Yu<br>Bernie Curran", "total": 3, "url": "https://sfplanninggis.org/pim/?tab=Property&search=32+richland+ave" }, "geometry": { "type": "Point", "coordinates": [ -122.4261926, 37.7359507 ] } },
{ "type": "Feature", "properties": { "address": "2716 Pine St.", "who": "Rudy Pada<br>Cyril Yu<br>Bernie Curran", "total": 3, "url": "https://sfplanninggis.org/pim/?tab=Property&search=2716+pine+st" }, "geometry": { "type": "Point", "coordinates": [ -122.4411805, 37.7872381 ] } },
{ "type": "Feature", "properties": { "address": "333 Market St.", "who": "Rudy Pada<br>Cyril Yu<br>Bernie Curran", "total": 3, "url": "https://sfplanninggis.org/pim/?tab=Property&search=333+market+st" }, "geometry": { "type": "Point", "coordinates": [ -122.3976135, 37.7915342 ] } },
{ "type": "Feature", "properties": { "address": "2650 18th St.", "who": "Rudy Pada<br>Cyril Yu<br>Bernie Curran", "total": 3, "url": "https://sfplanninggis.org/pim/?tab=Property&search=2650+18th+st" }, "geometry": { "type": "Point", "coordinates": [ -122.4089639, 37.7621342 ] } },
{ "type": "Feature", "properties": { "address": "1335 Folsom St.", "who": "Rudy Pada<br>Cyril Yu<br>Bernie Curran", "total": 3, "url": "https://sfplanninggis.org/pim/?tab=Property&search=1335+folsom+st" }, "geometry": { "type": "Point", "coordinates": [ -122.4120437, 37.7732202 ] } },
{ "type": "Feature", "properties": { "address": "2306 Geary Blvd.", "who": "Rudy Pada<br>Bernie Curran<br>Rodrigo Santos", "total": 3, "url": "https://sfplanninggis.org/pim/?tab=Property&search=2306+geary+blvd" }, "geometry": { "type": "Point", "coordinates": [ -122.4416211, 37.783316 ] } },
{ "type": "Feature", "properties": { "address": "311 11th Ave.", "who": "Rudy Pada<br>Bernie Curran<br>Rodrigo Santos", "total": 3, "url": "https://sfplanninggis.org/pim/?tab=Property&search=311+11th+ave" }, "geometry": { "type": "Point", "coordinates": [ -122.4699261, 37.782306299999988 ] } },
{ "type": "Feature", "properties": { "address": "2899 San Bruno Ave.", "who": "Rudy Pada<br>Cyril Yu<br>Bernie Curran", "total": 3, "url": "https://sfplanninggis.org/pim/?tab=Property&search=2899+san+bruno+ave" }, "geometry": { "type": "Point", "coordinates": [ -122.4024592, 37.7254192 ] } },
{ "type": "Feature", "properties": { "address": "3135 24th St.", "who": "Rudy Pada<br>Bernie Curran<br>Rodrigo Santos", "total": 3, "url": "https://sfplanninggis.org/pim/?tab=Property&search=3135+24th+st" }, "geometry": { "type": "Point", "coordinates": [ -122.4147384, 37.7522807 ] } },
{ "type": "Feature", "properties": { "address": "3139 Jackson St.", "who": "Cyril Yu<br>Bernie Curran<br>Rodrigo Santos", "total": 3, "url": "https://sfplanninggis.org/pim/?tab=Property&search=3139+jackson+st" }, "geometry": { "type": "Point", "coordinates": [ -122.446756, 37.790643 ] } },
{ "type": "Feature", "properties": { "address": "1660 Bay St.", "who": "Rudy Pada<br>Cyril Yu<br>Bernie Curran", "total": 3, "url": "https://sfplanninggis.org/pim/?tab=Property&search=1660+bay+st" }, "geometry": { "type": "Point", "coordinates": [ -122.4343924, 37.8033005 ] } },
{ "type": "Feature", "properties": { "address": "421 Oak St.", "who": "Rudy Pada<br>Cyril Yu<br>Bernie Curran", "total": 3, "url": "https://sfplanninggis.org/pim/?tab=Property&search=421+oak+st" }, "geometry": { "type": "Point", "coordinates": [ -122.426297, 37.774338 ] } },
{ "type": "Feature", "properties": { "address": "571 18th Ave.", "who": "Rudy Pada<br>Cyril Yu<br>Bernie Curran", "total": 3, "url": "https://sfplanninggis.org/pim/?tab=Property&search=571+18th+ave" }, "geometry": { "type": "Point", "coordinates": [ -122.47733, 37.77718 ] } },
{ "type": "Feature", "properties": { "address": "301 King St.", "who": "Rudy Pada<br>Cyril Yu<br>Bernie Curran", "total": 3, "url": "https://sfplanninggis.org/pim/?tab=Property&search=301+king+st" }, "geometry": { "type": "Point", "coordinates": [ -122.3946598, 37.7754932 ] } },
{ "type": "Feature", "properties": { "address": "238 Eureka St.", "who": "Cyril Yu<br>Bernie Curran<br>Rodrigo Santos", "total": 3, "url": "https://sfplanninggis.org/pim/?tab=Property&search=238+eureka+st" }, "geometry": { "type": "Point", "coordinates": [ -122.4383387, 37.7583583 ] } },
{ "type": "Feature", "properties": { "address": "86 Stanton St.", "who": "Rudy Pada<br>Bernie Curran<br>Rodrigo Santos", "total": 3, "url": "https://sfplanninggis.org/pim/?tab=Property&search=86+stanton+st" }, "geometry": { "type": "Point", "coordinates": [ -122.442106, 37.757039 ] } },
{ "type": "Feature", "properties": { "address": "1151 Sutter St.", "who": "Rudy Pada<br>Bernie Curran<br>Rodrigo Santos", "total": 3, "url": "https://sfplanninggis.org/pim/?tab=Property&search=1151+sutter+st" }, "geometry": { "type": "Point", "coordinates": [ -122.4194505, 37.7876313 ] } },
{ "type": "Feature", "properties": { "address": "85 Richland Ave.", "who": "Rudy Pada<br>Cyril Yu<br>Bernie Curran", "total": 3, "url": "https://sfplanninggis.org/pim/?tab=Property&search=85+richland+ave" }, "geometry": { "type": "Point", "coordinates": [ -122.4249183, 37.7360662 ] } },
{ "type": "Feature", "properties": { "address": "999 Green St.", "who": "Rudy Pada<br>Cyril Yu<br>Bernie Curran", "total": 3, "url": "https://sfplanninggis.org/pim/?tab=Property&search=999+green+st" }, "geometry": { "type": "Point", "coordinates": [ -122.4151576, 37.7984858 ] } },
{ "type": "Feature", "properties": { "address": "1060 Pine St.", "who": "Rudy Pada<br>Cyril Yu<br>Bernie Curran", "total": 3, "url": "https://sfplanninggis.org/pim/?tab=Property&search=1060+pine+st" }, "geometry": { "type": "Point", "coordinates": [ -122.4133224, 37.7907625 ] } },
{ "type": "Feature", "properties": { "address": "2178 Pine St.", "who": "Rudy Pada<br>Bernie Curran<br>Rodrigo Santos", "total": 3, "url": "https://sfplanninggis.org/pim/?tab=Property&search=2178+pine+st" }, "geometry": { "type": "Point", "coordinates": [ -122.4316201, 37.7884604 ] } },
{ "type": "Feature", "properties": { "address": "1142 York St.", "who": "Cyril Yu<br>Bernie Curran<br>Rodrigo Santos", "total": 3, "url": "https://sfplanninggis.org/pim/?tab=Property&search=1142+york+st" }, "geometry": { "type": "Point", "coordinates": [ -122.408546, 37.753678 ] } },
{ "type": "Feature", "properties": { "address": "1008 Larkin St.", "who": "Rudy Pada<br>Cyril Yu<br>Bernie Curran", "total": 3, "url": "https://sfplanninggis.org/pim/?tab=Property&search=1008+larkin+st" }, "geometry": { "type": "Point", "coordinates": [ -122.4181781, 37.7873106 ] } },
{ "type": "Feature", "properties": { "address": "900 Marin St.", "who": "Cyril Yu<br>Bernie Curran<br>Rodrigo Santos", "total": 3, "url": "https://sfplanninggis.org/pim/?tab=Property&search=900+marin+st" }, "geometry": { "type": "Point", "coordinates": [ -122.386006, 37.749454 ] } },
{ "type": "Feature", "properties": { "address": "330 Twin Peaks Blvd.", "who": "Rudy Pada<br>Cyril Yu<br>Bernie Curran", "total": 3, "url": "https://sfplanninggis.org/pim/?tab=Property&search=330+twin+peaks+blvd" }, "geometry": { "type": "Point", "coordinates": [ -122.4476748, 37.7571357 ] } },
{ "type": "Feature", "properties": { "address": "1 Sansome St.", "who": "Rudy Pada<br>Cyril Yu<br>Bernie Curran", "total": 3, "url": "https://sfplanninggis.org/pim/?tab=Property&search=1+sansome+st" }, "geometry": { "type": "Point", "coordinates": [ -122.4011537, 37.7904462 ] } },
{ "type": "Feature", "properties": { "address": "500 Stanyan St.", "who": "Rudy Pada<br>Cyril Yu<br>Bernie Curran", "total": 3, "url": "https://sfplanninggis.org/pim/?tab=Property&search=500+stanyan+st" }, "geometry": { "type": "Point", "coordinates": [ -122.4539831, 37.7727497 ] } },
{ "type": "Feature", "properties": { "address": "159 Castenada Ave.", "who": "Cyril Yu<br>Bernie Curran<br>Rodrigo Santos", "total": 3, "url": "https://sfplanninggis.org/pim/?tab=Property&search=159+castenada+ave" }, "geometry": { "type": "Point", "coordinates": [ -122.4614745, 37.7483085 ] } },
{ "type": "Feature", "properties": { "address": "16 Spruce St.", "who": "Rudy Pada<br>Cyril Yu<br>Bernie Curran", "total": 3, "url": "https://sfplanninggis.org/pim/?tab=Property&search=16+spruce+st" }, "geometry": { "type": "Point", "coordinates": [ -122.4537604, 37.7905845 ] } },
{ "type": "Feature", "properties": { "address": "490 Belvedere St.", "who": "Rudy Pada<br>Bernie Curran<br>Rodrigo Santos", "total": 3, "url": "https://sfplanninggis.org/pim/?tab=Property&search=490+belvedere+st" }, "geometry": { "type": "Point", "coordinates": [ -122.4479402, 37.763531 ] } },
{ "type": "Feature", "properties": { "address": "3149 California St.", "who": "Rudy Pada<br>Bernie Curran<br>Rodrigo Santos", "total": 3, "url": "https://sfplanninggis.org/pim/?tab=Property&search=3149+california+st" }, "geometry": { "type": "Point", "coordinates": [ -122.445994, 37.7870558 ] } },
{ "type": "Feature", "properties": { "address": "531 Girard St.", "who": "Rudy Pada<br>Cyril Yu<br>Bernie Curran", "total": 3, "url": "https://sfplanninggis.org/pim/?tab=Property&search=531+girard+st" }, "geometry": { "type": "Point", "coordinates": [ -122.4037548, 37.7258018 ] } },
{ "type": "Feature", "properties": { "address": "3439 Sacramento St.", "who": "Rudy Pada<br>Bernie Curran<br>Rodrigo Santos", "total": 3, "url": "https://sfplanninggis.org/pim/?tab=Property&search=3439+sacramento+st" }, "geometry": { "type": "Point", "coordinates": [ -122.4493454, 37.7876857 ] } },
{ "type": "Feature", "properties": { "address": "330 Presidio Ave.", "who": "Cyril Yu<br>Bernie Curran<br>Rodrigo Santos", "total": 3, "url": "https://sfplanninggis.org/pim/?tab=Property&search=330+presidio+ave" }, "geometry": { "type": "Point", "coordinates": [ -122.4467933, 37.7887263 ] } },
{ "type": "Feature", "properties": { "address": "327 Noriega St.", "who": "Cyril Yu<br>Bernie Curran<br>Rodrigo Santos", "total": 3, "url": "https://sfplanninggis.org/pim/?tab=Property&search=327+noriega+st" }, "geometry": { "type": "Point", "coordinates": [ -122.4672681, 37.7543042 ] } },
{ "type": "Feature", "properties": { "address": "2201 Lyon St.", "who": "Rudy Pada<br>Bernie Curran<br>Rodrigo Santos", "total": 3, "url": "https://sfplanninggis.org/pim/?tab=Property&search=2201+lyon+st" }, "geometry": { "type": "Point", "coordinates": [ -122.4463478, 37.7913376 ] } },
{ "type": "Feature", "properties": { "address": "1226 02nd Ave.", "who": "Rudy Pada<br>Cyril Yu<br>Bernie Curran", "total": 3, "url": "https://sfplanninggis.org/pim/?tab=Property&search=1226+02nd+ave" }, "geometry": { "type": "Point", "coordinates": [ -122.4586993, 37.7657924 ] } },
{ "type": "Feature", "properties": { "address": "3756 22nd St.", "who": "Rudy Pada<br>Bernie Curran<br>Rodrigo Santos", "total": 3, "url": "https://sfplanninggis.org/pim/?tab=Property&search=3756+22nd+st" }, "geometry": { "type": "Point", "coordinates": [ -122.4311304, 37.7548712 ] } },
{ "type": "Feature", "properties": { "address": "51 Beaver St.", "who": "Rudy Pada<br>Cyril Yu<br>Bernie Curran", "total": 3, "url": "https://sfplanninggis.org/pim/?tab=Property&search=51+beaver+st" }, "geometry": { "type": "Point", "coordinates": [ -122.4344402, 37.7648374 ] } },
{ "type": "Feature", "properties": { "address": "750 Harrison St.", "who": "Rudy Pada<br>Cyril Yu<br>Bernie Curran", "total": 3, "url": "https://sfplanninggis.org/pim/?tab=Property&search=750+harrison+st" }, "geometry": { "type": "Point", "coordinates": [ -122.3987812, 37.7817957 ] } },
{ "type": "Feature", "properties": { "address": "201 Spear St.", "who": "Rudy Pada<br>Cyril Yu<br>Bernie Curran", "total": 3, "url": "https://sfplanninggis.org/pim/?tab=Property&search=201+spear+st" }, "geometry": { "type": "Point", "coordinates": [ -122.3920152, 37.7912629 ] } },
{ "type": "Feature", "properties": { "address": "2268 15th St.", "who": "Rudy Pada<br>Bernie Curran<br>Rodrigo Santos", "total": 3, "url": "https://sfplanninggis.org/pim/?tab=Property&search=2268+15th+st" }, "geometry": { "type": "Point", "coordinates": [ -122.4347691, 37.7659557 ] } },
{ "type": "Feature", "properties": { "address": "3 Commonwealth Ave.", "who": "Rudy Pada<br>Cyril Yu<br>Bernie Curran", "total": 3, "url": "https://sfplanninggis.org/pim/?tab=Property&search=3+commonwealth+ave" }, "geometry": { "type": "Point", "coordinates": [ -122.4561451, 37.7859209 ] } },
{ "type": "Feature", "properties": { "address": "100 Delano Ave.", "who": "Rudy Pada<br>Cyril Yu<br>Bernie Curran", "total": 3, "url": "https://sfplanninggis.org/pim/?tab=Property&search=100+delano+ave" }, "geometry": { "type": "Point", "coordinates": [ -122.4408476, 37.7265093 ] } },
{ "type": "Feature", "properties": { "address": "488 Bryant St.", "who": "Rudy Pada<br>Cyril Yu<br>Bernie Curran", "total": 3, "url": "https://sfplanninggis.org/pim/?tab=Property&search=488+bryant+st" }, "geometry": { "type": "Point", "coordinates": [ -122.3957327, 37.7817824 ] } },
{ "type": "Feature", "properties": { "address": "2442 25th Ave.", "who": "Rudy Pada<br>Cyril Yu<br>Bernie Curran", "total": 3, "url": "https://sfplanninggis.org/pim/?tab=Property&search=2442+25th+ave" }, "geometry": { "type": "Point", "coordinates": [ -122.4818612, 37.7419541 ] } },
{ "type": "Feature", "properties": { "address": "4068 Folsom St.", "who": "Rudy Pada<br>Cyril Yu<br>Bernie Curran", "total": 3, "url": "https://sfplanninggis.org/pim/?tab=Property&search=4068+folsom+st" }, "geometry": { "type": "Point", "coordinates": [ -122.4137539, 37.736225 ] } },
{ "type": "Feature", "properties": { "address": "113 Bartlett St.", "who": "Cyril Yu<br>Bernie Curran<br>Rodrigo Santos", "total": 3, "url": "https://sfplanninggis.org/pim/?tab=Property&search=113+bartlett+st" }, "geometry": { "type": "Point", "coordinates": [ -122.4195501, 37.754944 ] } },
{ "type": "Feature", "properties": { "address": "2806 Pine St.", "who": "Cyril Yu<br>Bernie Curran<br>Rodrigo Santos", "total": 3, "url": "https://sfplanninggis.org/pim/?tab=Property&search=2806+pine+st" }, "geometry": { "type": "Point", "coordinates": [ -122.442224, 37.7870548 ] } },
{ "type": "Feature", "properties": { "address": "351 Buena Vista East Ave.", "who": "Rudy Pada<br>Cyril Yu<br>Bernie Curran", "total": 3, "url": "https://sfplanninggis.org/pim/?tab=Property&search=351+buena+vista+east+ave" }, "geometry": { "type": "Point", "coordinates": [ -122.4400575, 37.7675163 ] } },
{ "type": "Feature", "properties": { "address": "2867 San Bruno Ave.", "who": "Rudy Pada<br>Cyril Yu<br>Bernie Curran", "total": 3, "url": "https://sfplanninggis.org/pim/?tab=Property&search=2867+san+bruno+ave" }, "geometry": { "type": "Point", "coordinates": [ -122.4025919, 37.7256765 ] } },
{ "type": "Feature", "properties": { "address": "2891 San Bruno Ave.", "who": "Rudy Pada<br>Cyril Yu<br>Bernie Curran", "total": 3, "url": "https://sfplanninggis.org/pim/?tab=Property&search=2891+san+bruno+ave" }, "geometry": { "type": "Point", "coordinates": [ -122.4025034, 37.7255547 ] } },
{ "type": "Feature", "properties": { "address": "2875 San Bruno Ave.", "who": "Rudy Pada<br>Cyril Yu<br>Bernie Curran", "total": 3, "url": "https://sfplanninggis.org/pim/?tab=Property&search=2875+san+bruno+ave" }, "geometry": { "type": "Point", "coordinates": [ -122.4026493, 37.725599 ] } },
{ "type": "Feature", "properties": { "address": "2883 San Bruno Ave.", "who": "Rudy Pada<br>Cyril Yu<br>Bernie Curran", "total": 3, "url": "https://sfplanninggis.org/pim/?tab=Property&search=2883+san+bruno+ave" }, "geometry": { "type": "Point", "coordinates": [ -122.4026269, 37.7255094 ] } },
{ "type": "Feature", "properties": { "address": "236 Cole St.", "who": "Rudy Pada<br>Cyril Yu<br>Bernie Curran", "total": 3, "url": "https://sfplanninggis.org/pim/?tab=Property&search=236+cole+st" }, "geometry": { "type": "Point", "coordinates": [ -122.450573, 37.772823 ] } },
{ "type": "Feature", "properties": { "address": "2030 Broadway", "who": "Rudy Pada<br>Bernie Curran<br>Rodrigo Santos", "total": 3, "url": "https://sfplanninggis.org/pim/?tab=Property&search=2030+broadway" }, "geometry": { "type": "Point", "coordinates": [ -122.431042, 37.795043799999988 ] } },
{ "type": "Feature", "properties": { "address": "100 Pine St.", "who": "Rudy Pada<br>Cyril Yu<br>Bernie Curran", "total": 3, "url": "https://sfplanninggis.org/pim/?tab=Property&search=100+pine+st" }, "geometry": { "type": "Point", "coordinates": [ -122.3989844, 37.7925848 ] } },
{ "type": "Feature", "properties": { "address": "4222 18th St.", "who": "Rudy Pada<br>Bernie Curran<br>Rodrigo Santos", "total": 3, "url": "https://sfplanninggis.org/pim/?tab=Property&search=4222+18th+st" }, "geometry": { "type": "Point", "coordinates": [ -122.4366611, 37.7609532 ] } },
{ "type": "Feature", "properties": { "address": "3336 23rd St.", "who": "Cyril Yu<br>Bernie Curran<br>Rodrigo Santos", "total": 3, "url": "https://sfplanninggis.org/pim/?tab=Property&search=3336+23rd+st" }, "geometry": { "type": "Point", "coordinates": [ -122.4194395, 37.7539727 ] } },
{ "type": "Feature", "properties": { "address": "565 Marina Blvd.", "who": "Rudy Pada<br>Bernie Curran<br>Rodrigo Santos", "total": 3, "url": "https://sfplanninggis.org/pim/?tab=Property&search=565+marina+blvd" }, "geometry": { "type": "Point", "coordinates": [ -122.4433548, 37.805431 ] } },
{ "type": "Feature", "properties": { "address": "2250 Vallejo St.", "who": "Rudy Pada<br>Bernie Curran<br>Rodrigo Santos", "total": 3, "url": "https://sfplanninggis.org/pim/?tab=Property&search=2250+vallejo+st" }, "geometry": { "type": "Point", "coordinates": [ -122.4344042, 37.795572 ] } },
{ "type": "Feature", "properties": { "address": "201 Filbert St.", "who": "Rudy Pada<br>Cyril Yu<br>Bernie Curran", "total": 3, "url": "https://sfplanninggis.org/pim/?tab=Property&search=201+filbert+st" }, "geometry": { "type": "Point", "coordinates": [ -122.4031888, 37.8019849 ] } },
{ "type": "Feature", "properties": { "address": "4660 18th St.", "who": "Rudy Pada<br>Cyril Yu<br>Bernie Curran", "total": 3, "url": "https://sfplanninggis.org/pim/?tab=Property&search=4660+18th+st" }, "geometry": { "type": "Point", "coordinates": [ -122.4425606, 37.7605713 ] } },
{ "type": "Feature", "properties": { "address": "2418 16th Ave.", "who": "Cyril Yu<br>Bernie Curran<br>Rodrigo Santos", "total": 3, "url": "https://sfplanninggis.org/pim/?tab=Property&search=2418+16th+ave" }, "geometry": { "type": "Point", "coordinates": [ -122.4722098, 37.7427887 ] } },
{ "type": "Feature", "properties": { "address": "526 07th Ave.", "who": "Rudy Pada<br>Cyril Yu<br>Bernie Curran", "total": 3, "url": "https://sfplanninggis.org/pim/?tab=Property&search=526+07th+ave" }, "geometry": { "type": "Point", "coordinates": [ -122.4649242, 37.778509799999988 ] } },
{ "type": "Feature", "properties": { "address": "2914 Arelious Walker Dr.", "who": "Rudy Pada<br>Bernie Curran<br>Rodrigo Santos", "total": 3, "url": "https://sfplanninggis.org/pim/?tab=Property&search=2914+arelious+walker+dr" }, "geometry": { "type": "Point", "coordinates": [ -122.3851815, 37.7184462 ] } },
{ "type": "Feature", "properties": { "address": "650 Townsend St.", "who": "Cyril Yu<br>Bernie Curran<br>Rodrigo Santos", "total": 3, "url": "https://sfplanninggis.org/pim/?tab=Property&search=650+townsend+st" }, "geometry": { "type": "Point", "coordinates": [ -122.4036319, 37.7709229 ] } },
{ "type": "Feature", "properties": { "address": "557 Dolores St.", "who": "Rudy Pada<br>Cyril Yu<br>Bernie Curran", "total": 3, "url": "https://sfplanninggis.org/pim/?tab=Property&search=557+dolores+st" }, "geometry": { "type": "Point", "coordinates": [ -122.4255967, 37.7606127 ] } },
{ "type": "Feature", "properties": { "address": "1390 Market St.", "who": "Rudy Pada<br>Cyril Yu<br>Bernie Curran", "total": 3, "url": "https://sfplanninggis.org/pim/?tab=Property&search=1390+market+st" }, "geometry": { "type": "Point", "coordinates": [ -122.4173202, 37.7773256 ] } },
{ "type": "Feature", "properties": { "address": "1750 Taylor St.", "who": "Rudy Pada<br>Cyril Yu<br>Bernie Curran", "total": 3, "url": "https://sfplanninggis.org/pim/?tab=Property&search=1750+taylor+st" }, "geometry": { "type": "Point", "coordinates": [ -122.4132863, 37.7987349 ] } },
{ "type": "Feature", "properties": { "address": "3590 Washington St.", "who": "Cyril Yu<br>Bernie Curran<br>Rodrigo Santos", "total": 3, "url": "https://sfplanninggis.org/pim/?tab=Property&search=3590+washington+st" }, "geometry": { "type": "Point", "coordinates": [ -122.4521926, 37.7896004 ] } },
{ "type": "Feature", "properties": { "address": "176 Chattanooga St.", "who": "Cyril Yu<br>Bernie Curran<br>Rodrigo Santos", "total": 3, "url": "https://sfplanninggis.org/pim/?tab=Property&search=176+chattanooga+st" }, "geometry": { "type": "Point", "coordinates": [ -122.426822, 37.753739 ] } },
{ "type": "Feature", "properties": { "address": "220 Montgomery St.", "who": "Cyril Yu<br>Bernie Curran<br>Rodrigo Santos", "total": 3, "url": "https://sfplanninggis.org/pim/?tab=Property&search=220+montgomery+st" }, "geometry": { "type": "Point", "coordinates": [ -122.4023564, 37.7913028 ] } },
{ "type": "Feature", "properties": { "address": "135 06th St.", "who": "Rudy Pada<br>Bernie Curran<br>Rodrigo Santos", "total": 3, "url": "https://sfplanninggis.org/pim/?tab=Property&search=135+06th+st" }, "geometry": { "type": "Point", "coordinates": [ -122.4079032, 37.7806623 ] } },
{ "type": "Feature", "properties": { "address": "75 Folsom St.", "who": "Rudy Pada<br>Cyril Yu<br>Bernie Curran", "total": 3, "url": "https://sfplanninggis.org/pim/?tab=Property&search=75+folsom+st" }, "geometry": { "type": "Point", "coordinates": [ -122.3906326, 37.7901476 ] } },
{ "type": "Feature", "properties": { "address": "50 Fremont St.", "who": "Rudy Pada<br>Cyril Yu<br>Bernie Curran", "total": 3, "url": "https://sfplanninggis.org/pim/?tab=Property&search=50+fremont+st" }, "geometry": { "type": "Point", "coordinates": [ -122.3972152, 37.7905027 ] } },
{ "type": "Feature", "properties": { "address": "425 North Point St.", "who": "Rudy Pada<br>Cyril Yu<br>Bernie Curran", "total": 3, "url": "https://sfplanninggis.org/pim/?tab=Property&search=425+north+point+st" }, "geometry": { "type": "Point", "coordinates": [ -122.4142074, 37.8061945 ] } },
{ "type": "Feature", "properties": { "address": "1225 Taylor St.", "who": "Rudy Pada<br>Cyril Yu<br>Bernie Curran", "total": 3, "url": "https://sfplanninggis.org/pim/?tab=Property&search=1225+taylor+st" }, "geometry": { "type": "Point", "coordinates": [ -122.413282, 37.7938116 ] } },
{ "type": "Feature", "properties": { "address": "461 02nd St.", "who": "Rudy Pada<br>Cyril Yu<br>Bernie Curran", "total": 3, "url": "https://sfplanninggis.org/pim/?tab=Property&search=461+02nd+st" }, "geometry": { "type": "Point", "coordinates": [ -122.3937191, 37.783797 ] } },
{ "type": "Feature", "properties": { "address": "319 Walnut St.", "who": "Rudy Pada<br>Bernie Curran<br>Rodrigo Santos", "total": 3, "url": "https://sfplanninggis.org/pim/?tab=Property&search=319+walnut+st" }, "geometry": { "type": "Point", "coordinates": [ -122.4490143, 37.7884885 ] } },
{ "type": "Feature", "properties": { "address": "725 Grant Ave.", "who": "Rudy Pada<br>Cyril Yu<br>Bernie Curran", "total": 3, "url": "https://sfplanninggis.org/pim/?tab=Property&search=725+grant+ave" }, "geometry": { "type": "Point", "coordinates": [ -122.4063894, 37.7937602 ] } },
{ "type": "Feature", "properties": { "address": "111 Sutter St.", "who": "Rudy Pada<br>Cyril Yu<br>Bernie Curran", "total": 3, "url": "https://sfplanninggis.org/pim/?tab=Property&search=111+sutter+st" }, "geometry": { "type": "Point", "coordinates": [ -122.4025654, 37.7899001 ] } },
{ "type": "Feature", "properties": { "address": "3630 Jackson St.", "who": "Rudy Pada<br>Cyril Yu<br>Bernie Curran", "total": 3, "url": "https://sfplanninggis.org/pim/?tab=Property&search=3630+jackson+st" }, "geometry": { "type": "Point", "coordinates": [ -122.4546819, 37.7902373 ] } },
{ "type": "Feature", "properties": { "address": "150 Urbano Dr.", "who": "Rudy Pada<br>Cyril Yu<br>Bernie Curran", "total": 3, "url": "https://sfplanninggis.org/pim/?tab=Property&search=150+urbano+dr" }, "geometry": { "type": "Point", "coordinates": [ -122.465278, 37.7255798 ] } },
{ "type": "Feature", "properties": { "address": "151 23rd Ave.", "who": "Rudy Pada<br>Cyril Yu<br>Bernie Curran", "total": 3, "url": "https://sfplanninggis.org/pim/?tab=Property&search=151+23rd+ave" }, "geometry": { "type": "Point", "coordinates": [ -122.483263, 37.7848619 ] } },
{ "type": "Feature", "properties": { "address": "1899 Green St.", "who": "Rudy Pada<br>Bernie Curran<br>Rodrigo Santos", "total": 3, "url": "https://sfplanninggis.org/pim/?tab=Property&search=1899+green+st" }, "geometry": { "type": "Point", "coordinates": [ -122.4302014, 37.7966792 ] } },
{ "type": "Feature", "properties": { "address": "1 Gladeview Wy.", "who": "Rudy Pada<br>Cyril Yu<br>Bernie Curran", "total": 3, "url": "https://sfplanninggis.org/pim/?tab=Property&search=1+gladeview+wy" }, "geometry": { "type": "Point", "coordinates": [ -122.4505941, 37.749834 ] } },
{ "type": "Feature", "properties": { "address": "1170 Sacramento St.", "who": "Rudy Pada<br>Cyril Yu<br>Bernie Curran", "total": 3, "url": "https://sfplanninggis.org/pim/?tab=Property&search=1170+sacramento+st" }, "geometry": { "type": "Point", "coordinates": [ -122.4121403, 37.7929056 ] } },
{ "type": "Feature", "properties": { "address": "234 Joost Ave.", "who": "Rudy Pada<br>Bernie Curran<br>Rodrigo Santos", "total": 3, "url": "https://sfplanninggis.org/pim/?tab=Property&search=234+joost+ave" }, "geometry": { "type": "Point", "coordinates": [ -122.4405972, 37.73258 ] } },
{ "type": "Feature", "properties": { "address": "15 Allison St.", "who": "Rudy Pada<br>Cyril Yu<br>Bernie Curran", "total": 3, "url": "https://sfplanninggis.org/pim/?tab=Property&search=15+allison+st" }, "geometry": { "type": "Point", "coordinates": [ -122.4423225, 37.7145069 ] } },
{ "type": "Feature", "properties": { "address": "601 Townsend St.", "who": "Rudy Pada<br>Cyril Yu<br>Bernie Curran", "total": 3, "url": "https://sfplanninggis.org/pim/?tab=Property&search=601+townsend+st" }, "geometry": { "type": "Point", "coordinates": [ -122.4016429, 37.7711333 ] } },
{ "type": "Feature", "properties": { "address": "325 Berry St.", "who": "Rudy Pada<br>Cyril Yu<br>Bernie Curran", "total": 3, "url": "https://sfplanninggis.org/pim/?tab=Property&search=325+berry+st" }, "geometry": { "type": "Point", "coordinates": [ -122.3957106, 37.773394 ] } },
{ "type": "Feature", "properties": { "address": "322 Chattanooga St.", "who": "Rudy Pada<br>Cyril Yu<br>Bernie Curran", "total": 3, "url": "https://sfplanninggis.org/pim/?tab=Property&search=322+chattanooga+st" }, "geometry": { "type": "Point", "coordinates": [ -122.426567, 37.75138 ] } },
{ "type": "Feature", "properties": { "address": "1588 Fulton St.", "who": "Rudy Pada<br>Cyril Yu<br>Bernie Curran", "total": 3, "url": "https://sfplanninggis.org/pim/?tab=Property&search=1588+fulton+st" }, "geometry": { "type": "Point", "coordinates": [ -122.4429172, 37.7764166 ] } },
{ "type": "Feature", "properties": { "address": "530 Valencia St.", "who": "Rudy Pada<br>Cyril Yu<br>Bernie Curran", "total": 3, "url": "https://sfplanninggis.org/pim/?tab=Property&search=530+valencia+st" }, "geometry": { "type": "Point", "coordinates": [ -122.4220991, 37.7643968 ] } },
{ "type": "Feature", "properties": { "address": "1 Maritime Pz.", "who": "Rudy Pada<br>Cyril Yu<br>Bernie Curran", "total": 3, "url": "https://sfplanninggis.org/pim/?tab=Property&search=1+maritime+pz" }, "geometry": { "type": "Point", "coordinates": [ -122.3992066, 37.7956599 ] } },
{ "type": "Feature", "properties": { "address": "430 Noriega St.", "who": "Rudy Pada<br>Bernie Curran<br>Rodrigo Santos", "total": 3, "url": "https://sfplanninggis.org/pim/?tab=Property&search=430+noriega+st" }, "geometry": { "type": "Point", "coordinates": [ -122.4684622, 37.7552019 ] } },
{ "type": "Feature", "properties": { "address": "2360 Van Ness Ave.", "who": "Rudy Pada<br>Cyril Yu<br>Bernie Curran", "total": 3, "url": "https://sfplanninggis.org/pim/?tab=Property&search=2360+van+ness+ave" }, "geometry": { "type": "Point", "coordinates": [ -122.4234988, 37.7975319 ] } },
{ "type": "Feature", "properties": { "address": "69 Pearl St.", "who": "Rudy Pada<br>Bernie Curran<br>Rodrigo Santos", "total": 3, "url": "https://sfplanninggis.org/pim/?tab=Property&search=69+pearl+st" }, "geometry": { "type": "Point", "coordinates": [ -122.423664, 37.77031 ] } },
{ "type": "Feature", "properties": { "address": "2500 Steiner St.", "who": "Rudy Pada<br>Cyril Yu<br>Bernie Curran", "total": 3, "url": "https://sfplanninggis.org/pim/?tab=Property&search=2500+steiner+st" }, "geometry": { "type": "Point", "coordinates": [ -122.4361061, 37.7924686 ] } },
{ "type": "Feature", "properties": { "address": "604 Mission St.", "who": "Rudy Pada<br>Cyril Yu<br>Bernie Curran", "total": 3, "url": "https://sfplanninggis.org/pim/?tab=Property&search=604+mission+st" }, "geometry": { "type": "Point", "coordinates": [ -122.4002036, 37.7879704 ] } },
{ "type": "Feature", "properties": { "address": "1731 Powell St.", "who": "Cyril Yu<br>Bernie Curran<br>Rodrigo Santos", "total": 3, "url": "https://sfplanninggis.org/pim/?tab=Property&search=1731+powell+st" }, "geometry": { "type": "Point", "coordinates": [ -122.4112871, 37.8006922 ] } },
{ "type": "Feature", "properties": { "address": "34 Levant St.", "who": "Rudy Pada<br>Cyril Yu<br>Bernie Curran", "total": 3, "url": "https://sfplanninggis.org/pim/?tab=Property&search=34+levant+st" }, "geometry": { "type": "Point", "coordinates": [ -122.4425105, 37.7645973 ] } },
{ "type": "Feature", "properties": { "address": "406 Buchanan St.", "who": "Cyril Yu<br>Bernie Curran<br>Rodrigo Santos", "total": 3, "url": "https://sfplanninggis.org/pim/?tab=Property&search=406+buchanan+st" }, "geometry": { "type": "Point", "coordinates": [ -122.4272112, 37.773868 ] } },
{ "type": "Feature", "properties": { "address": "1315 07th Ave.", "who": "Rudy Pada<br>Bernie Curran<br>Rodrigo Santos", "total": 3, "url": "https://sfplanninggis.org/pim/?tab=Property&search=1315+07th+ave" }, "geometry": { "type": "Point", "coordinates": [ -122.4644277, 37.7637589 ] } },
{ "type": "Feature", "properties": { "address": "2174 Market St.", "who": "Rudy Pada<br>Cyril Yu<br>Bernie Curran", "total": 3, "url": "https://sfplanninggis.org/pim/?tab=Property&search=2174+market+st" }, "geometry": { "type": "Point", "coordinates": [ -122.430478, 37.7668676 ] } },
{ "type": "Feature", "properties": { "address": "357 Mississippi St.", "who": "Rudy Pada<br>Bernie Curran<br>Rodrigo Santos", "total": 3, "url": "https://sfplanninggis.org/pim/?tab=Property&search=357+mississippi+st" }, "geometry": { "type": "Point", "coordinates": [ -122.394179, 37.761629 ] } },
{ "type": "Feature", "properties": { "address": "244 Granada Ave.", "who": "Rudy Pada<br>Cyril Yu<br>Bernie Curran", "total": 3, "url": "https://sfplanninggis.org/pim/?tab=Property&search=244+granada+ave" }, "geometry": { "type": "Point", "coordinates": [ -122.4569854, 37.7228642 ] } },
{ "type": "Feature", "properties": { "address": "87 Dolores St.", "who": "Cyril Yu<br>Bernie Curran<br>Rodrigo Santos", "total": 3, "url": "https://sfplanninggis.org/pim/?tab=Property&search=87+dolores+st" }, "geometry": { "type": "Point", "coordinates": [ -122.4263222, 37.7680809 ] } },
{ "type": "Feature", "properties": { "address": "1262 05th Ave.", "who": "Rudy Pada<br>Cyril Yu<br>Bernie Curran", "total": 3, "url": "https://sfplanninggis.org/pim/?tab=Property&search=1262+05th+ave" }, "geometry": { "type": "Point", "coordinates": [ -122.4618625, 37.7648343 ] } },
{ "type": "Feature", "properties": { "address": "1637 Clay St.", "who": "Cyril Yu<br>Bernie Curran<br>Rodrigo Santos", "total": 3, "url": "https://sfplanninggis.org/pim/?tab=Property&search=1637+clay+st" }, "geometry": { "type": "Point", "coordinates": [ -122.4201545, 37.7923309 ] } },
{ "type": "Feature", "properties": { "address": "135 Townsend St.", "who": "Cyril Yu<br>Bernie Curran<br>Rodrigo Santos", "total": 3, "url": "https://sfplanninggis.org/pim/?tab=Property&search=135+townsend+st" }, "geometry": { "type": "Point", "coordinates": [ -122.3912197, 37.7798868 ] } },
{ "type": "Feature", "properties": { "address": "1880 Jackson St.", "who": "Rudy Pada<br>Cyril Yu<br>Bernie Curran", "total": 3, "url": "https://sfplanninggis.org/pim/?tab=Property&search=1880+jackson+st" }, "geometry": { "type": "Point", "coordinates": [ -122.4261534, 37.7938128 ] } },
{ "type": "Feature", "properties": { "address": "1490 Ocean Ave.", "who": "Cyril Yu<br>Bernie Curran<br>Rodrigo Santos", "total": 3, "url": "https://sfplanninggis.org/pim/?tab=Property&search=1490+ocean+ave" }, "geometry": { "type": "Point", "coordinates": [ -122.4578258, 37.7245784 ] } },
{ "type": "Feature", "properties": { "address": "310 Montcalm St.", "who": "Rudy Pada<br>Cyril Yu<br>Bernie Curran", "total": 3, "url": "https://sfplanninggis.org/pim/?tab=Property&search=310+montcalm+st" }, "geometry": { "type": "Point", "coordinates": [ -122.4094507, 37.7458063 ] } },
{ "type": "Feature", "properties": { "address": "2855 Filbert St.", "who": "Rudy Pada<br>Cyril Yu<br>Bernie Curran", "total": 3, "url": "https://sfplanninggis.org/pim/?tab=Property&search=2855+filbert+st" }, "geometry": { "type": "Point", "coordinates": [ -122.4464785, 37.796453199999988 ] } },
{ "type": "Feature", "properties": { "address": "825 Rhode Island St.", "who": "Rudy Pada<br>Cyril Yu<br>Bernie Curran", "total": 3, "url": "https://sfplanninggis.org/pim/?tab=Property&search=825+rhode+island+st" }, "geometry": { "type": "Point", "coordinates": [ -122.4018362, 37.7592845 ] } },
{ "type": "Feature", "properties": { "address": "4500 California St.", "who": "Rudy Pada<br>Bernie Curran<br>Rodrigo Santos", "total": 3, "url": "https://sfplanninggis.org/pim/?tab=Property&search=4500+california+st" }, "geometry": { "type": "Point", "coordinates": [ -122.4658087, 37.7850837 ] } },
{ "type": "Feature", "properties": { "address": "26 Fernwood Dr.", "who": "Cyril Yu<br>Bernie Curran<br>Rodrigo Santos", "total": 3, "url": "https://sfplanninggis.org/pim/?tab=Property&search=26+fernwood+dr" }, "geometry": { "type": "Point", "coordinates": [ -122.4616957, 37.7340183 ] } },
{ "type": "Feature", "properties": { "address": "101 Sanchez St.", "who": "Cyril Yu<br>Bernie Curran<br>Rodrigo Santos", "total": 3, "url": "https://sfplanninggis.org/pim/?tab=Property&search=101+sanchez+st" }, "geometry": { "type": "Point", "coordinates": [ -122.4310011, 37.7675036 ] } },
{ "type": "Feature", "properties": { "address": "1 Market St.", "who": "Rudy Pada<br>Cyril Yu<br>Bernie Curran", "total": 3, "url": "https://sfplanninggis.org/pim/?tab=Property&search=1+market+st" }, "geometry": { "type": "Point", "coordinates": [ -122.3945839, 37.7935071 ] } },
{ "type": "Feature", "properties": { "address": "1294 Geneva Ave.", "who": "Rudy Pada<br>Bernie Curran<br>Rodrigo Santos", "total": 3, "url": "https://sfplanninggis.org/pim/?tab=Property&search=1294+geneva+ave" }, "geometry": { "type": "Point", "coordinates": [ -122.4349109, 37.7133683 ] } },
{ "type": "Feature", "properties": { "address": "601 Fell St.", "who": "Cyril Yu<br>Bernie Curran<br>Rodrigo Santos", "total": 3, "url": "https://sfplanninggis.org/pim/?tab=Property&search=601+fell+st" }, "geometry": { "type": "Point", "coordinates": [ -122.427828, 37.775116 ] } },
{ "type": "Feature", "properties": { "address": "2621 Harrison St.", "who": "Cyril Yu<br>Bernie Curran<br>Rodrigo Santos", "total": 3, "url": "https://sfplanninggis.org/pim/?tab=Property&search=2621+harrison+st" }, "geometry": { "type": "Point", "coordinates": [ -122.4119397, 37.7553845 ] } },
{ "type": "Feature", "properties": { "address": "1985 Fulton St.", "who": "Rudy Pada<br>Cyril Yu<br>Bernie Curran", "total": 3, "url": "https://sfplanninggis.org/pim/?tab=Property&search=1985+fulton+st" }, "geometry": { "type": "Point", "coordinates": [ -122.449383, 37.775301 ] } },
{ "type": "Feature", "properties": { "address": "41 Pueblo St.", "who": "Rudy Pada<br>Bernie Curran<br>Rodrigo Santos", "total": 3, "url": "https://sfplanninggis.org/pim/?tab=Property&search=41+pueblo+st" }, "geometry": { "type": "Point", "coordinates": [ -122.4169617, 37.7085107 ] } },
{ "type": "Feature", "properties": { "address": "279 Monterey Blvd.", "who": "Rudy Pada<br>Bernie Curran<br>Rodrigo Santos", "total": 3, "url": "https://sfplanninggis.org/pim/?tab=Property&search=279+monterey+blvd" }, "geometry": { "type": "Point", "coordinates": [ -122.4415749, 37.7314083 ] } },
{ "type": "Feature", "properties": { "address": "108 Bosworth St.", "who": "Rudy Pada<br>Cyril Yu<br>Bernie Curran", "total": 3, "url": "https://sfplanninggis.org/pim/?tab=Property&search=108+bosworth+st" }, "geometry": { "type": "Point", "coordinates": [ -122.4281221, 37.7336983 ] } },
{ "type": "Feature", "properties": { "address": "1200 California St.", "who": "Rudy Pada<br>Cyril Yu<br>Bernie Curran", "total": 3, "url": "https://sfplanninggis.org/pim/?tab=Property&search=1200+california+st" }, "geometry": { "type": "Point", "coordinates": [ -122.4144729, 37.7917486 ] } },
{ "type": "Feature", "properties": { "address": "643 Divisadero St.", "who": "Cyril Yu<br>Bernie Curran<br>Rodrigo Santos", "total": 3, "url": "https://sfplanninggis.org/pim/?tab=Property&search=643+divisadero+st" }, "geometry": { "type": "Point", "coordinates": [ -122.4381346, 37.7756219 ] } },
{ "type": "Feature", "properties": { "address": "40 Pond St.", "who": "Cyril Yu<br>Bernie Curran<br>Rodrigo Santos", "total": 3, "url": "https://sfplanninggis.org/pim/?tab=Property&search=40+pond+st" }, "geometry": { "type": "Point", "coordinates": [ -122.4324168, 37.763596 ] } },
{ "type": "Feature", "properties": { "address": "715 Kirkham St.", "who": "Rudy Pada<br>Bernie Curran<br>Rodrigo Santos", "total": 3, "url": "https://sfplanninggis.org/pim/?tab=Property&search=715+kirkham+st" }, "geometry": { "type": "Point", "coordinates": [ -122.4684613, 37.7600373 ] } },
{ "type": "Feature", "properties": { "address": "150 Lombard St.", "who": "Rudy Pada<br>Bernie Curran<br>Rodrigo Santos", "total": 3, "url": "https://sfplanninggis.org/pim/?tab=Property&search=150+lombard+st" }, "geometry": { "type": "Point", "coordinates": [ -122.4038199, 37.8041508 ] } },
{ "type": "Feature", "properties": { "address": "88 King St.", "who": "Rudy Pada<br>Cyril Yu<br>Bernie Curran", "total": 3, "url": "https://sfplanninggis.org/pim/?tab=Property&search=88+king+st" }, "geometry": { "type": "Point", "coordinates": [ -122.3892201, 37.7806904 ] } },
{ "type": "Feature", "properties": { "address": "274 Brannan St.", "who": "Cyril Yu<br>Bernie Curran<br>Rodrigo Santos", "total": 3, "url": "https://sfplanninggis.org/pim/?tab=Property&search=274+brannan+st" }, "geometry": { "type": "Point", "coordinates": [ -122.3917718, 37.7826083 ] } },
{ "type": "Feature", "properties": { "address": "2299 Post St.", "who": "Rudy Pada<br>Cyril Yu<br>Bernie Curran", "total": 3, "url": "https://sfplanninggis.org/pim/?tab=Property&search=2299+post+st" }, "geometry": { "type": "Point", "coordinates": [ -122.4390712, 37.7841071 ] } },
{ "type": "Feature", "properties": { "address": "58 Arroyo Wy.", "who": "Cyril Yu<br>Bernie Curran<br>Rodrigo Santos", "total": 3, "url": "https://sfplanninggis.org/pim/?tab=Property&search=58+arroyo+wy" }, "geometry": { "type": "Point", "coordinates": [ -122.4472436, 37.7386623 ] } },
{ "type": "Feature", "properties": { "address": "807 Columbus Ave.", "who": "Rudy Pada<br>Bernie Curran<br>Rodrigo Santos", "total": 3, "url": "https://sfplanninggis.org/pim/?tab=Property&search=807+columbus+ave" }, "geometry": { "type": "Point", "coordinates": [ -122.413355, 37.8023175 ] } },
{ "type": "Feature", "properties": { "address": "1618 Polk St.", "who": "Rudy Pada<br>Cyril Yu<br>Bernie Curran", "total": 3, "url": "https://sfplanninggis.org/pim/?tab=Property&search=1618+polk+st" }, "geometry": { "type": "Point", "coordinates": [ -122.4208217, 37.7918615 ] } },
{ "type": "Feature", "properties": { "address": "200 Van Ness Ave.", "who": "Rudy Pada<br>Cyril Yu<br>Bernie Curran", "total": 3, "url": "https://sfplanninggis.org/pim/?tab=Property&search=200+van+ness+ave" }, "geometry": { "type": "Point", "coordinates": [ -122.4194604, 37.7775208 ] } },
{ "type": "Feature", "properties": { "address": "647 Minna St.", "who": "Rudy Pada<br>Cyril Yu<br>Bernie Curran", "total": 3, "url": "https://sfplanninggis.org/pim/?tab=Property&search=647+minna+st" }, "geometry": { "type": "Point", "coordinates": [ -122.4113294, 37.7778297 ] } },
{ "type": "Feature", "properties": { "address": "3436 Anza St.", "who": "Rudy Pada<br>Cyril Yu<br>Bernie Curran", "total": 3, "url": "https://sfplanninggis.org/pim/?tab=Property&search=3436+anza+st" }, "geometry": { "type": "Point", "coordinates": [ -122.485271, 37.7783424 ] } },
{ "type": "Feature", "properties": { "address": "1333 Jones St.", "who": "Rudy Pada<br>Cyril Yu<br>Bernie Curran", "total": 3, "url": "https://sfplanninggis.org/pim/?tab=Property&search=1333+jones+st" }, "geometry": { "type": "Point", "coordinates": [ -122.4149965, 37.793588199999988 ] } },
{ "type": "Feature", "properties": { "address": "65 25th Ave.", "who": "Rudy Pada<br>Bernie Curran<br>Rodrigo Santos", "total": 3, "url": "https://sfplanninggis.org/pim/?tab=Property&search=65+25th+ave" }, "geometry": { "type": "Point", "coordinates": [ -122.4853101, 37.7885974 ] } },
{ "type": "Feature", "properties": { "address": "550 Kearny St.", "who": "Rudy Pada<br>Cyril Yu<br>Bernie Curran", "total": 3, "url": "https://sfplanninggis.org/pim/?tab=Property&search=550+kearny+st" }, "geometry": { "type": "Point", "coordinates": [ -122.4044326, 37.7933104 ] } },
{ "type": "Feature", "properties": { "address": "299 Valencia St.", "who": "Rudy Pada<br>Bernie Curran<br>Rodrigo Santos", "total": 3, "url": "https://sfplanninggis.org/pim/?tab=Property&search=299+valencia+st" }, "geometry": { "type": "Point", "coordinates": [ -122.421748, 37.768335 ] } },
{ "type": "Feature", "properties": { "address": "291 Geary St.", "who": "Rudy Pada<br>Cyril Yu<br>Bernie Curran", "total": 3, "url": "https://sfplanninggis.org/pim/?tab=Property&search=291+geary+st" }, "geometry": { "type": "Point", "coordinates": [ -122.4080035, 37.7872874 ] } },
{ "type": "Feature", "properties": { "address": "239 25th Ave.", "who": "Cyril Yu<br>Bernie Curran<br>Rodrigo Santos", "total": 3, "url": "https://sfplanninggis.org/pim/?tab=Property&search=239+25th+ave" }, "geometry": { "type": "Point", "coordinates": [ -122.4852659, 37.7849654 ] } },
{ "type": "Feature", "properties": { "address": "736 Bay St.", "who": "Rudy Pada<br>Cyril Yu<br>Bernie Curran", "total": 3, "url": "https://sfplanninggis.org/pim/?tab=Property&search=736+bay+st" }, "geometry": { "type": "Point", "coordinates": [ -122.419203, 37.805131 ] } },
{ "type": "Feature", "properties": { "address": "1493 Masonic Ave.", "who": "Cyril Yu<br>Bernie Curran<br>Rodrigo Santos", "total": 3, "url": "https://sfplanninggis.org/pim/?tab=Property&search=1493+masonic+ave" }, "geometry": { "type": "Point", "coordinates": [ -122.4447997, 37.7665077 ] } },
{ "type": "Feature", "properties": { "address": "79 Chattanooga St.", "who": "Rudy Pada<br>Bernie Curran<br>Rodrigo Santos", "total": 3, "url": "https://sfplanninggis.org/pim/?tab=Property&search=79+chattanooga+st" }, "geometry": { "type": "Point", "coordinates": [ -122.4265737, 37.7553999 ] } },
{ "type": "Feature", "properties": { "address": "245 Valencia St.", "who": "Rudy Pada<br>Cyril Yu<br>Bernie Curran", "total": 3, "url": "https://sfplanninggis.org/pim/?tab=Property&search=245+valencia+st" }, "geometry": { "type": "Point", "coordinates": [ -122.4216848, 37.7689472 ] } },
{ "type": "Feature", "properties": { "address": "345 California St.", "who": "Rudy Pada<br>Cyril Yu<br>Bernie Curran", "total": 3, "url": "https://sfplanninggis.org/pim/?tab=Property&search=345+california+st" }, "geometry": { "type": "Point", "coordinates": [ -122.4005462, 37.7930161 ] } },
{ "type": "Feature", "properties": { "address": "301 Main St.", "who": "Rudy Pada<br>Cyril Yu<br>Bernie Curran", "total": 3, "url": "https://sfplanninggis.org/pim/?tab=Property&search=301+main+st" }, "geometry": { "type": "Point", "coordinates": [ -122.3911965, 37.7895974 ] } },
{ "type": "Feature", "properties": { "address": "354 Lisbon St.", "who": "Rudy Pada<br>Cyril Yu<br>Bernie Curran", "total": 3, "url": "https://sfplanninggis.org/pim/?tab=Property&search=354+lisbon+st" }, "geometry": { "type": "Point", "coordinates": [ -122.4332871, 37.7227893 ] } },
{ "type": "Feature", "properties": { "address": "2578 38th Ave.", "who": "Rudy Pada<br>Cyril Yu<br>Bernie Curran", "total": 3, "url": "https://sfplanninggis.org/pim/?tab=Property&search=2578+38th+ave" }, "geometry": { "type": "Point", "coordinates": [ -122.4956324, 37.7388673 ] } },
{ "type": "Feature", "properties": { "address": "2094 17th Ave.", "who": "Rudy Pada<br>Cyril Yu<br>Bernie Curran", "total": 3, "url": "https://sfplanninggis.org/pim/?tab=Property&search=2094+17th+ave" }, "geometry": { "type": "Point", "coordinates": [ -122.4736805, 37.7489044 ] } },
{ "type": "Feature", "properties": { "address": "464 Duboce Ave.", "who": "Rudy Pada<br>Cyril Yu<br>Bernie Curran", "total": 3, "url": "https://sfplanninggis.org/pim/?tab=Property&search=464+duboce+ave" }, "geometry": { "type": "Point", "coordinates": [ -122.430886, 37.769618 ] } },
{ "type": "Feature", "properties": { "address": "1060 Gilman Ave.", "who": "Rudy Pada<br>Bernie Curran<br>Rodrigo Santos", "total": 3, "url": "https://sfplanninggis.org/pim/?tab=Property&search=1060+gilman+ave" }, "geometry": { "type": "Point", "coordinates": [ -122.3891828, 37.7191012 ] } },
{ "type": "Feature", "properties": { "address": "1011 Shotwell St.", "who": "Cyril Yu<br>Bernie Curran<br>Rodrigo Santos", "total": 3, "url": "https://sfplanninggis.org/pim/?tab=Property&search=1011+shotwell+st" }, "geometry": { "type": "Point", "coordinates": [ -122.4149043, 37.7520529 ] } },
{ "type": "Feature", "properties": { "address": "1560 Sacramento St.", "who": "Rudy Pada<br>Cyril Yu<br>Bernie Curran", "total": 3, "url": "https://sfplanninggis.org/pim/?tab=Property&search=1560+sacramento+st" }, "geometry": { "type": "Point", "coordinates": [ -122.4186929, 37.7920527 ] } },
{ "type": "Feature", "properties": { "address": "1100 Sacramento St.", "who": "Rudy Pada<br>Cyril Yu<br>Bernie Curran", "total": 3, "url": "https://sfplanninggis.org/pim/?tab=Property&search=1100+sacramento+st" }, "geometry": { "type": "Point", "coordinates": [ -122.4114198, 37.7929478 ] } },
{ "type": "Feature", "properties": { "address": "25 Rutledge St.", "who": "Cyril Yu<br>Bernie Curran<br>Rodrigo Santos", "total": 3, "url": "https://sfplanninggis.org/pim/?tab=Property&search=25+rutledge+st" }, "geometry": { "type": "Point", "coordinates": [ -122.4061057, 37.7450205 ] } },
{ "type": "Feature", "properties": { "address": "2121 03rd St.", "who": "Rudy Pada<br>Cyril Yu<br>Bernie Curran", "total": 3, "url": "https://sfplanninggis.org/pim/?tab=Property&search=2121+03rd+st" }, "geometry": { "type": "Point", "coordinates": [ -122.3883622, 37.7626867 ] } },
{ "type": "Feature", "properties": { "address": "2330 Filbert St.", "who": "Rudy Pada<br>Cyril Yu<br>Bernie Curran", "total": 3, "url": "https://sfplanninggis.org/pim/?tab=Property&search=2330+filbert+st" }, "geometry": { "type": "Point", "coordinates": [ -122.4379763, 37.7979423 ] } },
{ "type": "Feature", "properties": { "address": "644 Judah St.", "who": "Rudy Pada<br>Cyril Yu<br>Bernie Curran", "total": 3, "url": "https://sfplanninggis.org/pim/?tab=Property&search=644+judah+st" }, "geometry": { "type": "Point", "coordinates": [ -122.4691697, 37.762279 ] } },
{ "type": "Feature", "properties": { "address": "4405 California St.", "who": "Cyril Yu<br>Bernie Curran<br>Rodrigo Santos", "total": 3, "url": "https://sfplanninggis.org/pim/?tab=Property&search=4405+california+st" }, "geometry": { "type": "Point", "coordinates": [ -122.4647938, 37.7847011 ] } },
{ "type": "Feature", "properties": { "address": "33 Colby St.", "who": "Cyril Yu<br>Bernie Curran<br>Rodrigo Santos", "total": 3, "url": "https://sfplanninggis.org/pim/?tab=Property&search=33+colby+st" }, "geometry": { "type": "Point", "coordinates": [ -122.4146277, 37.730285599999988 ] } },
{ "type": "Feature", "properties": { "address": "3939 24th St.", "who": "Cyril Yu<br>Bernie Curran<br>Rodrigo Santos", "total": 3, "url": "https://sfplanninggis.org/pim/?tab=Property&search=3939+24th+st" }, "geometry": { "type": "Point", "coordinates": [ -122.4305775, 37.751283099999988 ] } },
{ "type": "Feature", "properties": { "address": "126 Post St.", "who": "Rudy Pada<br>Cyril Yu<br>Bernie Curran", "total": 3, "url": "https://sfplanninggis.org/pim/?tab=Property&search=126+post+st" }, "geometry": { "type": "Point", "coordinates": [ -122.4043323, 37.7890869 ] } },
{ "type": "Feature", "properties": { "address": "159 Meadowbrook Dr.", "who": "Rudy Pada<br>Cyril Yu<br>Bernie Curran", "total": 3, "url": "https://sfplanninggis.org/pim/?tab=Property&search=159+meadowbrook+dr" }, "geometry": { "type": "Point", "coordinates": [ -122.484745, 37.731515 ] } },
{ "type": "Feature", "properties": { "address": "179 14th Ave.", "who": "Rudy Pada<br>Cyril Yu<br>Bernie Curran", "total": 3, "url": "https://sfplanninggis.org/pim/?tab=Property&search=179+14th+ave" }, "geometry": { "type": "Point", "coordinates": [ -122.4734151, 37.7848979 ] } },
{ "type": "Feature", "properties": { "address": "1614 Diamond St.", "who": "Rudy Pada<br>Cyril Yu<br>Bernie Curran", "total": 3, "url": "https://sfplanninggis.org/pim/?tab=Property&search=1614+diamond+st" }, "geometry": { "type": "Point", "coordinates": [ -122.4359553, 37.7444799 ] } },
{ "type": "Feature", "properties": { "address": "2101 Baker St.", "who": "Rudy Pada<br>Cyril Yu<br>Bernie Curran", "total": 3, "url": "https://sfplanninggis.org/pim/?tab=Property&search=2101+baker+st" }, "geometry": { "type": "Point", "coordinates": [ -122.444561, 37.790532 ] } },
{ "type": "Feature", "properties": { "address": "360 Guerrero St.", "who": "Cyril Yu<br>Bernie Curran<br>Rodrigo Santos", "total": 3, "url": "https://sfplanninggis.org/pim/?tab=Property&search=360+guerrero+st" }, "geometry": { "type": "Point", "coordinates": [ -122.424864, 37.765436 ] } },
{ "type": "Feature", "properties": { "address": "1613 Church St.", "who": "Rudy Pada<br>Cyril Yu<br>Bernie Curran", "total": 3, "url": "https://sfplanninggis.org/pim/?tab=Property&search=1613+church+st" }, "geometry": { "type": "Point", "coordinates": [ -122.4265504, 37.7448559 ] } },
{ "type": "Feature", "properties": { "address": "64 Buena Vista Tr.", "who": "Cyril Yu<br>Bernie Curran<br>Rodrigo Santos", "total": 3, "url": "https://sfplanninggis.org/pim/?tab=Property&search=64+buena+vista+tr" }, "geometry": { "type": "Point", "coordinates": [ -122.4384315, 37.7676091 ] } },
{ "type": "Feature", "properties": { "address": "28 Forest View Dr.", "who": "Rudy Pada<br>Cyril Yu<br>Bernie Curran", "total": 3, "url": "https://sfplanninggis.org/pim/?tab=Property&search=28+forest+view+dr" }, "geometry": { "type": "Point", "coordinates": [ -122.4835003, 37.7337054 ] } },
{ "type": "Feature", "properties": { "address": "388 Lisbon St.", "who": "Rudy Pada<br>Bernie Curran<br>Rodrigo Santos", "total": 3, "url": "https://sfplanninggis.org/pim/?tab=Property&search=388+lisbon+st" }, "geometry": { "type": "Point", "coordinates": [ -122.433818, 37.7223095 ] } },
{ "type": "Feature", "properties": { "address": "2985 Pacific Ave.", "who": "Rudy Pada<br>Cyril Yu<br>Bernie Curran", "total": 3, "url": "https://sfplanninggis.org/pim/?tab=Property&search=2985+pacific+ave" }, "geometry": { "type": "Point", "coordinates": [ -122.4441804, 37.7918932 ] } },
{ "type": "Feature", "properties": { "address": "1432 Guerrero St.", "who": "Cyril Yu<br>Bernie Curran<br>Rodrigo Santos", "total": 3, "url": "https://sfplanninggis.org/pim/?tab=Property&search=1432+guerrero+st" }, "geometry": { "type": "Point", "coordinates": [ -122.42283, 37.748208 ] } },
{ "type": "Feature", "properties": { "address": "210 Church St.", "who": "Rudy Pada<br>Cyril Yu<br>Bernie Curran", "total": 3, "url": "https://sfplanninggis.org/pim/?tab=Property&search=210+church+st" }, "geometry": { "type": "Point", "coordinates": [ -122.4290876, 37.7670632 ] } },
{ "type": "Feature", "properties": { "address": "555 North Point St.", "who": "Rudy Pada<br>Bernie Curran<br>Rodrigo Santos", "total": 3, "url": "https://sfplanninggis.org/pim/?tab=Property&search=555+north+point+st" }, "geometry": { "type": "Point", "coordinates": [ -122.4160276, 37.806191 ] } },
{ "type": "Feature", "properties": { "address": "1455 Market St.", "who": "Rudy Pada<br>Cyril Yu<br>Bernie Curran", "total": 3, "url": "https://sfplanninggis.org/pim/?tab=Property&search=1455+market+st" }, "geometry": { "type": "Point", "coordinates": [ -122.4178981, 37.7755556 ] } },
{ "type": "Feature", "properties": { "address": "765 14th Ave.", "who": "Rudy Pada<br>Cyril Yu<br>Bernie Curran", "total": 3, "url": "https://sfplanninggis.org/pim/?tab=Property&search=765+14th+ave" }, "geometry": { "type": "Point", "coordinates": [ -122.4726634, 37.7737811 ] } },
{ "type": "Feature", "properties": { "address": "321 07th Ave.", "who": "Rudy Pada<br>Bernie Curran<br>Rodrigo Santos", "total": 3, "url": "https://sfplanninggis.org/pim/?tab=Property&search=321+07th+ave" }, "geometry": { "type": "Point", "coordinates": [ -122.4656368, 37.7824314 ] } },
{ "type": "Feature", "properties": { "address": "290 16th Ave.", "who": "Rudy Pada<br>Cyril Yu<br>Bernie Curran", "total": 3, "url": "https://sfplanninggis.org/pim/?tab=Property&search=290+16th+ave" }, "geometry": { "type": "Point", "coordinates": [ -122.4751347, 37.7827571 ] } },
{ "type": "Feature", "properties": { "address": "2750 Market St.", "who": "Rudy Pada<br>Cyril Yu<br>Bernie Curran", "total": 3, "url": "https://sfplanninggis.org/pim/?tab=Property&search=2750+market+st" }, "geometry": { "type": "Point", "coordinates": [ -122.4391838, 37.7617466 ] } },
{ "type": "Feature", "properties": { "address": "2 Henry Adams St.", "who": "Rudy Pada<br>Cyril Yu<br>Bernie Curran", "total": 3, "url": "https://sfplanninggis.org/pim/?tab=Property&search=2+henry+adams+st" }, "geometry": { "type": "Point", "coordinates": [ -122.4045765, 37.768771 ] } },
{ "type": "Feature", "properties": { "address": "421 Arguello Blvd.", "who": "Rudy Pada<br>Bernie Curran<br>Rodrigo Santos", "total": 3, "url": "https://sfplanninggis.org/pim/?tab=Property&search=421+arguello+blvd" }, "geometry": { "type": "Point", "coordinates": [ -122.4594182, 37.782732 ] } },
{ "type": "Feature", "properties": { "address": "755 22nd Ave.", "who": "Rudy Pada<br>Bernie Curran<br>Rodrigo Santos", "total": 3, "url": "https://sfplanninggis.org/pim/?tab=Property&search=755+22nd+ave" }, "geometry": { "type": "Point", "coordinates": [ -122.4812421, 37.773556 ] } },
{ "type": "Feature", "properties": { "address": "374 Sanchez St.", "who": "Rudy Pada<br>Bernie Curran<br>Rodrigo Santos", "total": 3, "url": "https://sfplanninggis.org/pim/?tab=Property&search=374+sanchez+st" }, "geometry": { "type": "Point", "coordinates": [ -122.431084, 37.7631749 ] } },
{ "type": "Feature", "properties": { "address": "70 Washburn St.", "who": "Rudy Pada<br>Cyril Yu<br>Bernie Curran", "total": 3, "url": "https://sfplanninggis.org/pim/?tab=Property&search=70+washburn+st" }, "geometry": { "type": "Point", "coordinates": [ -122.4141881, 37.7750483 ] } },
{ "type": "Feature", "properties": { "address": "6221 Geary Blvd.", "who": "Rudy Pada<br>Cyril Yu<br>Bernie Curran", "total": 3, "url": "https://sfplanninggis.org/pim/?tab=Property&search=6221+geary+blvd" }, "geometry": { "type": "Point", "coordinates": [ -122.4863517, 37.779676 ] } },
{ "type": "Feature", "properties": { "address": "947 Bush St.", "who": "Rudy Pada<br>Cyril Yu<br>Bernie Curran", "total": 3, "url": "https://sfplanninggis.org/pim/?tab=Property&search=947+bush+st" }, "geometry": { "type": "Point", "coordinates": [ -122.4127915, 37.789437 ] } },
{ "type": "Feature", "properties": { "address": "415 Buchanan St.", "who": "Rudy Pada<br>Bernie Curran<br>Rodrigo Santos", "total": 3, "url": "https://sfplanninggis.org/pim/?tab=Property&search=415+buchanan+st" }, "geometry": { "type": "Point", "coordinates": [ -122.4276797, 37.7737853 ] } },
{ "type": "Feature", "properties": { "address": "2637 24th St.", "who": "Rudy Pada<br>Bernie Curran<br>Rodrigo Santos", "total": 3, "url": "https://sfplanninggis.org/pim/?tab=Property&search=2637+24th+st" }, "geometry": { "type": "Point", "coordinates": [ -122.4059771, 37.752888 ] } },
{ "type": "Feature", "properties": { "address": "1200 Gough St.", "who": "Rudy Pada<br>Cyril Yu<br>Bernie Curran", "total": 3, "url": "https://sfplanninggis.org/pim/?tab=Property&search=1200+gough+st" }, "geometry": { "type": "Point", "coordinates": [ -122.4242824, 37.7849434 ] } },
{ "type": "Feature", "properties": { "address": "5116 Geary Blvd.", "who": "Rudy Pada<br>Bernie Curran<br>Rodrigo Santos", "total": 3, "url": "https://sfplanninggis.org/pim/?tab=Property&search=5116+geary+blvd" }, "geometry": { "type": "Point", "coordinates": [ -122.4743438, 37.7808539 ] } },
{ "type": "Feature", "properties": { "address": "633 27th Ave.", "who": "Rudy Pada<br>Bernie Curran<br>Rodrigo Santos", "total": 3, "url": "https://sfplanninggis.org/pim/?tab=Property&search=633+27th+ave" }, "geometry": { "type": "Point", "coordinates": [ -122.4868911, 37.7773865 ] } },
{ "type": "Feature", "properties": { "address": "351 El Camino Del Mar.", "who": "Rudy Pada<br>Cyril Yu<br>Bernie Curran", "total": 3, "url": "https://sfplanninggis.org/pim/?tab=Property&search=351+el+camino+del+mar" }, "geometry": { "type": "Point", "coordinates": [ -122.487112, 37.7873445 ] } },
{ "type": "Feature", "properties": { "address": "690 Alvarado St.", "who": "Rudy Pada<br>Cyril Yu<br>Bernie Curran", "total": 3, "url": "https://sfplanninggis.org/pim/?tab=Property&search=690+alvarado+st" }, "geometry": { "type": "Point", "coordinates": [ -122.436222, 37.753759900000013 ] } },
{ "type": "Feature", "properties": { "address": "2241 Geary Blvd.", "who": "Rudy Pada<br>Cyril Yu<br>Bernie Curran", "total": 3, "url": "https://sfplanninggis.org/pim/?tab=Property&search=2241+geary+blvd" }, "geometry": { "type": "Point", "coordinates": [ -122.4402876, 37.7829824 ] } },
{ "type": "Feature", "properties": { "address": "129 21st Ave.", "who": "Rudy Pada<br>Bernie Curran<br>Rodrigo Santos", "total": 3, "url": "https://sfplanninggis.org/pim/?tab=Property&search=129+21st+ave" }, "geometry": { "type": "Point", "coordinates": [ -122.4810652, 37.7853303 ] } },
{ "type": "Feature", "properties": { "address": "38 West Clay St.", "who": "Cyril Yu<br>Bernie Curran<br>Rodrigo Santos", "total": 3, "url": "https://sfplanninggis.org/pim/?tab=Property&search=38+west+clay+st" }, "geometry": { "type": "Point", "coordinates": [ -122.4829768, 37.7869302 ] } },
{ "type": "Feature", "properties": { "address": "301 Mission St.", "who": "Rudy Pada<br>Cyril Yu<br>Bernie Curran", "total": 3, "url": "https://sfplanninggis.org/pim/?tab=Property&search=301+mission+st" }, "geometry": { "type": "Point", "coordinates": [ -122.3961531, 37.7903824 ] } },
{ "type": "Feature", "properties": { "address": "1436 Grove St.", "who": "Rudy Pada<br>Cyril Yu<br>Bernie Curran", "total": 3, "url": "https://sfplanninggis.org/pim/?tab=Property&search=1436+grove+st" }, "geometry": { "type": "Point", "coordinates": [ -122.440393, 37.775958 ] } },
{ "type": "Feature", "properties": { "address": "1966 Pacific Ave.", "who": "Rudy Pada<br>Cyril Yu<br>Bernie Curran", "total": 3, "url": "https://sfplanninggis.org/pim/?tab=Property&search=1966+pacific+ave" }, "geometry": { "type": "Point", "coordinates": [ -122.427738, 37.794519 ] } },
{ "type": "Feature", "properties": { "address": "237 Arguello Blvd.", "who": "Rudy Pada<br>Cyril Yu<br>Bernie Curran", "total": 3, "url": "https://sfplanninggis.org/pim/?tab=Property&search=237+arguello+blvd" }, "geometry": { "type": "Point", "coordinates": [ -122.459613, 37.7862409 ] } },
{ "type": "Feature", "properties": { "address": "1155 04th St.", "who": "Rudy Pada<br>Cyril Yu<br>Bernie Curran", "total": 3, "url": "https://sfplanninggis.org/pim/?tab=Property&search=1155+04th+st" }, "geometry": { "type": "Point", "coordinates": [ -122.3911873, 37.7730834 ] } },
{ "type": "Feature", "properties": { "address": "353 Sacramento St.", "who": "Rudy Pada<br>Cyril Yu<br>Bernie Curran", "total": 3, "url": "https://sfplanninggis.org/pim/?tab=Property&search=353+sacramento+st" }, "geometry": { "type": "Point", "coordinates": [ -122.3997819, 37.7939571 ] } },
{ "type": "Feature", "properties": { "address": "721 Kirkham St.", "who": "Rudy Pada<br>Bernie Curran<br>Rodrigo Santos", "total": 3, "url": "https://sfplanninggis.org/pim/?tab=Property&search=721+kirkham+st" }, "geometry": { "type": "Point", "coordinates": [ -122.468623, 37.759951 ] } },
{ "type": "Feature", "properties": { "address": "333 Bush St.", "who": "Rudy Pada<br>Cyril Yu<br>Bernie Curran", "total": 3, "url": "https://sfplanninggis.org/pim/?tab=Property&search=333+bush+st" }, "geometry": { "type": "Point", "coordinates": [ -122.4030566, 37.7906431 ] } },
{ "type": "Feature", "properties": { "address": "380 Rolph St.", "who": "Rudy Pada<br>Bernie Curran<br>Rodrigo Santos", "total": 3, "url": "https://sfplanninggis.org/pim/?tab=Property&search=380+rolph+st" }, "geometry": { "type": "Point", "coordinates": [ -122.4353937, 37.7128292 ] } },
{ "type": "Feature", "properties": { "address": "450 Post St.", "who": "Rudy Pada<br>Cyril Yu<br>Bernie Curran", "total": 3, "url": "https://sfplanninggis.org/pim/?tab=Property&search=450+post+st" }, "geometry": { "type": "Point", "coordinates": [ -122.4093607, 37.7883413 ] } },
{ "type": "Feature", "properties": { "address": "3500 19th St.", "who": "Rudy Pada<br>Bernie Curran<br>Rodrigo Santos", "total": 3, "url": "https://sfplanninggis.org/pim/?tab=Property&search=3500+19th+st" }, "geometry": { "type": "Point", "coordinates": [ -122.4218176, 37.7603065 ] } },
{ "type": "Feature", "properties": { "address": "11 17th Ave.", "who": "Rudy Pada<br>Cyril Yu<br>Bernie Curran", "total": 3, "url": "https://sfplanninggis.org/pim/?tab=Property&search=11+17th+ave" }, "geometry": { "type": "Point", "coordinates": [ -122.4769086, 37.7867604 ] } },
{ "type": "Feature", "properties": { "address": "791 14th Ave.", "who": "Rudy Pada<br>Cyril Yu<br>Bernie Curran", "total": 3, "url": "https://sfplanninggis.org/pim/?tab=Property&search=791+14th+ave" }, "geometry": { "type": "Point", "coordinates": [ -122.4725046, 37.7733497 ] } },
{ "type": "Feature", "properties": { "address": "2200 Sacramento St.", "who": "Rudy Pada<br>Cyril Yu<br>Bernie Curran", "total": 3, "url": "https://sfplanninggis.org/pim/?tab=Property&search=2200+sacramento+st" }, "geometry": { "type": "Point", "coordinates": [ -122.4294715, 37.7906708 ] } },
{ "type": "Feature", "properties": { "address": "2547 28th Ave.", "who": "Rudy Pada<br>Bernie Curran<br>Rodrigo Santos", "total": 3, "url": "https://sfplanninggis.org/pim/?tab=Property&search=2547+28th+ave" }, "geometry": { "type": "Point", "coordinates": [ -122.4853875, 37.739853 ] } },
{ "type": "Feature", "properties": { "address": "537 Natoma St.", "who": "Rudy Pada<br>Bernie Curran<br>Rodrigo Santos", "total": 3, "url": "https://sfplanninggis.org/pim/?tab=Property&search=537+natoma+st" }, "geometry": { "type": "Point", "coordinates": [ -122.408459, 37.779383 ] } },
{ "type": "Feature", "properties": { "address": "1452 Broadway", "who": "Cyril Yu<br>Bernie Curran<br>Rodrigo Santos", "total": 3, "url": "https://sfplanninggis.org/pim/?tab=Property&search=1452+broadway" }, "geometry": { "type": "Point", "coordinates": [ -122.4211097, 37.7962573 ] } },
{ "type": "Feature", "properties": { "address": "601 California St.", "who": "Rudy Pada<br>Cyril Yu<br>Bernie Curran", "total": 3, "url": "https://sfplanninggis.org/pim/?tab=Property&search=601+california+st" }, "geometry": { "type": "Point", "coordinates": [ -122.4047381, 37.7923594 ] } },
{ "type": "Feature", "properties": { "address": "1818 California St.", "who": "Rudy Pada<br>Cyril Yu<br>Bernie Curran", "total": 3, "url": "https://sfplanninggis.org/pim/?tab=Property&search=1818+california+st" }, "geometry": { "type": "Point", "coordinates": [ -122.4245385, 37.7903834 ] } },
{ "type": "Feature", "properties": { "address": "1164 Church St.", "who": "Rudy Pada<br>Cyril Yu<br>Bernie Curran", "total": 3, "url": "https://sfplanninggis.org/pim/?tab=Property&search=1164+church+st" }, "geometry": { "type": "Point", "coordinates": [ -122.4278646, 37.7522104 ] } },
{ "type": "Feature", "properties": { "address": "574 Natoma St.", "who": "Rudy Pada<br>Bernie Curran<br>Rodrigo Santos", "total": 3, "url": "https://sfplanninggis.org/pim/?tab=Property&search=574+natoma+st" }, "geometry": { "type": "Point", "coordinates": [ -122.4094507, 37.7790184 ] } },
{ "type": "Feature", "properties": { "address": "351 California St.", "who": "Rudy Pada<br>Cyril Yu<br>Bernie Curran", "total": 3, "url": "https://sfplanninggis.org/pim/?tab=Property&search=351+california+st" }, "geometry": { "type": "Point", "coordinates": [ -122.4007333, 37.7929017 ] } },
{ "type": "Feature", "properties": { "address": "990 Bay St.", "who": "Rudy Pada<br>Cyril Yu<br>Bernie Curran", "total": 3, "url": "https://sfplanninggis.org/pim/?tab=Property&search=990+bay+st" }, "geometry": { "type": "Point", "coordinates": [ -122.4233348, 37.8046589 ] } },
{ "type": "Feature", "properties": { "address": "300 03rd St.", "who": "Rudy Pada<br>Cyril Yu<br>Bernie Curran", "total": 3, "url": "https://sfplanninggis.org/pim/?tab=Property&search=300+03rd+st" }, "geometry": { "type": "Point", "coordinates": [ -122.3989583, 37.7836048 ] } },
{ "type": "Feature", "properties": { "address": "25 Romain St.", "who": "Rudy Pada<br>Cyril Yu<br>Bernie Curran", "total": 3, "url": "https://sfplanninggis.org/pim/?tab=Property&search=25+romain+st" }, "geometry": { "type": "Point", "coordinates": [ -122.4394472, 37.7563544 ] } },
{ "type": "Feature", "properties": { "address": "1215 34th Ave.", "who": "Rudy Pada<br>Cyril Yu<br>Bernie Curran", "total": 3, "url": "https://sfplanninggis.org/pim/?tab=Property&search=1215+34th+ave" }, "geometry": { "type": "Point", "coordinates": [ -122.4935231, 37.7643651 ] } },
{ "type": "Feature", "properties": { "address": "307 Bartlett St.", "who": "Cyril Yu<br>Bernie Curran<br>Rodrigo Santos", "total": 3, "url": "https://sfplanninggis.org/pim/?tab=Property&search=307+bartlett+st" }, "geometry": { "type": "Point", "coordinates": [ -122.4193977, 37.7519686 ] } },
{ "type": "Feature", "properties": { "address": "2149 Lyon St.", "who": "Rudy Pada<br>Cyril Yu<br>Bernie Curran", "total": 3, "url": "https://sfplanninggis.org/pim/?tab=Property&search=2149+lyon+st" }, "geometry": { "type": "Point", "coordinates": [ -122.4462093, 37.7907468 ] } },
{ "type": "Feature", "properties": { "address": "3898 California St.", "who": "Cyril Yu<br>Bernie Curran<br>Rodrigo Santos", "total": 3, "url": "https://sfplanninggis.org/pim/?tab=Property&search=3898+california+st" }, "geometry": { "type": "Point", "coordinates": [ -122.4588209, 37.7860084 ] } },
{ "type": "Feature", "properties": { "address": "146 Stanyan St.", "who": "Rudy Pada<br>Cyril Yu<br>Bernie Curran", "total": 3, "url": "https://sfplanninggis.org/pim/?tab=Property&search=146+stanyan+st" }, "geometry": { "type": "Point", "coordinates": [ -122.4551941, 37.778939 ] } },
{ "type": "Feature", "properties": { "address": "3051 California St.", "who": "Rudy Pada<br>Cyril Yu<br>Bernie Curran", "total": 3, "url": "https://sfplanninggis.org/pim/?tab=Property&search=3051+california+st" }, "geometry": { "type": "Point", "coordinates": [ -122.4445908, 37.7872818 ] } },
{ "type": "Feature", "properties": { "address": "2250 Union St.", "who": "Rudy Pada<br>Bernie Curran<br>Rodrigo Santos", "total": 3, "url": "https://sfplanninggis.org/pim/?tab=Property&search=2250+union+st" }, "geometry": { "type": "Point", "coordinates": [ -122.4363949, 37.7972291 ] } },
{ "type": "Feature", "properties": { "address": "200 04th Ave.", "who": "Rudy Pada<br>Cyril Yu<br>Bernie Curran", "total": 3, "url": "https://sfplanninggis.org/pim/?tab=Property&search=200+04th+ave" }, "geometry": { "type": "Point", "coordinates": [ -122.4622807, 37.7847708 ] } },
{ "type": "Feature", "properties": { "address": "3845 Washington St.", "who": "Rudy Pada<br>Bernie Curran<br>Rodrigo Santos", "total": 3, "url": "https://sfplanninggis.org/pim/?tab=Property&search=3845+washington+st" }, "geometry": { "type": "Point", "coordinates": [ -122.4562999, 37.788608 ] } },
{ "type": "Feature", "properties": { "address": "3042 California St.", "who": "Cyril Yu<br>Bernie Curran<br>Rodrigo Santos", "total": 3, "url": "https://sfplanninggis.org/pim/?tab=Property&search=3042+california+st" }, "geometry": { "type": "Point", "coordinates": [ -122.4446141, 37.7877242 ] } },
{ "type": "Feature", "properties": { "address": "100 Montgomery St.", "who": "Rudy Pada<br>Cyril Yu<br>Bernie Curran", "total": 3, "url": "https://sfplanninggis.org/pim/?tab=Property&search=100+montgomery+st" }, "geometry": { "type": "Point", "coordinates": [ -122.4020838, 37.7901964 ] } },
{ "type": "Feature", "properties": { "address": "525 Market St.", "who": "Rudy Pada<br>Cyril Yu<br>Bernie Curran", "total": 3, "url": "https://sfplanninggis.org/pim/?tab=Property&search=525+market+st" }, "geometry": { "type": "Point", "coordinates": [ -122.3990375, 37.790507 ] } },
{ "type": "Feature", "properties": { "address": "845 Market St.", "who": "Rudy Pada<br>Cyril Yu<br>Bernie Curran", "total": 3, "url": "https://sfplanninggis.org/pim/?tab=Property&search=845+market+st" }, "geometry": { "type": "Point", "coordinates": [ -122.4054904, 37.7839767 ] } },
{ "type": "Feature", "properties": { "address": "580 Oak Park Dr.", "who": "Rudy Pada<br>Bernie Curran<br>Rodrigo Santos", "total": 3, "url": "https://sfplanninggis.org/pim/?tab=Property&search=580+oak+park+dr" }, "geometry": { "type": "Point", "coordinates": [ -122.4602804, 37.7569029 ] } },
{ "type": "Feature", "properties": { "address": "1345 Clement St.", "who": "Rudy Pada<br>Cyril Yu<br>Bernie Curran", "total": 3, "url": "https://sfplanninggis.org/pim/?tab=Property&search=1345+clement+st" }, "geometry": { "type": "Point", "coordinates": [ -122.4738131, 37.7822825 ] } },
{ "type": "Feature", "properties": { "address": "1 Daniel Burnham Ct.", "who": "Rudy Pada<br>Cyril Yu<br>Bernie Curran", "total": 3, "url": "https://sfplanninggis.org/pim/?tab=Property&search=1+daniel+burnham+ct" }, "geometry": { "type": "Point", "coordinates": [ -122.4219061, 37.786783 ] } },
{ "type": "Feature", "properties": { "address": "865 Market St.", "who": "Rudy Pada<br>Cyril Yu<br>Bernie Curran", "total": 3, "url": "https://sfplanninggis.org/pim/?tab=Property&search=865+market+st" }, "geometry": { "type": "Point", "coordinates": [ -122.4071186, 37.7842834 ] } },
{ "type": "Feature", "properties": { "address": "227 16th Ave.", "who": "Rudy Pada<br>Cyril Yu<br>Bernie Curran", "total": 3, "url": "https://sfplanninggis.org/pim/?tab=Property&search=227+16th+ave" }, "geometry": { "type": "Point", "coordinates": [ -122.4756009, 37.7837801 ] } },
{ "type": "Feature", "properties": { "address": "182 32nd Ave.", "who": "Cyril Yu<br>Bernie Curran<br>Rodrigo Santos", "total": 3, "url": "https://sfplanninggis.org/pim/?tab=Property&search=182+32nd+ave" }, "geometry": { "type": "Point", "coordinates": [ -122.4927237, 37.7855496 ] } },
{ "type": "Feature", "properties": { "address": "1276 Geneva Ave.", "who": "Rudy Pada<br>Cyril Yu<br>Bernie Curran", "total": 3, "url": "https://sfplanninggis.org/pim/?tab=Property&search=1276+geneva+ave" }, "geometry": { "type": "Point", "coordinates": [ -122.4350524, 37.7134624 ] } },
{ "type": "Feature", "properties": { "address": "3947 18th St.", "who": "Rudy Pada<br>Cyril Yu<br>Bernie Curran", "total": 3, "url": "https://sfplanninggis.org/pim/?tab=Property&search=3947+18th+st" }, "geometry": { "type": "Point", "coordinates": [ -122.4316613, 37.760909 ] } },
{ "type": "Feature", "properties": { "address": "3418 26th St.", "who": "Rudy Pada<br>Bernie Curran<br>Rodrigo Santos", "total": 3, "url": "https://sfplanninggis.org/pim/?tab=Property&search=3418+26th+st" }, "geometry": { "type": "Point", "coordinates": [ -122.4189859, 37.7491876 ] } },
{ "type": "Feature", "properties": { "address": "1050 North Point St.", "who": "Rudy Pada<br>Cyril Yu<br>Bernie Curran", "total": 3, "url": "https://sfplanninggis.org/pim/?tab=Property&search=1050+north+point+st" }, "geometry": { "type": "Point", "coordinates": [ -122.4248482, 37.8053959 ] } },
{ "type": "Feature", "properties": { "address": "2690 Great Hy.", "who": "Rudy Pada<br>Cyril Yu<br>Bernie Curran", "total": 3, "url": "https://sfplanninggis.org/pim/?tab=Property&search=2690+great+hy" }, "geometry": { "type": "Point", "coordinates": [ -122.4194155, 37.7749295 ] } },
{ "type": "Feature", "properties": { "address": "685 Market St.", "who": "Rudy Pada<br>Cyril Yu<br>Bernie Curran", "total": 3, "url": "https://sfplanninggis.org/pim/?tab=Property&search=685+market+st" }, "geometry": { "type": "Point", "coordinates": [ -122.4026141, 37.7877269 ] } },
{ "type": "Feature", "properties": { "address": "320 Turk St.", "who": "Rudy Pada<br>Cyril Yu<br>Bernie Curran", "total": 3, "url": "https://sfplanninggis.org/pim/?tab=Property&search=320+turk+st" }, "geometry": { "type": "Point", "coordinates": [ -122.4145835, 37.7829867 ] } },
{ "type": "Feature", "properties": { "address": "3695 Market St.", "who": "Rudy Pada<br>Cyril Yu<br>Bernie Curran", "total": 3, "url": "https://sfplanninggis.org/pim/?tab=Property&search=3695+market+st" }, "geometry": { "type": "Point", "coordinates": [ -122.4415152, 37.7547408 ] } },
{ "type": "Feature", "properties": { "address": "746 Great Hy.", "who": "Rudy Pada<br>Bernie Curran", "total": 2, "url": "https://sfplanninggis.org/pim/?tab=Property&search=746+great+hy" }, "geometry": { "type": "Point", "coordinates": [ -122.4194155, 37.7749295 ] } },
{ "type": "Feature", "properties": { "address": "3098 Pacific Ave.", "who": "Rudy Pada<br>Bernie Curran", "total": 2, "url": "https://sfplanninggis.org/pim/?tab=Property&search=3098+pacific+ave" }, "geometry": { "type": "Point", "coordinates": [ -122.4461709, 37.792099 ] } },
{ "type": "Feature", "properties": { "address": "2843 Webster St.", "who": "Rudy Pada<br>Bernie Curran", "total": 2, "url": "https://sfplanninggis.org/pim/?tab=Property&search=2843+webster+st" }, "geometry": { "type": "Point", "coordinates": [ -122.434121, 37.796869 ] } },
{ "type": "Feature", "properties": { "address": "1921 Jefferson St.", "who": "Rudy Pada<br>Bernie Curran", "total": 2, "url": "https://sfplanninggis.org/pim/?tab=Property&search=1921+jefferson+st" }, "geometry": { "type": "Point", "coordinates": [ -122.4440256, 37.8044607 ] } },
{ "type": "Feature", "properties": { "address": "3446 Balboa St.", "who": "Rudy Pada<br>Bernie Curran", "total": 2, "url": "https://sfplanninggis.org/pim/?tab=Property&search=3446+balboa+st" }, "geometry": { "type": "Point", "coordinates": [ -122.4960065, 37.776018 ] } },
{ "type": "Feature", "properties": { "address": "779 32nd Ave.", "who": "Rudy Pada<br>Bernie Curran", "total": 2, "url": "https://sfplanninggis.org/pim/?tab=Property&search=779+32nd+ave" }, "geometry": { "type": "Point", "coordinates": [ -122.492066, 37.7745094 ] } },
{ "type": "Feature", "properties": { "address": "4409 Cabrillo St.", "who": "Rudy Pada<br>Bernie Curran", "total": 2, "url": "https://sfplanninggis.org/pim/?tab=Property&search=4409+cabrillo+st" }, "geometry": { "type": "Point", "coordinates": [ -122.5060458, 37.7731994 ] } },
{ "type": "Feature", "properties": { "address": "1301 Indiana St.", "who": "Bernie Curran<br>Rodrigo Santos", "total": 2, "url": "https://sfplanninggis.org/pim/?tab=Property&search=1301+indiana+st" }, "geometry": { "type": "Point", "coordinates": [ -122.3905769, 37.7540437 ] } },
{ "type": "Feature", "properties": { "address": "739 09th Ave.", "who": "Rudy Pada<br>Bernie Curran", "total": 2, "url": "https://sfplanninggis.org/pim/?tab=Property&search=739+09th+ave" }, "geometry": { "type": "Point", "coordinates": [ -122.4672792, 37.7744632 ] } },
{ "type": "Feature", "properties": { "address": "39 20th Ave.", "who": "Cyril Yu<br>Bernie Curran", "total": 2, "url": "https://sfplanninggis.org/pim/?tab=Property&search=39+20th+ave" }, "geometry": { "type": "Point", "coordinates": [ -122.4801809, 37.7866074 ] } },
{ "type": "Feature", "properties": { "address": "650 Lake St.", "who": "Cyril Yu<br>Bernie Curran", "total": 2, "url": "https://sfplanninggis.org/pim/?tab=Property&search=650+lake+st" }, "geometry": { "type": "Point", "coordinates": [ -122.4666711, 37.7867713 ] } },
{ "type": "Feature", "properties": { "address": "665 10th Ave.", "who": "Rudy Pada<br>Bernie Curran", "total": 2, "url": "https://sfplanninggis.org/pim/?tab=Property&search=665+10th+ave" }, "geometry": { "type": "Point", "coordinates": [ -122.4683647, 37.7758712 ] } },
{ "type": "Feature", "properties": { "address": "941 Cayuga Ave.", "who": "Rudy Pada<br>Bernie Curran", "total": 2, "url": "https://sfplanninggis.org/pim/?tab=Property&search=941+cayuga+ave" }, "geometry": { "type": "Point", "coordinates": [ -122.439038, 37.7229016 ] } },
{ "type": "Feature", "properties": { "address": "751 25th Ave.", "who": "Cyril Yu<br>Bernie Curran", "total": 2, "url": "https://sfplanninggis.org/pim/?tab=Property&search=751+25th+ave" }, "geometry": { "type": "Point", "coordinates": [ -122.4848017, 37.7753051 ] } },
{ "type": "Feature", "properties": { "address": "4626 Fulton St.", "who": "Rudy Pada<br>Bernie Curran", "total": 2, "url": "https://sfplanninggis.org/pim/?tab=Property&search=4626+fulton+st" }, "geometry": { "type": "Point", "coordinates": [ -122.4815344, 37.7728889 ] } },
{ "type": "Feature", "properties": { "address": "2841 Filbert St.", "who": "Rudy Pada<br>Bernie Curran", "total": 2, "url": "https://sfplanninggis.org/pim/?tab=Property&search=2841+filbert+st" }, "geometry": { "type": "Point", "coordinates": [ -122.4463036, 37.7964858 ] } },
{ "type": "Feature", "properties": { "address": "2528 Union St.", "who": "Cyril Yu<br>Bernie Curran", "total": 2, "url": "https://sfplanninggis.org/pim/?tab=Property&search=2528+union+st" }, "geometry": { "type": "Point", "coordinates": [ -122.4418101, 37.7965566 ] } },
{ "type": "Feature", "properties": { "address": "1970 Sacramento St.", "who": "Cyril Yu<br>Bernie Curran", "total": 2, "url": "https://sfplanninggis.org/pim/?tab=Property&search=1970+sacramento+st" }, "geometry": { "type": "Point", "coordinates": [ -122.4252907, 37.7911941 ] } },
{ "type": "Feature", "properties": { "address": "272 Denslowe Dr.", "who": "Rudy Pada<br>Bernie Curran", "total": 2, "url": "https://sfplanninggis.org/pim/?tab=Property&search=272+denslowe+dr" }, "geometry": { "type": "Point", "coordinates": [ -122.4746976, 37.7201096 ] } },
{ "type": "Feature", "properties": { "address": "65 Majestic Ave.", "who": "Rudy Pada<br>Bernie Curran", "total": 2, "url": "https://sfplanninggis.org/pim/?tab=Property&search=65+majestic+ave" }, "geometry": { "type": "Point", "coordinates": [ -122.451335, 37.7173305 ] } },
{ "type": "Feature", "properties": { "address": "878 44th Ave.", "who": "Rudy Pada<br>Bernie Curran", "total": 2, "url": "https://sfplanninggis.org/pim/?tab=Property&search=878+44th+ave" }, "geometry": { "type": "Point", "coordinates": [ -122.5042897, 37.7720902 ] } },
{ "type": "Feature", "properties": { "address": "3141 Clement St.", "who": "Rudy Pada<br>Bernie Curran", "total": 2, "url": "https://sfplanninggis.org/pim/?tab=Property&search=3141+clement+st" }, "geometry": { "type": "Point", "coordinates": [ -122.4931252, 37.7814166 ] } },
{ "type": "Feature", "properties": { "address": "301 14th Ave.", "who": "Rudy Pada<br>Bernie Curran", "total": 2, "url": "https://sfplanninggis.org/pim/?tab=Property&search=301+14th+ave" }, "geometry": { "type": "Point", "coordinates": [ -122.4732703, 37.782351 ] } },
{ "type": "Feature", "properties": { "address": "670 38th Ave.", "who": "Rudy Pada<br>Bernie Curran", "total": 2, "url": "https://sfplanninggis.org/pim/?tab=Property&search=670+38th+ave" }, "geometry": { "type": "Point", "coordinates": [ -122.4982207, 37.7762457 ] } },
{ "type": "Feature", "properties": { "address": "299 Santa Paula Ave.", "who": "Rudy Pada<br>Bernie Curran", "total": 2, "url": "https://sfplanninggis.org/pim/?tab=Property&search=299+santa+paula+ave" }, "geometry": { "type": "Point", "coordinates": [ -122.4633984, 37.7355232 ] } },
{ "type": "Feature", "properties": { "address": "4715 Geary Blvd.", "who": "Bernie Curran<br>Rodrigo Santos", "total": 2, "url": "https://sfplanninggis.org/pim/?tab=Property&search=4715+geary+blvd" }, "geometry": { "type": "Point", "coordinates": [ -122.4699092, 37.7805964 ] } },
{ "type": "Feature", "properties": { "address": "248 10th Ave.", "who": "Rudy Pada<br>Bernie Curran", "total": 2, "url": "https://sfplanninggis.org/pim/?tab=Property&search=248+10th+ave" }, "geometry": { "type": "Point", "coordinates": [ -122.4685396, 37.7837121 ] } },
{ "type": "Feature", "properties": { "address": "3828 Cabrillo St.", "who": "Rudy Pada<br>Bernie Curran", "total": 2, "url": "https://sfplanninggis.org/pim/?tab=Property&search=3828+cabrillo+st" }, "geometry": { "type": "Point", "coordinates": [ -122.4999383, 37.7739049 ] } },
{ "type": "Feature", "properties": { "address": "747 14th Ave.", "who": "Rudy Pada<br>Bernie Curran", "total": 2, "url": "https://sfplanninggis.org/pim/?tab=Property&search=747+14th+ave" }, "geometry": { "type": "Point", "coordinates": [ -122.4726523, 37.7740729 ] } },
{ "type": "Feature", "properties": { "address": "1735 Noriega St.", "who": "Cyril Yu<br>Bernie Curran", "total": 2, "url": "https://sfplanninggis.org/pim/?tab=Property&search=1735+noriega+st" }, "geometry": { "type": "Point", "coordinates": [ -122.4823476, 37.7537524 ] } },
{ "type": "Feature", "properties": { "address": "417 Fulton St.", "who": "Bernie Curran<br>Rodrigo Santos", "total": 2, "url": "https://sfplanninggis.org/pim/?tab=Property&search=417+fulton+st" }, "geometry": { "type": "Point", "coordinates": [ -122.423716, 37.7785618 ] } },
{ "type": "Feature", "properties": { "address": "2320 Cecilia Ave.", "who": "Rudy Pada<br>Bernie Curran", "total": 2, "url": "https://sfplanninggis.org/pim/?tab=Property&search=2320+cecilia+ave" }, "geometry": { "type": "Point", "coordinates": [ -122.4720753, 37.744647 ] } },
{ "type": "Feature", "properties": { "address": "1927 20th Ave.", "who": "Rudy Pada<br>Bernie Curran", "total": 2, "url": "https://sfplanninggis.org/pim/?tab=Property&search=1927+20th+ave" }, "geometry": { "type": "Point", "coordinates": [ -122.4776161, 37.751749 ] } },
{ "type": "Feature", "properties": { "address": "1251 34th Ave.", "who": "Rudy Pada<br>Bernie Curran", "total": 2, "url": "https://sfplanninggis.org/pim/?tab=Property&search=1251+34th+ave" }, "geometry": { "type": "Point", "coordinates": [ -122.4935342, 37.7637385 ] } },
{ "type": "Feature", "properties": { "address": "1270 La Playa", "who": "Rudy Pada<br>Bernie Curran", "total": 2, "url": "https://sfplanninggis.org/pim/?tab=Property&search=1270+la+playa" }, "geometry": { "type": "Point", "coordinates": [ -122.5090573, 37.7627515 ] } },
{ "type": "Feature", "properties": { "address": "29 16th Ave.", "who": "Rudy Pada<br>Bernie Curran", "total": 2, "url": "https://sfplanninggis.org/pim/?tab=Property&search=29+16th+ave" }, "geometry": { "type": "Point", "coordinates": [ -122.4757146, 37.7864959 ] } },
{ "type": "Feature", "properties": { "address": "226 Cabrillo St.", "who": "Rudy Pada<br>Bernie Curran", "total": 2, "url": "https://sfplanninggis.org/pim/?tab=Property&search=226+cabrillo+st" }, "geometry": { "type": "Point", "coordinates": [ -122.46126, 37.775749 ] } },
{ "type": "Feature", "properties": { "address": "591 46th Ave.", "who": "Rudy Pada<br>Bernie Curran", "total": 2, "url": "https://sfplanninggis.org/pim/?tab=Property&search=591+46th+ave" }, "geometry": { "type": "Point", "coordinates": [ -122.5073278, 37.777342399999988 ] } },
{ "type": "Feature", "properties": { "address": "1515 Clement St.", "who": "Rudy Pada<br>Bernie Curran", "total": 2, "url": "https://sfplanninggis.org/pim/?tab=Property&search=1515+clement+st" }, "geometry": { "type": "Point", "coordinates": [ -122.4756074, 37.7823023 ] } },
{ "type": "Feature", "properties": { "address": "1041 Lake St.", "who": "Rudy Pada<br>Bernie Curran", "total": 2, "url": "https://sfplanninggis.org/pim/?tab=Property&search=1041+lake+st" }, "geometry": { "type": "Point", "coordinates": [ -122.4707954, 37.7862149 ] } },
{ "type": "Feature", "properties": { "address": "1900 Eddy St.", "who": "Rudy Pada<br>Bernie Curran", "total": 2, "url": "https://sfplanninggis.org/pim/?tab=Property&search=1900+eddy+st" }, "geometry": { "type": "Point", "coordinates": [ -122.4393145, 37.7807014 ] } },
{ "type": "Feature", "properties": { "address": "350 32nd Ave.", "who": "Rudy Pada<br>Bernie Curran", "total": 2, "url": "https://sfplanninggis.org/pim/?tab=Property&search=350+32nd+ave" }, "geometry": { "type": "Point", "coordinates": [ -122.492111, 37.782573 ] } },
{ "type": "Feature", "properties": { "address": "472 37th Ave.", "who": "Rudy Pada<br>Bernie Curran", "total": 2, "url": "https://sfplanninggis.org/pim/?tab=Property&search=472+37th+ave" }, "geometry": { "type": "Point", "coordinates": [ -122.4974249, 37.7799882 ] } },
{ "type": "Feature", "properties": { "address": "330 11th Ave.", "who": "Rudy Pada<br>Bernie Curran", "total": 2, "url": "https://sfplanninggis.org/pim/?tab=Property&search=330+11th+ave" }, "geometry": { "type": "Point", "coordinates": [ -122.4694793, 37.7820924 ] } },
{ "type": "Feature", "properties": { "address": "6201 Geary Blvd.", "who": "Cyril Yu<br>Bernie Curran", "total": 2, "url": "https://sfplanninggis.org/pim/?tab=Property&search=6201+geary+blvd" }, "geometry": { "type": "Point", "coordinates": [ -122.4859576, 37.7797352 ] } },
{ "type": "Feature", "properties": { "address": "166 19th Ave.", "who": "Cyril Yu<br>Bernie Curran", "total": 2, "url": "https://sfplanninggis.org/pim/?tab=Property&search=166+19th+ave" }, "geometry": { "type": "Point", "coordinates": [ -122.4784231, 37.7848147 ] } },
{ "type": "Feature", "properties": { "address": "451 34th Ave.", "who": "Bernie Curran<br>Rodrigo Santos", "total": 2, "url": "https://sfplanninggis.org/pim/?tab=Property&search=451+34th+ave" }, "geometry": { "type": "Point", "coordinates": [ -122.4946395, 37.7806241 ] } },
{ "type": "Feature", "properties": { "address": "370 31st Ave.", "who": "Cyril Yu<br>Bernie Curran", "total": 2, "url": "https://sfplanninggis.org/pim/?tab=Property&search=370+31st+ave" }, "geometry": { "type": "Point", "coordinates": [ -122.4908371, 37.7822803 ] } },
{ "type": "Feature", "properties": { "address": "90 Seacliff Ave.", "who": "Rudy Pada<br>Bernie Curran", "total": 2, "url": "https://sfplanninggis.org/pim/?tab=Property&search=90+seacliff+ave" }, "geometry": { "type": "Point", "coordinates": [ -122.4864598, 37.7891358 ] } },
{ "type": "Feature", "properties": { "address": "3430 Geary Blvd.", "who": "Rudy Pada<br>Bernie Curran", "total": 2, "url": "https://sfplanninggis.org/pim/?tab=Property&search=3430+geary+blvd" }, "geometry": { "type": "Point", "coordinates": [ -122.456188, 37.781694 ] } },
{ "type": "Feature", "properties": { "address": "91 Mendosa Ave.", "who": "Rudy Pada<br>Bernie Curran", "total": 2, "url": "https://sfplanninggis.org/pim/?tab=Property&search=91+mendosa+ave" }, "geometry": { "type": "Point", "coordinates": [ -122.4659856, 37.7479616 ] } },
{ "type": "Feature", "properties": { "address": "50 Lenox Wy.", "who": "Rudy Pada<br>Bernie Curran", "total": 2, "url": "https://sfplanninggis.org/pim/?tab=Property&search=50+lenox+wy" }, "geometry": { "type": "Point", "coordinates": [ -122.4651055, 37.7427719 ] } },
{ "type": "Feature", "properties": { "address": "727 41st Ave.", "who": "Rudy Pada<br>Bernie Curran", "total": 2, "url": "https://sfplanninggis.org/pim/?tab=Property&search=727+41st+ave" }, "geometry": { "type": "Point", "coordinates": [ -122.5018529, 37.7749507 ] } },
{ "type": "Feature", "properties": { "address": "2845 Lake St.", "who": "Rudy Pada<br>Bernie Curran", "total": 2, "url": "https://sfplanninggis.org/pim/?tab=Property&search=2845+lake+st" }, "geometry": { "type": "Point", "coordinates": [ -122.4901739, 37.7848657 ] } },
{ "type": "Feature", "properties": { "address": "1157 Cayuga Ave.", "who": "Rudy Pada<br>Bernie Curran", "total": 2, "url": "https://sfplanninggis.org/pim/?tab=Property&search=1157+cayuga+ave" }, "geometry": { "type": "Point", "coordinates": [ -122.4414378, 37.7196958 ] } },
{ "type": "Feature", "properties": { "address": "857 Alabama St.", "who": "Rudy Pada<br>Bernie Curran", "total": 2, "url": "https://sfplanninggis.org/pim/?tab=Property&search=857+alabama+st" }, "geometry": { "type": "Point", "coordinates": [ -122.411214, 37.758193 ] } },
{ "type": "Feature", "properties": { "address": "659 09th Ave.", "who": "Cyril Yu<br>Bernie Curran", "total": 2, "url": "https://sfplanninggis.org/pim/?tab=Property&search=659+09th+ave" }, "geometry": { "type": "Point", "coordinates": [ -122.4673676, 37.7759616 ] } },
{ "type": "Feature", "properties": { "address": "1731 Pacheco St.", "who": "Rudy Pada<br>Bernie Curran", "total": 2, "url": "https://sfplanninggis.org/pim/?tab=Property&search=1731+pacheco+st" }, "geometry": { "type": "Point", "coordinates": [ -122.4789427, 37.7502236 ] } },
{ "type": "Feature", "properties": { "address": "2304 Vallejo St.", "who": "Rudy Pada<br>Bernie Curran", "total": 2, "url": "https://sfplanninggis.org/pim/?tab=Property&search=2304+vallejo+st" }, "geometry": { "type": "Point", "coordinates": [ -122.4354216, 37.7953705 ] } },
{ "type": "Feature", "properties": { "address": "2002 Pacific Ave.", "who": "Rudy Pada<br>Bernie Curran", "total": 2, "url": "https://sfplanninggis.org/pim/?tab=Property&search=2002+pacific+ave" }, "geometry": { "type": "Point", "coordinates": [ -122.428476, 37.7944564 ] } },
{ "type": "Feature", "properties": { "address": "2015 Laguna St.", "who": "Cyril Yu<br>Bernie Curran", "total": 2, "url": "https://sfplanninggis.org/pim/?tab=Property&search=2015+laguna+st" }, "geometry": { "type": "Point", "coordinates": [ -122.4291397, 37.7897867 ] } },
{ "type": "Feature", "properties": { "address": "128 Noriega St.", "who": "Rudy Pada<br>Bernie Curran", "total": 2, "url": "https://sfplanninggis.org/pim/?tab=Property&search=128+noriega+st" },