{
"type": "FeatureCollection",
"features": [
{ "type": "Feature", "properties": { "unique_id": 488, "name": "The Academy - San Francisco @ McAteer", "year": "2021-22", "homeless_youth": 22, "all_students": 347, "homeless_youth_perc": 6.3, "homeless_youth_bin": "6-8" }, "geometry": { "type": "Point", "coordinates": [ -122.430396, 37.7667091 ] } },
{ "type": "Feature", "properties": { "unique_id": 489, "name": "Alamo Elementary", "year": "2021-22", "homeless_youth": 6, "all_students": 435, "homeless_youth_perc": 1.4, "homeless_youth_bin": "0-2" }, "geometry": { "type": "Point", "coordinates": [ -122.4825273, 37.7831035 ] } },
{ "type": "Feature", "properties": { "unique_id": 490, "name": "Alvarado Elementary", "year": "2021-22", "homeless_youth": 2, "all_students": 472, "homeless_youth_perc": 0.4, "homeless_youth_bin": "0-2" }, "geometry": { "type": "Point", "coordinates": [ -122.4385279, 37.7537275 ] } },
{ "type": "Feature", "properties": { "unique_id": 491, "name": "Aptos Middle", "year": "2021-22", "homeless_youth": 30, "all_students": 855, "homeless_youth_perc": 3.5, "homeless_youth_bin": "2-4" }, "geometry": { "type": "Point", "coordinates": [ -122.4656773, 37.7296363 ] } },
{ "type": "Feature", "properties": { "unique_id": 492, "name": "Argonne Elementary", "year": "2021-22", "homeless_youth": 4, "all_students": 389, "homeless_youth_perc": 1.0, "homeless_youth_bin": "0-2" }, "geometry": { "type": "Point", "coordinates": [ -122.4765333, 37.7752294 ] } },
{ "type": "Feature", "properties": { "unique_id": 493, "name": "Ruth Asawa San Francisco School of the Arts", "year": "2021-22", "homeless_youth": 16, "all_students": 750, "homeless_youth_perc": 2.1, "homeless_youth_bin": "2-4" }, "geometry": { "type": "Point", "coordinates": [ -122.4485649, 37.7453141 ] } },
{ "type": "Feature", "properties": { "unique_id": 494, "name": "Balboa High", "year": "2021-22", "homeless_youth": 52, "all_students": 1262, "homeless_youth_perc": 4.1, "homeless_youth_bin": "4-6" }, "geometry": { "type": "Point", "coordinates": [ -122.4407711, 37.7215796 ] } },
{ "type": "Feature", "properties": { "unique_id": 495, "name": "Willie L. Brown Jr. Middle", "year": "2021-22", "homeless_youth": 15, "all_students": 196, "homeless_youth_perc": 7.7, "homeless_youth_bin": "6-8" }, "geometry": { "type": "Point", "coordinates": [ -122.399628, 37.736183 ] } },
{ "type": "Feature", "properties": { "unique_id": 496, "name": "Bryant Elementary", "year": "2021-22", "homeless_youth": 23, "all_students": 229, "homeless_youth_perc": 10.0, "homeless_youth_bin": "8-10" }, "geometry": { "type": "Point", "coordinates": [ -122.4049711, 37.7516484 ] } },
{ "type": "Feature", "properties": { "unique_id": 497, "name": "Buena Vista/Horace Mann K-8", "year": "2021-22", "homeless_youth": 28, "all_students": 591, "homeless_youth_perc": 4.7, "homeless_youth_bin": "4-6" }, "geometry": { "type": "Point", "coordinates": [ -122.4203039, 37.753612 ] } },
{ "type": "Feature", "properties": { "unique_id": 498, "name": "Phillip and Sala Burton Academic High", "year": "2021-22", "homeless_youth": 67, "all_students": 1144, "homeless_youth_perc": 5.9, "homeless_youth_bin": "4-6" }, "geometry": { "type": "Point", "coordinates": [ -122.4062147, 37.7208748 ] } },
{ "type": "Feature", "properties": { "unique_id": 499, "name": "Bessie Carmichael Elementary", "year": "2021-22", "homeless_youth": 108, "all_students": 575, "homeless_youth_perc": 18.8, "homeless_youth_bin": "18-20" }, "geometry": { "type": "Point", "coordinates": [ -122.4063687, 37.7762375 ] } },
{ "type": "Feature", "properties": { "unique_id": 500, "name": "George Washington Carver Elementary", "year": "2021-22", "homeless_youth": 13, "all_students": 107, "homeless_youth_perc": 12.1, "homeless_youth_bin": "12-14" }, "geometry": { "type": "Point", "coordinates": [ -122.3853987, 37.7318315 ] } },
{ "type": "Feature", "properties": { "unique_id": 501, "name": "Cesar Chavez Elementary", "year": "2021-22", "homeless_youth": 20, "all_students": 427, "homeless_youth_perc": 4.7, "homeless_youth_bin": "4-6" }, "geometry": { "type": "Point", "coordinates": [ -122.4151875, 37.754953400000012 ] } },
{ "type": "Feature", "properties": { "unique_id": 502, "name": "John Yehall Chin Elementary", "year": "2021-22", "homeless_youth": 12, "all_students": 265, "homeless_youth_perc": 4.5, "homeless_youth_bin": "4-6" }, "geometry": { "type": "Point", "coordinates": [ -122.4031451, 37.7985806 ] } },
{ "type": "Feature", "properties": { "unique_id": 503, "name": "Chinese Immersion School at DeAvila", "year": "2021-22", "homeless_youth": 0, "all_students": 370, "homeless_youth_perc": 0.0, "homeless_youth_bin": "nan" }, "geometry": { "type": "Point", "coordinates": [ -122.4443352, 37.7698703 ] } },
{ "type": "Feature", "properties": { "unique_id": 504, "name": "City Arts and Tech High", "year": "2021-22", "homeless_youth": 0, "all_students": 232, "homeless_youth_perc": 0.0, "homeless_youth_bin": "nan" }, "geometry": { "type": "Point", "coordinates": [ -122.425266, 37.719716 ] } },
{ "type": "Feature", "properties": { "unique_id": 505, "name": "Clarendon Alternative Elementary", "year": "2021-22", "homeless_youth": 2, "all_students": 511, "homeless_youth_perc": 0.4, "homeless_youth_bin": "0-2" }, "geometry": { "type": "Point", "coordinates": [ -122.4564104, 37.7533856 ] } },
{ "type": "Feature", "properties": { "unique_id": 506, "name": "Cleveland Elementary", "year": "2021-22", "homeless_youth": 3, "all_students": 318, "homeless_youth_perc": 0.9, "homeless_youth_bin": "0-2" }, "geometry": { "type": "Point", "coordinates": [ -122.4287919, 37.7201664 ] } },
{ "type": "Feature", "properties": { "unique_id": 507, "name": "William L. Cobb Elementary", "year": "2021-22", "homeless_youth": 10, "all_students": 132, "homeless_youth_perc": 7.6, "homeless_youth_bin": "6-8" }, "geometry": { "type": "Point", "coordinates": [ -122.4395073, 37.7880636 ] } },
{ "type": "Feature", "properties": { "unique_id": 508, "name": "Creative Arts Charter", "year": "2021-22", "homeless_youth": 0, "all_students": 435, "homeless_youth_perc": 0.0, "homeless_youth_bin": "nan" }, "geometry": { "type": "Point", "coordinates": [ -122.4359214, 37.7798277 ] } },
{ "type": "Feature", "properties": { "unique_id": 509, "name": "James Denman Middle", "year": "2021-22", "homeless_youth": 39, "all_students": 794, "homeless_youth_perc": 4.9, "homeless_youth_bin": "4-6" }, "geometry": { "type": "Point", "coordinates": [ -122.4433282, 37.7217249 ] } },
{ "type": "Feature", "properties": { "unique_id": 510, "name": "District Office", "year": "2021-22", "homeless_youth": 0, "all_students": 58, "homeless_youth_perc": 0.0, "homeless_youth_bin": "nan" }, "geometry": { "type": "Point", "coordinates": [ -122.4194155, 37.7749295 ] } },
{ "type": "Feature", "properties": { "unique_id": 511, "name": "Downtown High", "year": "2021-22", "homeless_youth": 25, "all_students": 134, "homeless_youth_perc": 18.7, "homeless_youth_bin": "18-20" }, "geometry": { "type": "Point", "coordinates": [ -122.403887, 37.7616204 ] } },
{ "type": "Feature", "properties": { "unique_id": 512, "name": "Charles Drew College Preparatory Academy", "year": "2021-22", "homeless_youth": 3, "all_students": 165, "homeless_youth_perc": 1.8, "homeless_youth_bin": "0-2" }, "geometry": { "type": "Point", "coordinates": [ -122.4194155, 37.7749295 ] } },
{ "type": "Feature", "properties": { "unique_id": 513, "name": "El Dorado Elementary", "year": "2021-22", "homeless_youth": 0, "all_students": 125, "homeless_youth_perc": 0.0, "homeless_youth_bin": "nan" }, "geometry": { "type": "Point", "coordinates": [ -122.4072593, 37.7185653 ] } },
{ "type": "Feature", "properties": { "unique_id": 514, "name": "Everett Middle", "year": "2021-22", "homeless_youth": 70, "all_students": 598, "homeless_youth_perc": 11.7, "homeless_youth_bin": "10-12" }, "geometry": { "type": "Point", "coordinates": [ -122.4288725, 37.7637275 ] } },
{ "type": "Feature", "properties": { "unique_id": 515, "name": "Dianne Feinstein Elementary", "year": "2021-22", "homeless_youth": 1, "all_students": 406, "homeless_youth_perc": 0.2, "homeless_youth_bin": "0-2" }, "geometry": { "type": "Point", "coordinates": [ -122.4817726, 37.7396634 ] } },
{ "type": "Feature", "properties": { "unique_id": 516, "name": "Five Keys Adult School", "year": "2021-22", "homeless_youth": 3, "all_students": 71, "homeless_youth_perc": 4.2, "homeless_youth_bin": "4-6" }, "geometry": { "type": "Point", "coordinates": [ -122.4021011, 37.7772434 ] } },
{ "type": "Feature", "properties": { "unique_id": 517, "name": "Five Keys Charter", "year": "2021-22", "homeless_youth": 9, "all_students": 87, "homeless_youth_perc": 10.3, "homeless_youth_bin": "10-12" }, "geometry": { "type": "Point", "coordinates": [ -122.4021011, 37.7772434 ] } },
{ "type": "Feature", "properties": { "unique_id": 518, "name": "Five Keys Independence High", "year": "2021-22", "homeless_youth": 213, "all_students": 2352, "homeless_youth_perc": 9.1, "homeless_youth_bin": "8-10" }, "geometry": { "type": "Point", "coordinates": [ -122.4021011, 37.7772434 ] } },
{ "type": "Feature", "properties": { "unique_id": 519, "name": "Leonard R. Flynn Elementary", "year": "2021-22", "homeless_youth": 8, "all_students": 426, "homeless_youth_perc": 1.9, "homeless_youth_bin": "0-2" }, "geometry": { "type": "Point", "coordinates": [ -122.411865, 37.7477649 ] } },
{ "type": "Feature", "properties": { "unique_id": 520, "name": "Francisco Middle", "year": "2021-22", "homeless_youth": 65, "all_students": 548, "homeless_youth_perc": 11.9, "homeless_youth_bin": "10-12" }, "geometry": { "type": "Point", "coordinates": [ -122.4115531, 37.8045973 ] } },
{ "type": "Feature", "properties": { "unique_id": 521, "name": "Galileo High", "year": "2021-22", "homeless_youth": 116, "all_students": 1877, "homeless_youth_perc": 6.2, "homeless_youth_bin": "6-8" }, "geometry": { "type": "Point", "coordinates": [ -122.4240267, 37.8035481 ] } },
{ "type": "Feature", "properties": { "unique_id": 522, "name": "Garfield Elementary", "year": "2021-22", "homeless_youth": 4, "all_students": 196, "homeless_youth_perc": 2.0, "homeless_youth_bin": "0-2" }, "geometry": { "type": "Point", "coordinates": [ -122.4067833, 37.8019402 ] } },
{ "type": "Feature", "properties": { "unique_id": 523, "name": "Gateway High", "year": "2021-22", "homeless_youth": 0, "all_students": 500, "homeless_youth_perc": 0.0, "homeless_youth_bin": "nan" }, "geometry": { "type": "Point", "coordinates": [ -122.4364871, 37.7832589 ] } },
{ "type": "Feature", "properties": { "unique_id": 524, "name": "Gateway Middle", "year": "2021-22", "homeless_youth": 0, "all_students": 296, "homeless_youth_perc": 0.0, "homeless_youth_bin": "nan" }, "geometry": { "type": "Point", "coordinates": [ -122.4357961, 37.7793336 ] } },
{ "type": "Feature", "properties": { "unique_id": 525, "name": "A.P. Giannini Middle", "year": "2021-22", "homeless_youth": 11, "all_students": 1178, "homeless_youth_perc": 0.9, "homeless_youth_bin": "0-2" }, "geometry": { "type": "Point", "coordinates": [ -122.4962781, 37.7507573 ] } },
{ "type": "Feature", "properties": { "unique_id": 526, "name": "Glen Park Elementary", "year": "2021-22", "homeless_youth": 2, "all_students": 313, "homeless_youth_perc": 0.6, "homeless_youth_bin": "0-2" }, "geometry": { "type": "Point", "coordinates": [ -122.435832, 37.733137 ] } },
{ "type": "Feature", "properties": { "unique_id": 527, "name": "Grattan Elementary", "year": "2021-22", "homeless_youth": 1, "all_students": 357, "homeless_youth_perc": 0.3, "homeless_youth_bin": "0-2" }, "geometry": { "type": "Point", "coordinates": [ -122.4505091, 37.7637948 ] } },
{ "type": "Feature", "properties": { "unique_id": 528, "name": "Guadalupe Elementary", "year": "2021-22", "homeless_youth": 4, "all_students": 299, "homeless_youth_perc": 1.3, "homeless_youth_bin": "0-2" }, "geometry": { "type": "Point", "coordinates": [ -122.4342829, 37.7101617 ] } },
{ "type": "Feature", "properties": { "unique_id": 529, "name": "Bret Harte Elementary", "year": "2021-22", "homeless_youth": 4, "all_students": 241, "homeless_youth_perc": 1.7, "homeless_youth_bin": "0-2" }, "geometry": { "type": "Point", "coordinates": [ -122.3918794, 37.7203479 ] } },
{ "type": "Feature", "properties": { "unique_id": 530, "name": "Hillcrest Elementary", "year": "2021-22", "homeless_youth": 124, "all_students": 372, "homeless_youth_perc": 33.3, "homeless_youth_bin": "20+" }, "geometry": { "type": "Point", "coordinates": [ -122.4189377, 37.7287822 ] } },
{ "type": "Feature", "properties": { "unique_id": 531, "name": "Herbert Hoover Middle", "year": "2021-22", "homeless_youth": 15, "all_students": 934, "homeless_youth_perc": 1.6, "homeless_youth_bin": "0-2" }, "geometry": { "type": "Point", "coordinates": [ -122.4700022, 37.7453955 ] } },
{ "type": "Feature", "properties": { "unique_id": 532, "name": "Dolores Huerta Elementary", "year": "2021-22", "homeless_youth": 9, "all_students": 333, "homeless_youth_perc": 2.7, "homeless_youth_bin": "2-4" }, "geometry": { "type": "Point", "coordinates": [ -122.4252685, 37.7402551 ] } },
{ "type": "Feature", "properties": { "unique_id": 533, "name": "Independence High", "year": "2021-22", "homeless_youth": 11, "all_students": 137, "homeless_youth_perc": 8.0, "homeless_youth_bin": "6-8" }, "geometry": { "type": "Point", "coordinates": [ -122.4636012, 37.7631662 ] } },
{ "type": "Feature", "properties": { "unique_id": 534, "name": "Jefferson Elementary", "year": "2021-22", "homeless_youth": 2, "all_students": 486, "homeless_youth_perc": 0.4, "homeless_youth_bin": "0-2" }, "geometry": { "type": "Point", "coordinates": [ -122.4765995, 37.7630802 ] } },
{ "type": "Feature", "properties": { "unique_id": 535, "name": "June Jordan School for Equity", "year": "2021-22", "homeless_youth": 17, "all_students": 208, "homeless_youth_perc": 8.2, "homeless_youth_bin": "8-10" }, "geometry": { "type": "Point", "coordinates": [ -122.4253055, 37.7196528 ] } },
{ "type": "Feature", "properties": { "unique_id": 536, "name": "Francis Scott Key Elementary", "year": "2021-22", "homeless_youth": 2, "all_students": 543, "homeless_youth_perc": 0.4, "homeless_youth_bin": "0-2" }, "geometry": { "type": "Point", "coordinates": [ -122.5022217, 37.7581754 ] } },
{ "type": "Feature", "properties": { "unique_id": 537, "name": "Thomas Starr King Elementary", "year": "2021-22", "homeless_youth": 5, "all_students": 312, "homeless_youth_perc": 1.6, "homeless_youth_bin": "0-2" }, "geometry": { "type": "Point", "coordinates": [ -122.3988962, 37.7536155 ] } },
{ "type": "Feature", "properties": { "unique_id": 538, "name": "Martin Luther King Jr. Academic Middle", "year": "2021-22", "homeless_youth": 43, "all_students": 400, "homeless_youth_perc": 10.8, "homeless_youth_bin": "10-12" }, "geometry": { "type": "Point", "coordinates": [ -122.4056975, 37.7279034 ] } },
{ "type": "Feature", "properties": { "unique_id": 539, "name": "KIPP Bayview Academy", "year": "2021-22", "homeless_youth": 8, "all_students": 258, "homeless_youth_perc": 3.1, "homeless_youth_bin": "2-4" }, "geometry": { "type": "Point", "coordinates": [ -122.3966866, 37.7196222 ] } },
{ "type": "Feature", "properties": { "unique_id": 540, "name": "KIPP San Francisco Bay Academy", "year": "2021-22", "homeless_youth": 12, "all_students": 310, "homeless_youth_perc": 3.9, "homeless_youth_bin": "2-4" }, "geometry": { "type": "Point", "coordinates": [ -122.4375903, 37.7831653 ] } },
{ "type": "Feature", "properties": { "unique_id": 541, "name": "KIPP San Francisco College Preparatory", "year": "2021-22", "homeless_youth": 23, "all_students": 393, "homeless_youth_perc": 5.9, "homeless_youth_bin": "4-6" }, "geometry": { "type": "Point", "coordinates": [ -122.3823631, 37.7327232 ] } },
{ "type": "Feature", "properties": { "unique_id": 542, "name": "Lafayette Elementary", "year": "2021-22", "homeless_youth": 3, "all_students": 489, "homeless_youth_perc": 0.6, "homeless_youth_bin": "0-2" }, "geometry": { "type": "Point", "coordinates": [ -122.4972058, 37.777408 ] } },
{ "type": "Feature", "properties": { "unique_id": 543, "name": "Lakeshore Alternative Elementary", "year": "2021-22", "homeless_youth": 12, "all_students": 427, "homeless_youth_perc": 2.8, "homeless_youth_bin": "2-4" }, "geometry": { "type": "Point", "coordinates": [ -122.4857111, 37.730603599999988 ] } },
{ "type": "Feature", "properties": { "unique_id": 544, "name": "Gordon J. Lau Elementary", "year": "2021-22", "homeless_youth": 187, "all_students": 686, "homeless_youth_perc": 27.3, "homeless_youth_bin": "20+" }, "geometry": { "type": "Point", "coordinates": [ -122.4088184, 37.79424 ] } },
{ "type": "Feature", "properties": { "unique_id": 545, "name": "Lawton Alternative Elementary", "year": "2021-22", "homeless_youth": 2, "all_students": 597, "homeless_youth_perc": 0.3, "homeless_youth_bin": "0-2" }, "geometry": { "type": "Point", "coordinates": [ -122.4893176, 37.7576199 ] } },
{ "type": "Feature", "properties": { "unique_id": 546, "name": "Leadership High", "year": "2021-22", "homeless_youth": 2, "all_students": 316, "homeless_youth_perc": 0.6, "homeless_youth_bin": "0-2" }, "geometry": { "type": "Point", "coordinates": [ -122.4451453, 37.7215158 ] } },
{ "type": "Feature", "properties": { "unique_id": 547, "name": "Edwin and Anita Lee Newcomer", "year": "2021-22", "homeless_youth": 1, "all_students": 30, "homeless_youth_perc": 3.3, "homeless_youth_bin": "2-4" }, "geometry": { "type": "Point", "coordinates": [ -122.4040823, 37.7949069 ] } },
{ "type": "Feature", "properties": { "unique_id": 548, "name": "James Lick Middle", "year": "2021-22", "homeless_youth": 47, "all_students": 424, "homeless_youth_perc": 11.1, "homeless_youth_bin": "10-12" }, "geometry": { "type": "Point", "coordinates": [ -122.4330269, 37.7493912 ] } },
{ "type": "Feature", "properties": { "unique_id": 549, "name": "Life Learning Academy Charter", "year": "2021-22", "homeless_youth": 0, "all_students": 30, "homeless_youth_perc": 0.0, "homeless_youth_bin": "nan" }, "geometry": { "type": "Point", "coordinates": [ -122.3691138, 37.825004799999988 ] } },
{ "type": "Feature", "properties": { "unique_id": 550, "name": "Claire Lilienthal Elementary", "year": "2021-22", "homeless_youth": 1, "all_students": 645, "homeless_youth_perc": 0.2, "homeless_youth_bin": "0-2" }, "geometry": { "type": "Point", "coordinates": [ -122.4579983, 37.7871537 ] } },
{ "type": "Feature", "properties": { "unique_id": 551, "name": "Abraham Lincoln High", "year": "2021-22", "homeless_youth": 45, "all_students": 1920, "homeless_youth_perc": 2.3, "homeless_youth_bin": "2-4" }, "geometry": { "type": "Point", "coordinates": [ -122.4802098, 37.7477191 ] } },
{ "type": "Feature", "properties": { "unique_id": 552, "name": "Longfellow Elementary", "year": "2021-22", "homeless_youth": 3, "all_students": 470, "homeless_youth_perc": 0.6, "homeless_youth_bin": "0-2" }, "geometry": { "type": "Point", "coordinates": [ -122.446825, 37.710651 ] } },
{ "type": "Feature", "properties": { "unique_id": 553, "name": "Lowell High", "year": "2021-22", "homeless_youth": 51, "all_students": 2652, "homeless_youth_perc": 1.9, "homeless_youth_bin": "0-2" }, "geometry": { "type": "Point", "coordinates": [ -122.4825763, 37.7304422 ] } },
{ "type": "Feature", "properties": { "unique_id": 554, "name": "Malcolm X Academy", "year": "2021-22", "homeless_youth": 1, "all_students": 98, "homeless_youth_perc": 1.0, "homeless_youth_bin": "0-2" }, "geometry": { "type": "Point", "coordinates": [ -122.381195, 37.7340278 ] } },
{ "type": "Feature", "properties": { "unique_id": 555, "name": "Marina Middle", "year": "2021-22", "homeless_youth": 91, "all_students": 684, "homeless_youth_perc": 13.3, "homeless_youth_bin": "12-14" }, "geometry": { "type": "Point", "coordinates": [ -122.4361227, 37.8017394 ] } },
{ "type": "Feature", "properties": { "unique_id": 556, "name": "Thurgood Marshall High", "year": "2021-22", "homeless_youth": 25, "all_students": 526, "homeless_youth_perc": 4.8, "homeless_youth_bin": "4-6" }, "geometry": { "type": "Point", "coordinates": [ -122.4013348, 37.7358725 ] } },
{ "type": "Feature", "properties": { "unique_id": 557, "name": "Marshall Elementary", "year": "2021-22", "homeless_youth": 35, "all_students": 233, "homeless_youth_perc": 15.0, "homeless_youth_bin": "14-16" }, "geometry": { "type": "Point", "coordinates": [ -122.4189417, 37.7664402 ] } },
{ "type": "Feature", "properties": { "unique_id": 558, "name": "Frank McCoppin Elementary", "year": "2021-22", "homeless_youth": 3, "all_students": 188, "homeless_youth_perc": 1.6, "homeless_youth_bin": "0-2" }, "geometry": { "type": "Point", "coordinates": [ -122.4643203, 37.7761741 ] } },
{ "type": "Feature", "properties": { "unique_id": 559, "name": "McKinley Elementary", "year": "2021-22", "homeless_youth": 4, "all_students": 277, "homeless_youth_perc": 1.4, "homeless_youth_bin": "0-2" }, "geometry": { "type": "Point", "coordinates": [ -122.4362404, 37.7669633 ] } },
{ "type": "Feature", "properties": { "unique_id": 560, "name": "John McLaren Children Centers", "year": "2021-22", "homeless_youth": 0, "all_students": 18, "homeless_youth_perc": 0.0, "homeless_youth_bin": "nan" }, "geometry": { "type": "Point", "coordinates": [ -122.4233348, 37.7137983 ] } },
{ "type": "Feature", "properties": { "unique_id": 561, "name": "Harvey Milk Civil Rights Elementary", "year": "2021-22", "homeless_youth": 6, "all_students": 187, "homeless_youth_perc": 3.2, "homeless_youth_bin": "2-4" }, "geometry": { "type": "Point", "coordinates": [ -122.4367222, 37.759088 ] } },
{ "type": "Feature", "properties": { "unique_id": 562, "name": "Miraloma Elementary", "year": "2021-22", "homeless_youth": 3, "all_students": 333, "homeless_youth_perc": 0.9, "homeless_youth_bin": "0-2" }, "geometry": { "type": "Point", "coordinates": [ -122.4503021, 37.7391659 ] } },
{ "type": "Feature", "properties": { "unique_id": 563, "name": "Mission Education Center", "year": "2021-22", "homeless_youth": 1, "all_students": 51, "homeless_youth_perc": 2.0, "homeless_youth_bin": "0-2" }, "geometry": { "type": "Point", "coordinates": [ -122.4313306, 37.741947 ] } },
{ "type": "Feature", "properties": { "unique_id": 564, "name": "Mission High", "year": "2021-22", "homeless_youth": 83, "all_students": 1080, "homeless_youth_perc": 7.7, "homeless_youth_bin": "6-8" }, "geometry": { "type": "Point", "coordinates": [ -122.4273151, 37.7617166 ] } },
{ "type": "Feature", "properties": { "unique_id": 565, "name": "Mission Preparatory", "year": "2021-22", "homeless_youth": 0, "all_students": 467, "homeless_youth_perc": 0.0, "homeless_youth_bin": "nan" }, "geometry": { "type": "Point", "coordinates": [ -122.4087391, 37.7554015 ] } },
{ "type": "Feature", "properties": { "unique_id": 566, "name": "Monroe Elementary", "year": "2021-22", "homeless_youth": 4, "all_students": 507, "homeless_youth_perc": 0.8, "homeless_youth_bin": "0-2" }, "geometry": { "type": "Point", "coordinates": [ -122.4304005, 37.7255673 ] } },
{ "type": "Feature", "properties": { "unique_id": 567, "name": "George R. Moscone Elementary", "year": "2021-22", "homeless_youth": 7, "all_students": 357, "homeless_youth_perc": 2.0, "homeless_youth_bin": "0-2" }, "geometry": { "type": "Point", "coordinates": [ -122.4124934, 37.7564161 ] } },
{ "type": "Feature", "properties": { "unique_id": 568, "name": "John Muir Elementary", "year": "2021-22", "homeless_youth": 19, "all_students": 225, "homeless_youth_perc": 8.4, "homeless_youth_bin": "8-10" }, "geometry": { "type": "Point", "coordinates": [ -122.4289812, 37.7739963 ] } },
{ "type": "Feature", "properties": { "unique_id": 569, "name": "New Traditions Elementary", "year": "2021-22", "homeless_youth": 1, "all_students": 233, "homeless_youth_perc": 0.4, "homeless_youth_bin": "0-2" }, "geometry": { "type": "Point", "coordinates": [ -122.4502893, 37.773893 ] } },
{ "type": "Feature", "properties": { "unique_id": 570, "name": "Noriega Children Center", "year": "2021-22", "homeless_youth": 0, "all_students": 42, "homeless_youth_perc": 0.0, "homeless_youth_bin": "nan" }, "geometry": { "type": "Point", "coordinates": [ -122.486366, 37.7538243 ] } },
{ "type": "Feature", "properties": { "unique_id": 571, "name": "John O'Connell High", "year": "2021-22", "homeless_youth": 70, "all_students": 530, "homeless_youth_perc": 13.2, "homeless_youth_bin": "12-14" }, "geometry": { "type": "Point", "coordinates": [ -122.4143252, 37.7595979 ] } },
{ "type": "Feature", "properties": { "unique_id": 572, "name": "Jose Ortega Elementary", "year": "2021-22", "homeless_youth": 1, "all_students": 365, "homeless_youth_perc": 0.3, "homeless_youth_bin": "0-2" }, "geometry": { "type": "Point", "coordinates": [ -122.4667269, 37.716555199999988 ] } },
{ "type": "Feature", "properties": { "unique_id": 573, "name": "Jean Parker Elementary", "year": "2021-22", "homeless_youth": 30, "all_students": 168, "homeless_youth_perc": 17.9, "homeless_youth_bin": "16-18" }, "geometry": { "type": "Point", "coordinates": [ -122.4111731, 37.7975746 ] } },
{ "type": "Feature", "properties": { "unique_id": 574, "name": "Rosa Parks Elementary", "year": "2021-22", "homeless_youth": 8, "all_students": 380, "homeless_youth_perc": 2.1, "homeless_youth_bin": "2-4" }, "geometry": { "type": "Point", "coordinates": [ -122.4300583, 37.7834958 ] } },
{ "type": "Feature", "properties": { "unique_id": 575, "name": "George Peabody Elementary", "year": "2021-22", "homeless_youth": 2, "all_students": 272, "homeless_youth_perc": 0.7, "homeless_youth_bin": "0-2" }, "geometry": { "type": "Point", "coordinates": [ -122.465005, 37.7838576 ] } },
{ "type": "Feature", "properties": { "unique_id": 576, "name": "Presidio Early Ed.", "year": "2021-22", "homeless_youth": 0, "all_students": 21, "homeless_youth_perc": 0.0, "homeless_youth_bin": "nan" }, "geometry": { "type": "Point", "coordinates": [ -122.4608667, 37.79794 ] } },
{ "type": "Feature", "properties": { "unique_id": 577, "name": "Presidio Middle", "year": "2021-22", "homeless_youth": 12, "all_students": 987, "homeless_youth_perc": 1.2, "homeless_youth_bin": "0-2" }, "geometry": { "type": "Point", "coordinates": [ -122.4899008, 37.7810048 ] } },
{ "type": "Feature", "properties": { "unique_id": 578, "name": "Redding Elementary", "year": "2021-22", "homeless_youth": 5, "all_students": 244, "homeless_youth_perc": 2.0, "homeless_youth_bin": "0-2" }, "geometry": { "type": "Point", "coordinates": [ -122.4193759, 37.7893862 ] } },
{ "type": "Feature", "properties": { "unique_id": 579, "name": "Paul Revere Elementary", "year": "2021-22", "homeless_youth": 19, "all_students": 438, "homeless_youth_perc": 4.3, "homeless_youth_bin": "4-6" }, "geometry": { "type": "Point", "coordinates": [ -122.4131337, 37.7373148 ] } },
{ "type": "Feature", "properties": { "unique_id": 580, "name": "Rooftop Elementary", "year": "2021-22", "homeless_youth": 3, "all_students": 539, "homeless_youth_perc": 0.6, "homeless_youth_bin": "0-2" }, "geometry": { "type": "Point", "coordinates": [ -122.4432948, 37.754813899999988 ] } },
{ "type": "Feature", "properties": { "unique_id": 581, "name": "Roosevelt Middle", "year": "2021-22", "homeless_youth": 18, "all_students": 670, "homeless_youth_perc": 2.7, "homeless_youth_bin": "2-4" }, "geometry": { "type": "Point", "coordinates": [ -122.4585383, 37.7823715 ] } },
{ "type": "Feature", "properties": { "unique_id": 582, "name": "San Francisco International High", "year": "2021-22", "homeless_youth": 4, "all_students": 293, "homeless_youth_perc": 1.4, "homeless_youth_bin": "0-2" }, "geometry": { "type": "Point", "coordinates": [ -122.4010195, 37.7619231 ] } },
{ "type": "Feature", "properties": { "unique_id": 583, "name": "San Francisco Community Alternative", "year": "2021-22", "homeless_youth": 7, "all_students": 280, "homeless_youth_perc": 2.5, "homeless_youth_bin": "2-4" }, "geometry": { "type": "Point", "coordinates": [ -122.4321939, 37.726005 ] } },
{ "type": "Feature", "properties": { "unique_id": 584, "name": "San Francisco Public Montessori", "year": "2021-22", "homeless_youth": 1, "all_students": 121, "homeless_youth_perc": 0.8, "homeless_youth_bin": "0-2" }, "geometry": { "type": "Point", "coordinates": [ -122.433439, 37.7927628 ] } },
{ "type": "Feature", "properties": { "unique_id": 585, "name": "Sanchez Elementary", "year": "2021-22", "homeless_youth": 9, "all_students": 277, "homeless_youth_perc": 3.2, "homeless_youth_bin": "2-4" }, "geometry": { "type": "Point", "coordinates": [ -122.4305366, 37.7634569 ] } },
{ "type": "Feature", "properties": { "unique_id": 586, "name": "Junipero Serra Elementary", "year": "2021-22", "homeless_youth": 3, "all_students": 267, "homeless_youth_perc": 1.1, "homeless_youth_bin": "0-2" }, "geometry": { "type": "Point", "coordinates": [ -122.4213693, 37.7369966 ] } },
{ "type": "Feature", "properties": { "unique_id": 587, "name": "Sheridan Elementary", "year": "2021-22", "homeless_youth": 2, "all_students": 192, "homeless_youth_perc": 1.0, "homeless_youth_bin": "0-2" }, "geometry": { "type": "Point", "coordinates": [ -122.4596391, 37.7145979 ] } },
{ "type": "Feature", "properties": { "unique_id": 588, "name": "Sherman Elementary", "year": "2021-22", "homeless_youth": 2, "all_students": 285, "homeless_youth_perc": 0.7, "homeless_youth_bin": "0-2" }, "geometry": { "type": "Point", "coordinates": [ -122.426188, 37.7981655 ] } },
{ "type": "Feature", "properties": { "unique_id": 589, "name": "Commodore Sloat Elementary", "year": "2021-22", "homeless_youth": 0, "all_students": 371, "homeless_youth_perc": 0.0, "homeless_youth_bin": "nan" }, "geometry": { "type": "Point", "coordinates": [ -122.47091, 37.7315894 ] } },
{ "type": "Feature", "properties": { "unique_id": 590, "name": "Spring Valley Elementary", "year": "2021-22", "homeless_youth": 5, "all_students": 241, "homeless_youth_perc": 2.1, "homeless_youth_bin": "2-4" }, "geometry": { "type": "Point", "coordinates": [ -122.4188863, 37.7942356 ] } },
{ "type": "Feature", "properties": { "unique_id": 591, "name": "Robert Louis Stevenson Elementary", "year": "2021-22", "homeless_youth": 1, "all_students": 449, "homeless_youth_perc": 0.2, "homeless_youth_bin": "0-2" }, "geometry": { "type": "Point", "coordinates": [ -122.4928488, 37.7487104 ] } },
{ "type": "Feature", "properties": { "unique_id": 592, "name": "Commodore Stockton Children Center", "year": "2021-22", "homeless_youth": 0, "all_students": 24, "homeless_youth_perc": 0.0, "homeless_youth_bin": "nan" }, "geometry": { "type": "Point", "coordinates": [ -122.4090968, 37.7950577 ] } },
{ "type": "Feature", "properties": { "unique_id": 593, "name": "Sunnyside Elementary", "year": "2021-22", "homeless_youth": 0, "all_students": 337, "homeless_youth_perc": 0.0, "homeless_youth_bin": "nan" }, "geometry": { "type": "Point", "coordinates": [ -122.4483162, 37.7302982 ] } },
{ "type": "Feature", "properties": { "unique_id": 594, "name": "Sunset Elementary", "year": "2021-22", "homeless_youth": 0, "all_students": 401, "homeless_youth_perc": 0.0, "homeless_youth_bin": "nan" }, "geometry": { "type": "Point", "coordinates": [ -122.4995634, 37.7508971 ] } },
{ "type": "Feature", "properties": { "unique_id": 595, "name": "Sutro Elementary", "year": "2021-22", "homeless_youth": 0, "all_students": 226, "homeless_youth_perc": 0.0, "homeless_youth_bin": "nan" }, "geometry": { "type": "Point", "coordinates": [ -122.4713209, 37.783545200000013 ] } },
{ "type": "Feature", "properties": { "unique_id": 596, "name": "Edward R. Taylor Elementary", "year": "2021-22", "homeless_youth": 9, "all_students": 610, "homeless_youth_perc": 1.5, "homeless_youth_bin": "0-2" }, "geometry": { "type": "Point", "coordinates": [ -122.4075501, 37.7277831 ] } },
{ "type": "Feature", "properties": { "unique_id": 597, "name": "Tenderloin Community", "year": "2021-22", "homeless_youth": 47, "all_students": 293, "homeless_youth_perc": 16.0, "homeless_youth_bin": "14-16" }, "geometry": { "type": "Point", "coordinates": [ -122.4197403, 37.7817847 ] } },
{ "type": "Feature", "properties": { "unique_id": 598, "name": "Thomas Edison Charter Academy", "year": "2021-22", "homeless_youth": 25, "all_students": 641, "homeless_youth_perc": 3.9, "homeless_youth_bin": "2-4" }, "geometry": { "type": "Point", "coordinates": [ -122.4263672, 37.7545904 ] } },
{ "type": "Feature", "properties": { "unique_id": 599, "name": "Tule Elk Park Children Center", "year": "2021-22", "homeless_youth": 1, "all_students": 43, "homeless_youth_perc": 2.3, "homeless_youth_bin": "2-4" }, "geometry": { "type": "Point", "coordinates": [ -122.4345338, 37.7994068 ] } },
{ "type": "Feature", "properties": { "unique_id": 600, "name": "Ulloa Elementary", "year": "2021-22", "homeless_youth": 2, "all_students": 530, "homeless_youth_perc": 0.4, "homeless_youth_bin": "0-2" }, "geometry": { "type": "Point", "coordinates": [ -122.4997017, 37.737180599999988 ] } },
{ "type": "Feature", "properties": { "unique_id": 601, "name": "Visitacion Valley Elementary", "year": "2021-22", "homeless_youth": 10, "all_students": 297, "homeless_youth_perc": 3.4, "homeless_youth_bin": "2-4" }, "geometry": { "type": "Point", "coordinates": [ -122.4099161, 37.7126868 ] } },
{ "type": "Feature", "properties": { "unique_id": 602, "name": "Visitacion Valley Middle", "year": "2021-22", "homeless_youth": 18, "all_students": 347, "homeless_youth_perc": 5.2, "homeless_youth_bin": "4-6" }, "geometry": { "type": "Point", "coordinates": [ -122.4123083, 37.7157607 ] } },
{ "type": "Feature", "properties": { "unique_id": 603, "name": "Raoul Wallenberg Traditional High", "year": "2021-22", "homeless_youth": 29, "all_students": 636, "homeless_youth_perc": 4.6, "homeless_youth_bin": "4-6" }, "geometry": { "type": "Point", "coordinates": [ -122.4464031, 37.7804596 ] } },
{ "type": "Feature", "properties": { "unique_id": 604, "name": "George Washington High", "year": "2021-22", "homeless_youth": 51, "all_students": 2068, "homeless_youth_perc": 2.5, "homeless_youth_bin": "2-4" }, "geometry": { "type": "Point", "coordinates": [ -122.4910217, 37.7778717 ] } },
{ "type": "Feature", "properties": { "unique_id": 605, "name": "Daniel Webster Elementary", "year": "2021-22", "homeless_youth": 4, "all_students": 341, "homeless_youth_perc": 1.2, "homeless_youth_bin": "0-2" }, "geometry": { "type": "Point", "coordinates": [ -122.3958437, 37.7605811 ] } },
{ "type": "Feature", "properties": { "unique_id": 606, "name": "Ida B. Wells High", "year": "2021-22", "homeless_youth": 22, "all_students": 133, "homeless_youth_perc": 16.5, "homeless_youth_bin": "16-18" }, "geometry": { "type": "Point", "coordinates": [ -122.4340281, 37.7750892 ] } },
{ "type": "Feature", "properties": { "unique_id": 607, "name": "West Portal Elementary", "year": "2021-22", "homeless_youth": 0, "all_students": 533, "homeless_youth_perc": 0.0, "homeless_youth_bin": "nan" }, "geometry": { "type": "Point", "coordinates": [ -122.4643633, 37.742882 ] } },
{ "type": "Feature", "properties": { "unique_id": 608, "name": "Yick Wo Elementary", "year": "2021-22", "homeless_youth": 2, "all_students": 215, "homeless_youth_perc": 0.9, "homeless_youth_bin": "0-2" }, "geometry": { "type": "Point", "coordinates": [ -122.4166309, 37.8019055 ] } },
{ "type": "Feature", "properties": { "unique_id": 609, "name": "Alice Fong Yu Elementary", "year": "2021-22", "homeless_youth": 1, "all_students": 586, "homeless_youth_perc": 0.2, "homeless_youth_bin": "0-2" }, "geometry": { "type": "Point", "coordinates": [ -122.4695689, 37.7592077 ] } }
]
}
