{
"type": "FeatureCollection",
"features": [
{ "type": "Feature", "properties": { "unique_id": 244, "name": "The Academy - San Francisco @ McAteer", "year": "2019-20", "homeless_youth": 21, "all_students": 338, "homeless_youth_perc": 6.2, "homeless_youth_bin": "6-8" }, "geometry": { "type": "Point", "coordinates": [ -122.430396, 37.7667091 ] } },
{ "type": "Feature", "properties": { "unique_id": 245, "name": "Alamo Elementary", "year": "2019-20", "homeless_youth": 7, "all_students": 528, "homeless_youth_perc": 1.3, "homeless_youth_bin": "0-2" }, "geometry": { "type": "Point", "coordinates": [ -122.4825273, 37.7831035 ] } },
{ "type": "Feature", "properties": { "unique_id": 246, "name": "Alvarado Elementary", "year": "2019-20", "homeless_youth": 4, "all_students": 506, "homeless_youth_perc": 0.8, "homeless_youth_bin": "0-2" }, "geometry": { "type": "Point", "coordinates": [ -122.4385279, 37.7537275 ] } },
{ "type": "Feature", "properties": { "unique_id": 247, "name": "Aptos Middle", "year": "2019-20", "homeless_youth": 22, "all_students": 973, "homeless_youth_perc": 2.3, "homeless_youth_bin": "2-4" }, "geometry": { "type": "Point", "coordinates": [ -122.4656773, 37.7296363 ] } },
{ "type": "Feature", "properties": { "unique_id": 248, "name": "Argonne Elementary", "year": "2019-20", "homeless_youth": 2, "all_students": 453, "homeless_youth_perc": 0.4, "homeless_youth_bin": "0-2" }, "geometry": { "type": "Point", "coordinates": [ -122.4765333, 37.7752294 ] } },
{ "type": "Feature", "properties": { "unique_id": 249, "name": "Ruth Asawa San Francisco School of the Arts", "year": "2019-20", "homeless_youth": 17, "all_students": 809, "homeless_youth_perc": 2.1, "homeless_youth_bin": "2-4" }, "geometry": { "type": "Point", "coordinates": [ -122.4485649, 37.7453141 ] } },
{ "type": "Feature", "properties": { "unique_id": 250, "name": "Balboa High", "year": "2019-20", "homeless_youth": 50, "all_students": 1221, "homeless_youth_perc": 4.1, "homeless_youth_bin": "4-6" }, "geometry": { "type": "Point", "coordinates": [ -122.4407711, 37.7215796 ] } },
{ "type": "Feature", "properties": { "unique_id": 251, "name": "Willie L. Brown Jr. Middle", "year": "2019-20", "homeless_youth": 16, "all_students": 181, "homeless_youth_perc": 8.8, "homeless_youth_bin": "8-10" }, "geometry": { "type": "Point", "coordinates": [ -122.399628, 37.736183 ] } },
{ "type": "Feature", "properties": { "unique_id": 252, "name": "Bryant Elementary", "year": "2019-20", "homeless_youth": 53, "all_students": 234, "homeless_youth_perc": 22.6, "homeless_youth_bin": "20+" }, "geometry": { "type": "Point", "coordinates": [ -122.4049711, 37.7516484 ] } },
{ "type": "Feature", "properties": { "unique_id": 253, "name": "Buena Vista/Horace Mann K-8", "year": "2019-20", "homeless_youth": 23, "all_students": 578, "homeless_youth_perc": 4.0, "homeless_youth_bin": "2-4" }, "geometry": { "type": "Point", "coordinates": [ -122.4203039, 37.753612 ] } },
{ "type": "Feature", "properties": { "unique_id": 254, "name": "Phillip and Sala Burton Academic High", "year": "2019-20", "homeless_youth": 86, "all_students": 1141, "homeless_youth_perc": 7.5, "homeless_youth_bin": "6-8" }, "geometry": { "type": "Point", "coordinates": [ -122.4062147, 37.7208748 ] } },
{ "type": "Feature", "properties": { "unique_id": 255, "name": "Bessie Carmichael Elementary", "year": "2019-20", "homeless_youth": 136, "all_students": 626, "homeless_youth_perc": 21.7, "homeless_youth_bin": "20+" }, "geometry": { "type": "Point", "coordinates": [ -122.4063687, 37.7762375 ] } },
{ "type": "Feature", "properties": { "unique_id": 256, "name": "George Washington Carver Elementary", "year": "2019-20", "homeless_youth": 24, "all_students": 128, "homeless_youth_perc": 18.8, "homeless_youth_bin": "18-20" }, "geometry": { "type": "Point", "coordinates": [ -122.3853987, 37.7318315 ] } },
{ "type": "Feature", "properties": { "unique_id": 257, "name": "Cesar Chavez Elementary", "year": "2019-20", "homeless_youth": 36, "all_students": 447, "homeless_youth_perc": 8.1, "homeless_youth_bin": "8-10" }, "geometry": { "type": "Point", "coordinates": [ -122.4151875, 37.754953400000012 ] } },
{ "type": "Feature", "properties": { "unique_id": 258, "name": "John Yehall Chin Elementary", "year": "2019-20", "homeless_youth": 17, "all_students": 266, "homeless_youth_perc": 6.4, "homeless_youth_bin": "6-8" }, "geometry": { "type": "Point", "coordinates": [ -122.4031451, 37.7985806 ] } },
{ "type": "Feature", "properties": { "unique_id": 259, "name": "Chinese Immersion School at DeAvila", "year": "2019-20", "homeless_youth": 1, "all_students": 384, "homeless_youth_perc": 0.3, "homeless_youth_bin": "0-2" }, "geometry": { "type": "Point", "coordinates": [ -122.4443352, 37.7698703 ] } },
{ "type": "Feature", "properties": { "unique_id": 260, "name": "City Arts and Tech High", "year": "2019-20", "homeless_youth": 0, "all_students": 260, "homeless_youth_perc": 0.0, "homeless_youth_bin": "nan" }, "geometry": { "type": "Point", "coordinates": [ -122.425266, 37.719716 ] } },
{ "type": "Feature", "properties": { "unique_id": 261, "name": "Clarendon Alternative Elementary", "year": "2019-20", "homeless_youth": 1, "all_students": 547, "homeless_youth_perc": 0.2, "homeless_youth_bin": "0-2" }, "geometry": { "type": "Point", "coordinates": [ -122.4564104, 37.7533856 ] } },
{ "type": "Feature", "properties": { "unique_id": 262, "name": "Cleveland Elementary", "year": "2019-20", "homeless_youth": 9, "all_students": 358, "homeless_youth_perc": 2.5, "homeless_youth_bin": "2-4" }, "geometry": { "type": "Point", "coordinates": [ -122.4287919, 37.7201664 ] } },
{ "type": "Feature", "properties": { "unique_id": 263, "name": "William L. Cobb Elementary", "year": "2019-20", "homeless_youth": 16, "all_students": 136, "homeless_youth_perc": 11.8, "homeless_youth_bin": "10-12" }, "geometry": { "type": "Point", "coordinates": [ -122.4395073, 37.7880636 ] } },
{ "type": "Feature", "properties": { "unique_id": 264, "name": "Creative Arts Charter", "year": "2019-20", "homeless_youth": 0, "all_students": 440, "homeless_youth_perc": 0.0, "homeless_youth_bin": "nan" }, "geometry": { "type": "Point", "coordinates": [ -122.4359214, 37.7798277 ] } },
{ "type": "Feature", "properties": { "unique_id": 265, "name": "James Denman Middle", "year": "2019-20", "homeless_youth": 42, "all_students": 823, "homeless_youth_perc": 5.1, "homeless_youth_bin": "4-6" }, "geometry": { "type": "Point", "coordinates": [ -122.4433282, 37.7217249 ] } },
{ "type": "Feature", "properties": { "unique_id": 266, "name": "District Office", "year": "2019-20", "homeless_youth": 0, "all_students": 61, "homeless_youth_perc": 0.0, "homeless_youth_bin": "nan" }, "geometry": { "type": "Point", "coordinates": [ -122.4194155, 37.7749295 ] } },
{ "type": "Feature", "properties": { "unique_id": 267, "name": "Downtown High", "year": "2019-20", "homeless_youth": 38, "all_students": 152, "homeless_youth_perc": 25.0, "homeless_youth_bin": "20+" }, "geometry": { "type": "Point", "coordinates": [ -122.403887, 37.7616204 ] } },
{ "type": "Feature", "properties": { "unique_id": 268, "name": "Charles Drew College Preparatory Academy", "year": "2019-20", "homeless_youth": 6, "all_students": 155, "homeless_youth_perc": 3.9, "homeless_youth_bin": "2-4" }, "geometry": { "type": "Point", "coordinates": [ -122.4194155, 37.7749295 ] } },
{ "type": "Feature", "properties": { "unique_id": 269, "name": "El Dorado Elementary", "year": "2019-20", "homeless_youth": 5, "all_students": 157, "homeless_youth_perc": 3.2, "homeless_youth_bin": "2-4" }, "geometry": { "type": "Point", "coordinates": [ -122.4072593, 37.7185653 ] } },
{ "type": "Feature", "properties": { "unique_id": 270, "name": "Everett Middle", "year": "2019-20", "homeless_youth": 74, "all_students": 709, "homeless_youth_perc": 10.4, "homeless_youth_bin": "10-12" }, "geometry": { "type": "Point", "coordinates": [ -122.4288725, 37.7637275 ] } },
{ "type": "Feature", "properties": { "unique_id": 271, "name": "Dianne Feinstein Elementary", "year": "2019-20", "homeless_youth": 2, "all_students": 498, "homeless_youth_perc": 0.4, "homeless_youth_bin": "0-2" }, "geometry": { "type": "Point", "coordinates": [ -122.4817726, 37.7396634 ] } },
{ "type": "Feature", "properties": { "unique_id": 272, "name": "Five Keys Adult School", "year": "2019-20", "homeless_youth": 1, "all_students": 116, "homeless_youth_perc": 0.9, "homeless_youth_bin": "0-2" }, "geometry": { "type": "Point", "coordinates": [ -122.4021011, 37.7772434 ] } },
{ "type": "Feature", "properties": { "unique_id": 273, "name": "Five Keys Charter", "year": "2019-20", "homeless_youth": 0, "all_students": 345, "homeless_youth_perc": 0.0, "homeless_youth_bin": "nan" }, "geometry": { "type": "Point", "coordinates": [ -122.4021011, 37.7772434 ] } },
{ "type": "Feature", "properties": { "unique_id": 274, "name": "Five Keys Independence High", "year": "2019-20", "homeless_youth": 218, "all_students": 3738, "homeless_youth_perc": 5.8, "homeless_youth_bin": "4-6" }, "geometry": { "type": "Point", "coordinates": [ -122.4021011, 37.7772434 ] } },
{ "type": "Feature", "properties": { "unique_id": 275, "name": "Leonard R. Flynn Elementary", "year": "2019-20", "homeless_youth": 17, "all_students": 440, "homeless_youth_perc": 3.9, "homeless_youth_bin": "2-4" }, "geometry": { "type": "Point", "coordinates": [ -122.411865, 37.7477649 ] } },
{ "type": "Feature", "properties": { "unique_id": 276, "name": "Francisco Middle", "year": "2019-20", "homeless_youth": 60, "all_students": 569, "homeless_youth_perc": 10.5, "homeless_youth_bin": "10-12" }, "geometry": { "type": "Point", "coordinates": [ -122.4115531, 37.8045973 ] } },
{ "type": "Feature", "properties": { "unique_id": 277, "name": "Galileo High", "year": "2019-20", "homeless_youth": 139, "all_students": 1838, "homeless_youth_perc": 7.6, "homeless_youth_bin": "6-8" }, "geometry": { "type": "Point", "coordinates": [ -122.4240267, 37.8035481 ] } },
{ "type": "Feature", "properties": { "unique_id": 278, "name": "Garfield Elementary", "year": "2019-20", "homeless_youth": 3, "all_students": 215, "homeless_youth_perc": 1.4, "homeless_youth_bin": "0-2" }, "geometry": { "type": "Point", "coordinates": [ -122.4067833, 37.8019402 ] } },
{ "type": "Feature", "properties": { "unique_id": 279, "name": "Gateway High", "year": "2019-20", "homeless_youth": 0, "all_students": 485, "homeless_youth_perc": 0.0, "homeless_youth_bin": "nan" }, "geometry": { "type": "Point", "coordinates": [ -122.4364871, 37.7832589 ] } },
{ "type": "Feature", "properties": { "unique_id": 280, "name": "Gateway Middle", "year": "2019-20", "homeless_youth": 0, "all_students": 303, "homeless_youth_perc": 0.0, "homeless_youth_bin": "nan" }, "geometry": { "type": "Point", "coordinates": [ -122.4357961, 37.7793336 ] } },
{ "type": "Feature", "properties": { "unique_id": 281, "name": "A.P. Giannini Middle", "year": "2019-20", "homeless_youth": 8, "all_students": 1200, "homeless_youth_perc": 0.7, "homeless_youth_bin": "0-2" }, "geometry": { "type": "Point", "coordinates": [ -122.4962781, 37.7507573 ] } },
{ "type": "Feature", "properties": { "unique_id": 282, "name": "Glen Park Elementary", "year": "2019-20", "homeless_youth": 6, "all_students": 364, "homeless_youth_perc": 1.6, "homeless_youth_bin": "0-2" }, "geometry": { "type": "Point", "coordinates": [ -122.435832, 37.733137 ] } },
{ "type": "Feature", "properties": { "unique_id": 283, "name": "Grattan Elementary", "year": "2019-20", "homeless_youth": 0, "all_students": 395, "homeless_youth_perc": 0.0, "homeless_youth_bin": "nan" }, "geometry": { "type": "Point", "coordinates": [ -122.4505091, 37.7637948 ] } },
{ "type": "Feature", "properties": { "unique_id": 284, "name": "Guadalupe Elementary", "year": "2019-20", "homeless_youth": 3, "all_students": 370, "homeless_youth_perc": 0.8, "homeless_youth_bin": "0-2" }, "geometry": { "type": "Point", "coordinates": [ -122.4342829, 37.7101617 ] } },
{ "type": "Feature", "properties": { "unique_id": 285, "name": "Bret Harte Elementary", "year": "2019-20", "homeless_youth": 7, "all_students": 217, "homeless_youth_perc": 3.2, "homeless_youth_bin": "2-4" }, "geometry": { "type": "Point", "coordinates": [ -122.3918794, 37.7203479 ] } },
{ "type": "Feature", "properties": { "unique_id": 286, "name": "Hillcrest Elementary", "year": "2019-20", "homeless_youth": 75, "all_students": 415, "homeless_youth_perc": 18.1, "homeless_youth_bin": "18-20" }, "geometry": { "type": "Point", "coordinates": [ -122.4189377, 37.7287822 ] } },
{ "type": "Feature", "properties": { "unique_id": 287, "name": "Herbert Hoover Middle", "year": "2019-20", "homeless_youth": 15, "all_students": 988, "homeless_youth_perc": 1.5, "homeless_youth_bin": "0-2" }, "geometry": { "type": "Point", "coordinates": [ -122.4700022, 37.7453955 ] } },
{ "type": "Feature", "properties": { "unique_id": 288, "name": "Dolores Huerta Elementary", "year": "2019-20", "homeless_youth": 8, "all_students": 355, "homeless_youth_perc": 2.3, "homeless_youth_bin": "2-4" }, "geometry": { "type": "Point", "coordinates": [ -122.4252685, 37.7402551 ] } },
{ "type": "Feature", "properties": { "unique_id": 289, "name": "Independence High", "year": "2019-20", "homeless_youth": 6, "all_students": 158, "homeless_youth_perc": 3.8, "homeless_youth_bin": "2-4" }, "geometry": { "type": "Point", "coordinates": [ -122.4636012, 37.7631662 ] } },
{ "type": "Feature", "properties": { "unique_id": 290, "name": "Jefferson Elementary", "year": "2019-20", "homeless_youth": 4, "all_students": 509, "homeless_youth_perc": 0.8, "homeless_youth_bin": "0-2" }, "geometry": { "type": "Point", "coordinates": [ -122.4765995, 37.7630802 ] } },
{ "type": "Feature", "properties": { "unique_id": 291, "name": "June Jordan School for Equity", "year": "2019-20", "homeless_youth": 20, "all_students": 233, "homeless_youth_perc": 8.6, "homeless_youth_bin": "8-10" }, "geometry": { "type": "Point", "coordinates": [ -122.4253055, 37.7196528 ] } },
{ "type": "Feature", "properties": { "unique_id": 292, "name": "Francis Scott Key Elementary", "year": "2019-20", "homeless_youth": 1, "all_students": 550, "homeless_youth_perc": 0.2, "homeless_youth_bin": "0-2" }, "geometry": { "type": "Point", "coordinates": [ -122.5022217, 37.7581754 ] } },
{ "type": "Feature", "properties": { "unique_id": 293, "name": "Thomas Starr King Elementary", "year": "2019-20", "homeless_youth": 9, "all_students": 348, "homeless_youth_perc": 2.6, "homeless_youth_bin": "2-4" }, "geometry": { "type": "Point", "coordinates": [ -122.3988962, 37.7536155 ] } },
{ "type": "Feature", "properties": { "unique_id": 294, "name": "Martin Luther King Jr. Academic Middle", "year": "2019-20", "homeless_youth": 31, "all_students": 453, "homeless_youth_perc": 6.8, "homeless_youth_bin": "6-8" }, "geometry": { "type": "Point", "coordinates": [ -122.4056975, 37.7279034 ] } },
{ "type": "Feature", "properties": { "unique_id": 295, "name": "KIPP Bayview Academy", "year": "2019-20", "homeless_youth": 27, "all_students": 320, "homeless_youth_perc": 8.4, "homeless_youth_bin": "8-10" }, "geometry": { "type": "Point", "coordinates": [ -122.3966866, 37.7196222 ] } },
{ "type": "Feature", "properties": { "unique_id": 296, "name": "KIPP San Francisco Bay Academy", "year": "2019-20", "homeless_youth": 19, "all_students": 357, "homeless_youth_perc": 5.3, "homeless_youth_bin": "4-6" }, "geometry": { "type": "Point", "coordinates": [ -122.4375903, 37.7831653 ] } },
{ "type": "Feature", "properties": { "unique_id": 297, "name": "KIPP San Francisco College Preparatory", "year": "2019-20", "homeless_youth": 10, "all_students": 379, "homeless_youth_perc": 2.6, "homeless_youth_bin": "2-4" }, "geometry": { "type": "Point", "coordinates": [ -122.3823631, 37.7327232 ] } },
{ "type": "Feature", "properties": { "unique_id": 298, "name": "Lafayette Elementary", "year": "2019-20", "homeless_youth": 1, "all_students": 532, "homeless_youth_perc": 0.2, "homeless_youth_bin": "0-2" }, "geometry": { "type": "Point", "coordinates": [ -122.4972058, 37.777408 ] } },
{ "type": "Feature", "properties": { "unique_id": 299, "name": "Lakeshore Alternative Elementary", "year": "2019-20", "homeless_youth": 18, "all_students": 487, "homeless_youth_perc": 3.7, "homeless_youth_bin": "2-4" }, "geometry": { "type": "Point", "coordinates": [ -122.4857111, 37.730603599999988 ] } },
{ "type": "Feature", "properties": { "unique_id": 300, "name": "Gordon J. Lau Elementary", "year": "2019-20", "homeless_youth": 126, "all_students": 708, "homeless_youth_perc": 17.8, "homeless_youth_bin": "16-18" }, "geometry": { "type": "Point", "coordinates": [ -122.4088184, 37.79424 ] } },
{ "type": "Feature", "properties": { "unique_id": 301, "name": "Lawton Alternative Elementary", "year": "2019-20", "homeless_youth": 2, "all_students": 598, "homeless_youth_perc": 0.3, "homeless_youth_bin": "0-2" }, "geometry": { "type": "Point", "coordinates": [ -122.4893176, 37.7576199 ] } },
{ "type": "Feature", "properties": { "unique_id": 302, "name": "Leadership High", "year": "2019-20", "homeless_youth": 2, "all_students": 319, "homeless_youth_perc": 0.6, "homeless_youth_bin": "0-2" }, "geometry": { "type": "Point", "coordinates": [ -122.4451453, 37.7215158 ] } },
{ "type": "Feature", "properties": { "unique_id": 303, "name": "Edwin and Anita Lee Newcomer", "year": "2019-20", "homeless_youth": 0, "all_students": 46, "homeless_youth_perc": 0.0, "homeless_youth_bin": "nan" }, "geometry": { "type": "Point", "coordinates": [ -122.4040823, 37.7949069 ] } },
{ "type": "Feature", "properties": { "unique_id": 304, "name": "James Lick Middle", "year": "2019-20", "homeless_youth": 45, "all_students": 463, "homeless_youth_perc": 9.7, "homeless_youth_bin": "8-10" }, "geometry": { "type": "Point", "coordinates": [ -122.4330269, 37.7493912 ] } },
{ "type": "Feature", "properties": { "unique_id": 305, "name": "Life Learning Academy Charter", "year": "2019-20", "homeless_youth": 0, "all_students": 33, "homeless_youth_perc": 0.0, "homeless_youth_bin": "nan" }, "geometry": { "type": "Point", "coordinates": [ -122.3691138, 37.825004799999988 ] } },
{ "type": "Feature", "properties": { "unique_id": 306, "name": "Claire Lilienthal Elementary", "year": "2019-20", "homeless_youth": 1, "all_students": 699, "homeless_youth_perc": 0.1, "homeless_youth_bin": "0-2" }, "geometry": { "type": "Point", "coordinates": [ -122.4579983, 37.7871537 ] } },
{ "type": "Feature", "properties": { "unique_id": 307, "name": "Abraham Lincoln High", "year": "2019-20", "homeless_youth": 58, "all_students": 2046, "homeless_youth_perc": 2.8, "homeless_youth_bin": "2-4" }, "geometry": { "type": "Point", "coordinates": [ -122.4802098, 37.7477191 ] } },
{ "type": "Feature", "properties": { "unique_id": 308, "name": "Longfellow Elementary", "year": "2019-20", "homeless_youth": 7, "all_students": 511, "homeless_youth_perc": 1.4, "homeless_youth_bin": "0-2" }, "geometry": { "type": "Point", "coordinates": [ -122.446825, 37.710651 ] } },
{ "type": "Feature", "properties": { "unique_id": 309, "name": "Lowell High", "year": "2019-20", "homeless_youth": 52, "all_students": 2871, "homeless_youth_perc": 1.8, "homeless_youth_bin": "0-2" }, "geometry": { "type": "Point", "coordinates": [ -122.4825763, 37.7304422 ] } },
{ "type": "Feature", "properties": { "unique_id": 310, "name": "Malcolm X Academy", "year": "2019-20", "homeless_youth": 2, "all_students": 103, "homeless_youth_perc": 1.9, "homeless_youth_bin": "0-2" }, "geometry": { "type": "Point", "coordinates": [ -122.381195, 37.7340278 ] } },
{ "type": "Feature", "properties": { "unique_id": 311, "name": "Marina Middle", "year": "2019-20", "homeless_youth": 66, "all_students": 770, "homeless_youth_perc": 8.6, "homeless_youth_bin": "8-10" }, "geometry": { "type": "Point", "coordinates": [ -122.4361227, 37.8017394 ] } },
{ "type": "Feature", "properties": { "unique_id": 312, "name": "Thurgood Marshall High", "year": "2019-20", "homeless_youth": 23, "all_students": 509, "homeless_youth_perc": 4.5, "homeless_youth_bin": "4-6" }, "geometry": { "type": "Point", "coordinates": [ -122.4013348, 37.7358725 ] } },
{ "type": "Feature", "properties": { "unique_id": 313, "name": "Marshall Elementary", "year": "2019-20", "homeless_youth": 52, "all_students": 243, "homeless_youth_perc": 21.4, "homeless_youth_bin": "20+" }, "geometry": { "type": "Point", "coordinates": [ -122.4189417, 37.7664402 ] } },
{ "type": "Feature", "properties": { "unique_id": 314, "name": "Frank McCoppin Elementary", "year": "2019-20", "homeless_youth": 2, "all_students": 225, "homeless_youth_perc": 0.9, "homeless_youth_bin": "0-2" }, "geometry": { "type": "Point", "coordinates": [ -122.4643203, 37.7761741 ] } },
{ "type": "Feature", "properties": { "unique_id": 315, "name": "McKinley Elementary", "year": "2019-20", "homeless_youth": 1, "all_students": 378, "homeless_youth_perc": 0.3, "homeless_youth_bin": "0-2" }, "geometry": { "type": "Point", "coordinates": [ -122.4362404, 37.7669633 ] } },
{ "type": "Feature", "properties": { "unique_id": 316, "name": "John McLaren Children Centers", "year": "2019-20", "homeless_youth": 0, "all_students": 16, "homeless_youth_perc": 0.0, "homeless_youth_bin": "nan" }, "geometry": { "type": "Point", "coordinates": [ -122.4233348, 37.7137983 ] } },
{ "type": "Feature", "properties": { "unique_id": 317, "name": "Harvey Milk Civil Rights Elementary", "year": "2019-20", "homeless_youth": 8, "all_students": 224, "homeless_youth_perc": 3.6, "homeless_youth_bin": "2-4" }, "geometry": { "type": "Point", "coordinates": [ -122.4367222, 37.759088 ] } },
{ "type": "Feature", "properties": { "unique_id": 318, "name": "Miraloma Elementary", "year": "2019-20", "homeless_youth": 2, "all_students": 378, "homeless_youth_perc": 0.5, "homeless_youth_bin": "0-2" }, "geometry": { "type": "Point", "coordinates": [ -122.4503021, 37.7391659 ] } },
{ "type": "Feature", "properties": { "unique_id": 319, "name": "Mission Education Center", "year": "2019-20", "homeless_youth": 24, "all_students": 194, "homeless_youth_perc": 12.4, "homeless_youth_bin": "12-14" }, "geometry": { "type": "Point", "coordinates": [ -122.4313306, 37.741947 ] } },
{ "type": "Feature", "properties": { "unique_id": 320, "name": "Mission High", "year": "2019-20", "homeless_youth": 78, "all_students": 1117, "homeless_youth_perc": 7.0, "homeless_youth_bin": "6-8" }, "geometry": { "type": "Point", "coordinates": [ -122.4273151, 37.7617166 ] } },
{ "type": "Feature", "properties": { "unique_id": 321, "name": "Mission Preparatory", "year": "2019-20", "homeless_youth": 0, "all_students": 426, "homeless_youth_perc": 0.0, "homeless_youth_bin": "nan" }, "geometry": { "type": "Point", "coordinates": [ -122.4087391, 37.7554015 ] } },
{ "type": "Feature", "properties": { "unique_id": 322, "name": "Monroe Elementary", "year": "2019-20", "homeless_youth": 7, "all_students": 531, "homeless_youth_perc": 1.3, "homeless_youth_bin": "0-2" }, "geometry": { "type": "Point", "coordinates": [ -122.4304005, 37.7255673 ] } },
{ "type": "Feature", "properties": { "unique_id": 323, "name": "George R. Moscone Elementary", "year": "2019-20", "homeless_youth": 8, "all_students": 386, "homeless_youth_perc": 2.1, "homeless_youth_bin": "2-4" }, "geometry": { "type": "Point", "coordinates": [ -122.4124934, 37.7564161 ] } },
{ "type": "Feature", "properties": { "unique_id": 324, "name": "John Muir Elementary", "year": "2019-20", "homeless_youth": 33, "all_students": 239, "homeless_youth_perc": 13.8, "homeless_youth_bin": "12-14" }, "geometry": { "type": "Point", "coordinates": [ -122.4289812, 37.7739963 ] } },
{ "type": "Feature", "properties": { "unique_id": 325, "name": "New Traditions Elementary", "year": "2019-20", "homeless_youth": 2, "all_students": 254, "homeless_youth_perc": 0.8, "homeless_youth_bin": "0-2" }, "geometry": { "type": "Point", "coordinates": [ -122.4502893, 37.773893 ] } },
{ "type": "Feature", "properties": { "unique_id": 326, "name": "Noriega Children Center", "year": "2019-20", "homeless_youth": 0, "all_students": 44, "homeless_youth_perc": 0.0, "homeless_youth_bin": "nan" }, "geometry": { "type": "Point", "coordinates": [ -122.486366, 37.7538243 ] } },
{ "type": "Feature", "properties": { "unique_id": 327, "name": "John O'Connell High", "year": "2019-20", "homeless_youth": 70, "all_students": 509, "homeless_youth_perc": 13.8, "homeless_youth_bin": "12-14" }, "geometry": { "type": "Point", "coordinates": [ -122.4143252, 37.7595979 ] } },
{ "type": "Feature", "properties": { "unique_id": 328, "name": "Jose Ortega Elementary", "year": "2019-20", "homeless_youth": 3, "all_students": 398, "homeless_youth_perc": 0.8, "homeless_youth_bin": "0-2" }, "geometry": { "type": "Point", "coordinates": [ -122.4667269, 37.716555199999988 ] } },
{ "type": "Feature", "properties": { "unique_id": 329, "name": "Jean Parker Elementary", "year": "2019-20", "homeless_youth": 34, "all_students": 216, "homeless_youth_perc": 15.7, "homeless_youth_bin": "14-16" }, "geometry": { "type": "Point", "coordinates": [ -122.4111731, 37.7975746 ] } },
{ "type": "Feature", "properties": { "unique_id": 330, "name": "Rosa Parks Elementary", "year": "2019-20", "homeless_youth": 15, "all_students": 460, "homeless_youth_perc": 3.3, "homeless_youth_bin": "2-4" }, "geometry": { "type": "Point", "coordinates": [ -122.4300583, 37.7834958 ] } },
{ "type": "Feature", "properties": { "unique_id": 331, "name": "George Peabody Elementary", "year": "2019-20", "homeless_youth": 0, "all_students": 277, "homeless_youth_perc": 0.0, "homeless_youth_bin": "nan" }, "geometry": { "type": "Point", "coordinates": [ -122.465005, 37.7838576 ] } },
{ "type": "Feature", "properties": { "unique_id": 332, "name": "Presidio Early Ed.", "year": "2019-20", "homeless_youth": 0, "all_students": 22, "homeless_youth_perc": 0.0, "homeless_youth_bin": "nan" }, "geometry": { "type": "Point", "coordinates": [ -122.4608667, 37.79794 ] } },
{ "type": "Feature", "properties": { "unique_id": 333, "name": "Presidio Middle", "year": "2019-20", "homeless_youth": 12, "all_students": 1098, "homeless_youth_perc": 1.1, "homeless_youth_bin": "0-2" }, "geometry": { "type": "Point", "coordinates": [ -122.4899008, 37.7810048 ] } },
{ "type": "Feature", "properties": { "unique_id": 334, "name": "Redding Elementary", "year": "2019-20", "homeless_youth": 11, "all_students": 250, "homeless_youth_perc": 4.4, "homeless_youth_bin": "4-6" }, "geometry": { "type": "Point", "coordinates": [ -122.4193759, 37.7893862 ] } },
{ "type": "Feature", "properties": { "unique_id": 335, "name": "Paul Revere Elementary", "year": "2019-20", "homeless_youth": 32, "all_students": 469, "homeless_youth_perc": 6.8, "homeless_youth_bin": "6-8" }, "geometry": { "type": "Point", "coordinates": [ -122.4131337, 37.7373148 ] } },
{ "type": "Feature", "properties": { "unique_id": 336, "name": "Rooftop Elementary", "year": "2019-20", "homeless_youth": 6, "all_students": 586, "homeless_youth_perc": 1.0, "homeless_youth_bin": "0-2" }, "geometry": { "type": "Point", "coordinates": [ -122.4432948, 37.754813899999988 ] } },
{ "type": "Feature", "properties": { "unique_id": 337, "name": "Roosevelt Middle", "year": "2019-20", "homeless_youth": 15, "all_students": 705, "homeless_youth_perc": 2.1, "homeless_youth_bin": "2-4" }, "geometry": { "type": "Point", "coordinates": [ -122.4585383, 37.7823715 ] } },
{ "type": "Feature", "properties": { "unique_id": 338, "name": "San Francisco International High", "year": "2019-20", "homeless_youth": 11, "all_students": 333, "homeless_youth_perc": 3.3, "homeless_youth_bin": "2-4" }, "geometry": { "type": "Point", "coordinates": [ -122.4010195, 37.7619231 ] } },
{ "type": "Feature", "properties": { "unique_id": 339, "name": "San Francisco Community Alternative", "year": "2019-20", "homeless_youth": 8, "all_students": 273, "homeless_youth_perc": 2.9, "homeless_youth_bin": "2-4" }, "geometry": { "type": "Point", "coordinates": [ -122.4321939, 37.726005 ] } },
{ "type": "Feature", "properties": { "unique_id": 340, "name": "San Francisco Public Montessori", "year": "2019-20", "homeless_youth": 3, "all_students": 175, "homeless_youth_perc": 1.7, "homeless_youth_bin": "0-2" }, "geometry": { "type": "Point", "coordinates": [ -122.433439, 37.7927628 ] } },
{ "type": "Feature", "properties": { "unique_id": 341, "name": "Sanchez Elementary", "year": "2019-20", "homeless_youth": 15, "all_students": 294, "homeless_youth_perc": 5.1, "homeless_youth_bin": "4-6" }, "geometry": { "type": "Point", "coordinates": [ -122.4305366, 37.7634569 ] } },
{ "type": "Feature", "properties": { "unique_id": 342, "name": "Junipero Serra Elementary", "year": "2019-20", "homeless_youth": 4, "all_students": 289, "homeless_youth_perc": 1.4, "homeless_youth_bin": "0-2" }, "geometry": { "type": "Point", "coordinates": [ -122.4213693, 37.7369966 ] } },
{ "type": "Feature", "properties": { "unique_id": 343, "name": "Sheridan Elementary", "year": "2019-20", "homeless_youth": 6, "all_students": 222, "homeless_youth_perc": 2.7, "homeless_youth_bin": "2-4" }, "geometry": { "type": "Point", "coordinates": [ -122.4596391, 37.7145979 ] } },
{ "type": "Feature", "properties": { "unique_id": 344, "name": "Sherman Elementary", "year": "2019-20", "homeless_youth": 1, "all_students": 355, "homeless_youth_perc": 0.3, "homeless_youth_bin": "0-2" }, "geometry": { "type": "Point", "coordinates": [ -122.426188, 37.7981655 ] } },
{ "type": "Feature", "properties": { "unique_id": 345, "name": "Commodore Sloat Elementary", "year": "2019-20", "homeless_youth": 0, "all_students": 385, "homeless_youth_perc": 0.0, "homeless_youth_bin": "nan" }, "geometry": { "type": "Point", "coordinates": [ -122.47091, 37.7315894 ] } },
{ "type": "Feature", "properties": { "unique_id": 346, "name": "Spring Valley Elementary", "year": "2019-20", "homeless_youth": 8, "all_students": 292, "homeless_youth_perc": 2.7, "homeless_youth_bin": "2-4" }, "geometry": { "type": "Point", "coordinates": [ -122.4188863, 37.7942356 ] } },
{ "type": "Feature", "properties": { "unique_id": 347, "name": "Robert Louis Stevenson Elementary", "year": "2019-20", "homeless_youth": 4, "all_students": 501, "homeless_youth_perc": 0.8, "homeless_youth_bin": "0-2" }, "geometry": { "type": "Point", "coordinates": [ -122.4928488, 37.7487104 ] } },
{ "type": "Feature", "properties": { "unique_id": 348, "name": "Commodore Stockton Children Center", "year": "2019-20", "homeless_youth": 0, "all_students": 22, "homeless_youth_perc": 0.0, "homeless_youth_bin": "nan" }, "geometry": { "type": "Point", "coordinates": [ -122.4090968, 37.7950577 ] } },
{ "type": "Feature", "properties": { "unique_id": 349, "name": "Sunnyside Elementary", "year": "2019-20", "homeless_youth": 3, "all_students": 376, "homeless_youth_perc": 0.8, "homeless_youth_bin": "0-2" }, "geometry": { "type": "Point", "coordinates": [ -122.4483162, 37.7302982 ] } },
{ "type": "Feature", "properties": { "unique_id": 350, "name": "Sunset Elementary", "year": "2019-20", "homeless_youth": 0, "all_students": 402, "homeless_youth_perc": 0.0, "homeless_youth_bin": "nan" }, "geometry": { "type": "Point", "coordinates": [ -122.4995634, 37.7508971 ] } },
{ "type": "Feature", "properties": { "unique_id": 351, "name": "Sutro Elementary", "year": "2019-20", "homeless_youth": 3, "all_students": 257, "homeless_youth_perc": 1.2, "homeless_youth_bin": "0-2" }, "geometry": { "type": "Point", "coordinates": [ -122.4713209, 37.783545200000013 ] } },
{ "type": "Feature", "properties": { "unique_id": 352, "name": "Edward R. Taylor Elementary", "year": "2019-20", "homeless_youth": 12, "all_students": 651, "homeless_youth_perc": 1.8, "homeless_youth_bin": "0-2" }, "geometry": { "type": "Point", "coordinates": [ -122.4075501, 37.7277831 ] } },
{ "type": "Feature", "properties": { "unique_id": 353, "name": "Tenderloin Community", "year": "2019-20", "homeless_youth": 35, "all_students": 338, "homeless_youth_perc": 10.4, "homeless_youth_bin": "10-12" }, "geometry": { "type": "Point", "coordinates": [ -122.4197403, 37.7817847 ] } },
{ "type": "Feature", "properties": { "unique_id": 354, "name": "Thomas Edison Charter Academy", "year": "2019-20", "homeless_youth": 26, "all_students": 732, "homeless_youth_perc": 3.6, "homeless_youth_bin": "2-4" }, "geometry": { "type": "Point", "coordinates": [ -122.4263672, 37.7545904 ] } },
{ "type": "Feature", "properties": { "unique_id": 355, "name": "Tule Elk Park Children Center", "year": "2019-20", "homeless_youth": 0, "all_students": 62, "homeless_youth_perc": 0.0, "homeless_youth_bin": "nan" }, "geometry": { "type": "Point", "coordinates": [ -122.4345338, 37.7994068 ] } },
{ "type": "Feature", "properties": { "unique_id": 356, "name": "Ulloa Elementary", "year": "2019-20", "homeless_youth": 3, "all_students": 530, "homeless_youth_perc": 0.6, "homeless_youth_bin": "0-2" }, "geometry": { "type": "Point", "coordinates": [ -122.4997017, 37.737180599999988 ] } },
{ "type": "Feature", "properties": { "unique_id": 357, "name": "Visitacion Valley Elementary", "year": "2019-20", "homeless_youth": 9, "all_students": 313, "homeless_youth_perc": 2.9, "homeless_youth_bin": "2-4" }, "geometry": { "type": "Point", "coordinates": [ -122.4099161, 37.7126868 ] } },
{ "type": "Feature", "properties": { "unique_id": 358, "name": "Visitacion Valley Middle", "year": "2019-20", "homeless_youth": 16, "all_students": 423, "homeless_youth_perc": 3.8, "homeless_youth_bin": "2-4" }, "geometry": { "type": "Point", "coordinates": [ -122.4123083, 37.7157607 ] } },
{ "type": "Feature", "properties": { "unique_id": 359, "name": "Raoul Wallenberg Traditional High", "year": "2019-20", "homeless_youth": 24, "all_students": 677, "homeless_youth_perc": 3.5, "homeless_youth_bin": "2-4" }, "geometry": { "type": "Point", "coordinates": [ -122.4464031, 37.7804596 ] } },
{ "type": "Feature", "properties": { "unique_id": 360, "name": "George Washington High", "year": "2019-20", "homeless_youth": 71, "all_students": 2071, "homeless_youth_perc": 3.4, "homeless_youth_bin": "2-4" }, "geometry": { "type": "Point", "coordinates": [ -122.4910217, 37.7778717 ] } },
{ "type": "Feature", "properties": { "unique_id": 361, "name": "Daniel Webster Elementary", "year": "2019-20", "homeless_youth": 6, "all_students": 342, "homeless_youth_perc": 1.8, "homeless_youth_bin": "0-2" }, "geometry": { "type": "Point", "coordinates": [ -122.3958437, 37.7605811 ] } },
{ "type": "Feature", "properties": { "unique_id": 362, "name": "Ida B. Wells High", "year": "2019-20", "homeless_youth": 28, "all_students": 184, "homeless_youth_perc": 15.2, "homeless_youth_bin": "14-16" }, "geometry": { "type": "Point", "coordinates": [ -122.4340281, 37.7750892 ] } },
{ "type": "Feature", "properties": { "unique_id": 363, "name": "West Portal Elementary", "year": "2019-20", "homeless_youth": 2, "all_students": 593, "homeless_youth_perc": 0.3, "homeless_youth_bin": "0-2" }, "geometry": { "type": "Point", "coordinates": [ -122.4643633, 37.742882 ] } },
{ "type": "Feature", "properties": { "unique_id": 364, "name": "Yick Wo Elementary", "year": "2019-20", "homeless_youth": 4, "all_students": 240, "homeless_youth_perc": 1.7, "homeless_youth_bin": "0-2" }, "geometry": { "type": "Point", "coordinates": [ -122.4166309, 37.8019055 ] } },
{ "type": "Feature", "properties": { "unique_id": 365, "name": "Alice Fong Yu Elementary", "year": "2019-20", "homeless_youth": 0, "all_students": 590, "homeless_youth_perc": 0.0, "homeless_youth_bin": "nan" }, "geometry": { "type": "Point", "coordinates": [ -122.4695689, 37.7592077 ] } }
]
}
