{
"type": "FeatureCollection",
"name": "thanksgiving_bars_-_Sheet1_5",
"crs": { "type": "name", "properties": { "name": "urn:ogc:def:crs:OGC:1.3:CRS84" } },
"features": [
{ "type": "Feature", "properties": { "lat": 37.7508668, "long": -122.4162912, "name": "Phone Booth", "status": "open", "hours": "7 p.m. — 2 a.m.", "special": " ", "address": "1398 South Van Ness Avenue", "size": "10" }, "geometry": { "type": "Point", "coordinates": [ -122.4162912, 37.7508668 ] } },
{ "type": "Feature", "properties": { "lat": 37.7526946, "long": -122.4183324, "name": "El Farolito Bar", "status": "open", "hours": "11 a.m. — 6 p.m.", "special": " ", "address": "2777 Mission Street", "size": "10" }, "geometry": { "type": "Point", "coordinates": [ -122.4183324, 37.7526946 ] } },
{ "type": "Feature", "properties": { "lat": 37.7649242, "long": -122.4243046, "name": "Elixir", "status": "open", "hours": "6 p.m. — midnight", "special": "Potluck", "address": "3200 16th Street", "size": "10" }, "geometry": { "type": "Point", "coordinates": [ -122.4243046, 37.7649242 ] } },
{ "type": "Feature", "properties": { "lat": 37.7630214, "long": -122.4241568, "name": "500 Club", "status": "open", "hours": "12 p.m. — 2 a.m.", "special": "Potluck", "address": "500 Guerrero Street", "size": "10" }, "geometry": { "type": "Point", "coordinates": [ -122.4241568, 37.7630214 ] } },
{ "type": "Feature", "properties": { "lat": 37.7504408, "long": -122.4201368, "name": "Clooney's", "status": "open", "hours": "6 a.m. —", "special": " ", "address": "1401 Valencia Street", "size": "10" }, "geometry": { "type": "Point", "coordinates": [ -122.4201368, 37.7504408 ] } },
{ "type": "Feature", "properties": { "lat": 37.7524806, "long": -122.4166016, "name": "The Napper Tandy", "status": "open", "hours": "11 a.m. — 11 p.m.", "special": "Serving turkey dinner till 8 p.m.", "address": "3200 24th Street", "size": "10" }, "geometry": { "type": "Point", "coordinates": [ -122.4166016, 37.7524806 ] } },
{ "type": "Feature", "properties": { "lat": 37.7530434, "long": -122.4083673, "name": "Pop's Bar", "status": "open", "hours": "4 p.m. — until slow", "special": " ", "address": "2800 24th Street", "size": "10" }, "geometry": { "type": "Point", "coordinates": [ -122.4083673, 37.7530434 ] } },
{ "type": "Feature", "properties": { "lat": 37.7489951, "long": -122.4205203, "name": "Dovre Club", "status": "open", "hours": "4:30 p.m. —", "special": " ", "address": "1498 Valencia Street", "size": "10" }, "geometry": { "type": "Point", "coordinates": [ -122.4205203, 37.7489951 ] } },
{ "type": "Feature", "properties": { "lat": 37.7646657, "long": -122.4226909, "name": "Delirium", "status": "open", "hours": "2 p.m. — 1:30 a.m.", "special": "Potluck; DJ at 3:30 p.m.", "address": "3139 16th Street", "size": "10" }, "geometry": { "type": "Point", "coordinates": [ -122.4226909, 37.7646657 ] } },
{ "type": "Feature", "properties": { "lat": 37.7644499, "long": -122.4216003, "name": "Casanova", "status": "open", "hours": "8 p.m. — 2 a.m.", "special": " ", "address": "527 Valencia Street", "size": "10" }, "geometry": { "type": "Point", "coordinates": [ -122.4216003, 37.7644499 ] } },
{ "type": "Feature", "properties": { "lat": 37.7650862, "long": -122.4232667, "name": "Kilowatt", "status": "open", "hours": "5 p.m. — midnight", "special": "Free potluck; Game on projector and holiday movies.", "address": "3160 16th Street", "size": "10" }, "geometry": { "type": "Point", "coordinates": [ -122.4232667, 37.7650862 ] } },
{ "type": "Feature", "properties": { "lat": 37.7684175, "long": -122.4197355, "name": "Dahlia", "status": "open", "hours": "8 p.m. — late", "special": " ", "address": "1799 Mission Street", "size": "10" }, "geometry": { "type": "Point", "coordinates": [ -122.4197355, 37.7684175 ] } },
{ "type": "Feature", "properties": { "lat": 37.7451409, "long": -122.420005, "name": "Knockout", "status": "open", "hours": "9 p.m. —", "special": "Karaoke contest", "address": "3223 Mission Street", "size": "10" }, "geometry": { "type": "Point", "coordinates": [ -122.420005, 37.7451409 ] } },
{ "type": "Feature", "properties": { "lat": 37.762774, "long": -122.4196292, "name": "The Sycamore", "status": "open", "hours": "4 p.m. — late", "special": "Potluck; mulled wine", "address": "2140 Mission Street", "size": "10" }, "geometry": { "type": "Point", "coordinates": [ -122.4196292, 37.762774 ] } },
{ "type": "Feature", "properties": { "lat": 37.7648164, "long": -122.4213338, "name": "Mother", "status": "open", "hours": "5 p.m. — midnight", "special": "Potluck", "address": "3079 16th St, San Francisco, CA 94103", "size": "10" }, "geometry": { "type": "Point", "coordinates": [ -122.4213338, 37.7648164 ] } },
{ "type": "Feature", "properties": { "lat": 37.7554153, "long": -122.4175471, "name": "El Trebol", "status": "open", "hours": "2 p.m. — 2 a.m.", "special": "people bring stuff some years but we can't say for sure", "address": "3149 22nd Street", "size": "10" }, "geometry": { "type": "Point", "coordinates": [ -122.4175471, 37.7554153 ] } },
{ "type": "Feature", "properties": { "lat": 37.7437013, "long": -122.4247103, "name": "The Bar on Dolores", "status": "open", "hours": "6 p.m. — midnight", "special": "\"Lots of shitty movies\"", "address": "1600 Dolores Street", "size": "10" }, "geometry": { "type": "Point", "coordinates": [ -122.4247103, 37.7437013 ] } },
{ "type": "Feature", "properties": { "lat": 37.7392545, "long": -122.4167806, "name": "The Lucky Horseshoe", "status": "open", "hours": "5 p.m. —", "special": " ", "address": "453 Cortland Ave", "size": "10" }, "geometry": { "type": "Point", "coordinates": [ -122.4167806, 37.7392545 ] } },
{ "type": "Feature", "properties": { "lat": 37.7354739, "long": -122.4245037, "name": "St. Mary's Pub", "status": "open", "hours": "3 p.m. — 2 a.m.", "special": " ", "address": "3845 Mission Street", "size": "10" }, "geometry": { "type": "Point", "coordinates": [ -122.4245037, 37.7354739 ] } }
]
}
