{
"type": "FeatureCollection",
"features": [
{ "type": "Feature", "properties": { "key": "002-02", "short_desc": "Off-duty officer was punched and kicked severely by \"an individual of superior strength and size.\" The officer shot and killed the assailant with a handgun.", "fatal": "True", "address": "900 Kearny St.", "time": "15:44", "date_string": "Feb. 2, 2002" }, "geometry": { "type": "Point", "coordinates": [ -122.4050785, 37.79647651 ] } },
{ "type": "Feature", "properties": { "key": "003-02", "short_desc": "Off-duty officer died from a self-inflicted gunshot wound.", "fatal": "True", "address": "South San Francisco", "time": "13:00", "date_string": "Feb. 9, 2002" }, "geometry": { "type": "Point", "coordinates": [ -122.4177455, 37.656283 ] } },
{ "type": "Feature", "properties": { "key": "004-02", "short_desc": "Various police departments were conducting surveillance. Suspect was hit and injured in a firefight.", "fatal": "False", "address": "3201 35th Ave.", "time": "15:49", "date_string": "Feb. 27, 2002" }, "geometry": { "type": "Point", "coordinates": [ -122.2046558, 37.79167101 ] } },
{ "type": "Feature", "properties": { "key": "005-02", "short_desc": "Suspect stabbed someone and attacked officers with a knife. Officers shot and killed the suspect. They also shot and injured a bystander.", "fatal": "True", "address": "Geneva St. and Mission St.", "time": "22:00", "date_string": "Mar. 15, 2002" }, "geometry": { "type": "Point", "coordinates": [ -122.441023, 37.71647215 ] } },
{ "type": "Feature", "properties": { "key": "006-02", "short_desc": "Police officers shot a suspect as he drove toward them. The suspect drove away, injured. The suspect was later arrested and taken to hospital.", "fatal": "False", "address": "366 Alemany Blvd.", "time": "20:22", "date_string": "May 16, 2002" }, "geometry": { "type": "Point", "coordinates": [ -122.4134205, 37.73366148 ] } },
{ "type": "Feature", "properties": { "key": "007-02", "short_desc": "Suspect stabbed a police officer. Another officer shot and killed the suspect.", "fatal": "True", "address": "238 Eddy St.", "time": "21:38", "date_string": "June 14, 2002" }, "geometry": { "type": "Point", "coordinates": [ -122.4116441, 37.78418326 ] } },
{ "type": "Feature", "properties": { "key": "008-02", "short_desc": "During a traffic stop, a suspect fired and hit an officer with a handgun. The officer shot and injured the suspect.", "fatal": "False", "address": "1746 18th St.", "time": "16:30", "date_string": "July 7, 2002" }, "geometry": { "type": "Point", "coordinates": [ -122.3998837, 37.76253041 ] } },
{ "type": "Feature", "properties": { "key": "009-02A", "short_desc": "An officer died from a self-inflicted gunshot.", "fatal": "True", "address": "857 Bryant St.", "time": "12:34", "date_string": "Dec. 7, 2002" }, "geometry": { "type": "Point", "coordinates": [ -122.4035933, 37.77492526 ] } },
{ "type": "Feature", "properties": { "key": "009-02", "short_desc": "Suspect \"almost ran down\" a police officer while fleeing another police agency. The officer shot and injured the suspect.", "fatal": "False", "address": "SFO Airport", "time": "8:11", "date_string": "Aug. 9, 2002" }, "geometry": { "type": "Point", "coordinates": [ -122.3807647, 37.62179545 ] } },
{ "type": "Feature", "properties": { "key": "010-02", "short_desc": "Suspect was threatening officers and bystanders with a knife. An officer shot and killed the suspect.", "fatal": "True", "address": "2295 Market St.", "time": "22:10", "date_string": "Oct. 8, 2002" }, "geometry": { "type": "Point", "coordinates": [ -122.4324389, 37.76444493 ] } },
{ "type": "Feature", "properties": { "key": "001-03", "short_desc": "Officers tried to stop a car that had been driving recklessly. The driver pinned an officer with their car; officers then shot and killed the driver.", "fatal": "True", "address": "19th Ave. and Taraval St.", "time": "15:43", "date_string": "Feb. 19, 2003" }, "geometry": { "type": "Point", "coordinates": [ -122.4755688, 37.74304623 ] } },
{ "type": "Feature", "properties": { "key": "002-03", "short_desc": "Suspect crashed their car after a high-speed pursuit. The driver pinned an officer against a wall with their vehicle; the officer shot and killed the driver.", "fatal": "True", "address": "Montgomery St. and Pacific Ave.", "time": "22:40", "date_string": "Nov. 16, 2003" }, "geometry": { "type": "Point", "coordinates": [ -122.4036945, 37.79729297 ] } },
{ "type": "Feature", "properties": { "key": "003-03", "short_desc": "Officers responded to call about a \"mentally disturbed person.\" The suspect tried to stab officers. The officers shot and injured the suspect.", "fatal": "False", "address": "Commercial Alley", "time": "21:00", "date_string": "Nov. 18, 2003" }, "geometry": { "type": "Point", "coordinates": [ -122.4055314, 37.79393038 ] } },
{ "type": "Feature", "properties": { "key": "004-03", "short_desc": "Officer injured themselves by unintentionally firing their gun while leaving Lake Merced pistol range.", "fatal": "False", "address": "Lake Merced Pistol Range", "time": "9:30", "date_string": "Oct. 28, 2003" }, "geometry": { "type": "Point", "coordinates": [ -122.5003904, 37.71988273 ] } },
{ "type": "Feature", "properties": { "key": "001-04", "short_desc": "Police sniper covering a mayoral event was shot in the hand while passing a weapon to a colleague.", "fatal": "False", "address": "99 Grove St.", "time": "10:16", "date_string": "Aug. 1, 2004" }, "geometry": { "type": "Point", "coordinates": [ -122.4174244, 37.77847 ] } },
{ "type": "Feature", "properties": { "key": "002-04", "short_desc": "After a short chase, suspect driving a stolen vehicle attempted to run over a police officer. The officer shot and killed the driver.", "fatal": "True", "address": "King St. and Division St.", "time": "13:55", "date_string": "Mar. 30, 2004" }, "geometry": { "type": "Point", "coordinates": [ -122.4023467, 37.7698699 ] } },
{ "type": "Feature", "properties": { "key": "003-04 ", "short_desc": "A dog was attacking a child. Officers shot at the dog several times, and one round struck an officer.", "fatal": "False", "address": "1316 Brussels St.", "time": "12:41", "date_string": "Mar. 29, 2004" }, "geometry": { "type": "Point", "coordinates": [ -122.4011978, 37.71596139 ] } },
{ "type": "Feature", "properties": { "key": "004-04", "short_desc": "Officer fired on a suspect during a traffic stop. The suspect fled, injured, and was later arrested.", "fatal": "False", "address": "1018 Sunnydale Ave.", "time": "13:00", "date_string": "Apr. 27, 2004" }, "geometry": { "type": "Point", "coordinates": [ -122.4115691, 37.71118664 ] } },
{ "type": "Feature", "properties": { "key": "005-04", "short_desc": "Suspect attempted to kidnap a woman, then shot at police during a pursuit. Several officers shot and killed the suspect.", "fatal": "True", "address": "600 block of Larch St.", "time": "20:05", "date_string": "May 5, 2004" }, "geometry": { "type": "Point", "coordinates": [ -122.4209344, 37.78239256 ] } },
{ "type": "Feature", "properties": { "key": "006-04", "short_desc": "Suspect escaped during an attempted arrest. After a car pursuit, the suspect exchanged fire with officers, and was shot and killed.", "fatal": "True", "address": "Alemany Blvd. and Justin Dr.", "time": "18:20", "date_string": "June 29, 2004" }, "geometry": { "type": "Point", "coordinates": [ -122.4261756, 37.73119623 ] } },
{ "type": "Feature", "properties": { "key": "007-04", "short_desc": "A parolee pointed a gun at officers; the gun misfired. An officer shot and injured the parolee.", "fatal": "False", "address": "124 Capitol Ave.", "time": "4:12", "date_string": "June 9, 2004" }, "geometry": { "type": "Point", "coordinates": [ -122.4588643, 37.71184888 ] } },
{ "type": "Feature", "properties": { "key": "008-04", "short_desc": "Man \"matching the description\" of robbery suspect approached by officer. The suspect \"displayed a knife in a threatening manner,\" after which the officer shot and wounded him.", "fatal": "False", "address": "668 Sacramento St.", "time": "19:45", "date_string": "Oct. 14, 2004" }, "geometry": { "type": "Point", "coordinates": [ -122.4041002, 37.79378208 ] } },
{ "type": "Feature", "properties": { "key": "009-04", "short_desc": "Officer shot himself getting out of his car. He was injured.", "fatal": "False", "address": "Bayview Police Station", "time": "15:00", "date_string": "Oct. 8, 2004" }, "geometry": { "type": "Point", "coordinates": [ -122.3977667, 37.72981779 ] } },
{ "type": "Feature", "properties": { "key": "010-04", "short_desc": "Parolee attempted to flee in a car, knocking an officer to the ground. Another office shot and injured the parolee.", "fatal": "False", "address": "600 block of Haight St.", "time": "21:12", "date_string": "Nov. 22, 2004" }, "geometry": { "type": "Point", "coordinates": [ -122.432326, 37.77204328 ] } },
{ "type": "Feature", "properties": { "key": "05-004", "short_desc": "Off-duty inspector died from a self-inflicted gunshot wound at his home", "fatal": "True", "address": "Vacaville", "time": "11:00", "date_string": "June 16, 2005" }, "geometry": { "type": "Point", "coordinates": [ -121.9692104, 38.35813974 ] } },
{ "type": "Feature", "properties": { "key": "05-005", "short_desc": "Suspect fled in car when officers attempted to serve warrant. The suspect drove \"directly at\" an officer, who shot and wounded the suspect.", "fatal": "False", "address": "Surrey St.", "time": "6:06", "date_string": "Sep. 2, 2005" }, "geometry": { "type": "Point", "coordinates": [ -122.4355107, 37.73576235 ] } },
{ "type": "Feature", "properties": { "key": "05-006", "short_desc": "Officers tried to stop a vehicle, which drove off. Occupants then fled on foot, and one passenger pointed a rifle at officers. Officers fired at and injured the suspect.", "fatal": "False", "address": "Northridge Rd.", "time": "10:35", "date_string": "Sep. 9, 2005" }, "geometry": { "type": "Point", "coordinates": [ -122.3760949, 37.73095945 ] } },
{ "type": "Feature", "properties": { "key": "05-007", "short_desc": "Off-duty officer returned to his car and found a suspect inside. The suspect met the officer with \"resistance and furtive movement.\" The officer shot and wounded the suspect.", "fatal": "False", "address": "190 Julian St.", "time": "20:30", "date_string": "Nov. 22, 2005" }, "geometry": { "type": "Point", "coordinates": [ -121.8897894, 37.34229702 ] } },
{ "type": "Feature", "properties": { "key": "06-002", "short_desc": "Officers saw a firearm, leading them to pursue a vehicle. On Treasure Island, suspects in the vehicle did not surrender and drove at police. Officers shot and injured two suspects.", "fatal": "False", "address": "Treasure Island", "time": "21:30", "date_string": "Apr. 3, 2006" }, "geometry": { "type": "Point", "coordinates": [ -122.3703924, 37.8226949 ] } },
{ "type": "Feature", "properties": { "key": "06-004", "short_desc": "Officers responded to a call about squatters in Park Merced Complex. Suspect was concealing himself in an attic. The suspect made \"threats and furtive movements.\" Officers incorrectly thought he had a gun; officers shot and killed him.", "fatal": "True", "address": "Park Merced Complex", "time": "21:15", "date_string": "June 6, 2006" }, "geometry": { "type": "Point", "coordinates": [ -122.4779754, 37.71817284 ] } },
{ "type": "Feature", "properties": { "key": "06-005", "short_desc": "Two officers approached a car that had been reported stolen and was allegedly used for drug dealing. Officers drew their guns; the driver started the car and pinned an officer. Both officers shot and killed the suspect.", "fatal": "True", "address": "Capp St. between 15th St. and 16th St.", "time": "17:55", "date_string": "June 24, 2006" }, "geometry": { "type": "Point", "coordinates": [ -122.4187116, 37.76611189 ] } },
{ "type": "Feature", "properties": { "key": "06-006", "short_desc": "Officers responded to shots fired. Suspect fired upon officers; one officer shot and killed the suspect. Two murder victims were later found in a car, presumed to be killed by the suspect.", "fatal": "True", "address": "Bayview St. and Flora St.", "time": "22:10", "date_string": "Aug. 27, 2006" }, "geometry": { "type": "Point", "coordinates": [ -122.3941762, 37.73273667 ] } },
{ "type": "Feature", "properties": { "key": "06-007", "short_desc": "Officers responded to a call about a gun. Officers shot and killed a suspect holding a replica gun.", "fatal": "True", "address": "Polk St. and Pacific Ave.", "time": "2:30", "date_string": "Nov. 17, 2006" }, "geometry": { "type": "Point", "coordinates": [ -122.4215155, 37.79503177 ] } },
{ "type": "Feature", "properties": { "key": "06-008", "short_desc": "Two officers pursued a suspect wanted for robbery and weapons offences. The suspect shot and killed an officer. Officers returned fire. The suspect shot and killed himself.", "fatal": "True", "address": "1571 25th Ave.", "time": "20:18", "date_string": "Dec. 22, 2006" }, "geometry": { "type": "Point", "coordinates": [ -122.4833322, 37.75823516 ] } },
{ "type": "Feature", "properties": { "key": "07-001", "short_desc": "Restaurant manager called police to remove a \"troublesome patron.\" The suspect tried to fire a gun at officers. Officers shot and killed the suspect.", "fatal": "True", "address": "Geneva Ave. and Mission St.", "time": "21:59", "date_string": "Jan. 26, 2007" }, "geometry": { "type": "Point", "coordinates": [ -122.4410087, 37.71647657 ] } },
{ "type": "Feature", "properties": { "key": "07-002", "short_desc": "Suspect was trying to assault occupants of a parked vehicle with two kitchen knives. When officers intervened, the suspect \"rapidly approached\" them. The officers shot and killed the suspect (who was later found to have murdered someone a block away).", "fatal": "True", "address": "Townsend St. and 7th St.", "time": "4:30", "date_string": "Mar. 7, 2007" }, "geometry": { "type": "Point", "coordinates": [ -122.4017616, 37.77178578 ] } },
{ "type": "Feature", "properties": { "key": "07-003", "short_desc": "Off-duty officer unintentionally discharged his gun at his San Mateo home and died.", "fatal": "True", "address": "San Mateo", "time": "1:43", "date_string": "Aug. 11, 2007" }, "geometry": { "type": "Point", "coordinates": [ -122.3200663, 37.56699656 ] } },
{ "type": "Feature", "properties": { "key": "08-001", "short_desc": "Officers tried to take an \"aggressive panhandler\" into custody for outstanding warrants. The suspect fled then produced a knife and \"advanced on the officers.\" An officer shot and killed the suspect.", "fatal": "True", "address": "Lombard St. and Van Ness Ave.", "time": "15:03", "date_string": "Jan. 27, 2008" }, "geometry": { "type": "Point", "coordinates": [ -122.424578, 37.80134764 ] } },
{ "type": "Feature", "properties": { "key": "08-002", "short_desc": "Off-duty officer shot and injured himself while holstering his weapon during a camping trip.", "fatal": "False", "address": "Kern County", "time": "22:30", "date_string": "Mar. 8, 2008" }, "geometry": { "type": "Point", "coordinates": [ -118.7691277, 35.37581511 ] } },
{ "type": "Feature", "properties": { "key": "08-003", "short_desc": "Social worker called police to help with a \"mentally disordered\" individual. She \"confronted the officers with a knife.\" Officers shot and injured her.", "fatal": "False", "address": "1941 15th St.", "time": "11:53", "date_string": "Aug. 7, 2008" }, "geometry": { "type": "Point", "coordinates": [ -122.4277423, 37.76617232 ] } },
{ "type": "Feature", "properties": { "key": "09-001", "short_desc": "Suspect broke into a house with a pry bar. The suspect knocked an officer down the stairs. An officer shot and injured the suspect.", "fatal": "False", "address": "29 Cortland Ave.", "time": "2:32", "date_string": "Jan. 3, 2009" }, "geometry": { "type": "Point", "coordinates": [ -122.422148, 37.74086377 ] } },
{ "type": "Feature", "properties": { "key": "09-002", "short_desc": "Officers were assisting with crowd control after a shooting. A suspect was firing a gun in the area. When he pointed his pistol at officers, the officers shot and injured him.", "fatal": "False", "address": "Geneva Ave. and Mission St.", "time": "23:55", "date_string": "May 15, 2009" }, "geometry": { "type": "Point", "coordinates": [ -122.4411093, 37.71635748 ] } },
{ "type": "Feature", "properties": { "key": "09-003", "short_desc": "Officer stopped a car for expired registration. The car drove away. The officer shot at the car; the suspect fled and was not captured.", "fatal": "False", "address": "Alpha St. and Raymond Ave.", "time": "15:26", "date_string": "Aug. 25, 2009" }, "geometry": { "type": "Point", "coordinates": [ -122.4052925, 37.7125682 ] } },
{ "type": "Feature", "properties": { "key": "09-004", "short_desc": "Suspect was threatening others with a cleaver, according to his landlord. Officers used \"less-lethal\" rounds but they were ineffective. When the suspect \"attacked officers with the cleaver,\" an officer shot and killed him.", "fatal": "True", "address": "12 Raymond Ave.", "time": "4:24", "date_string": "Nov. 5, 2009" }, "geometry": { "type": "Point", "coordinates": [ -122.4035997, 37.71208845 ] } },
{ "type": "Feature", "properties": { "key": "09-005", "short_desc": "A \"mentally disturbed person\" was breaking windows with a flashlight. The subject was armed with a knife. An officer shot and injured them.", "fatal": "False", "address": "550 14th St.", "time": "19:39", "date_string": "Oct. 4, 2009" }, "geometry": { "type": "Point", "coordinates": [ -122.425422, 37.76817171 ] } },
{ "type": "Feature", "properties": { "key": "09-006", "short_desc": "Off-duty sergeant died of a self-inflicted gunshot wound.", "fatal": "True", "address": "Petaluma", "time": "13:55", "date_string": "Dec. 29, 2009" }, "geometry": { "type": "Point", "coordinates": [ -122.6209985, 38.24465018 ] } },
{ "type": "Feature", "properties": { "key": "10-001", "short_desc": "Officer was confronted by \"a suspect armed with a machete.\" The officer shot and killed the suspect.", "fatal": "True", "address": "87 Maynard St.", "time": "17:22", "date_string": "Jan. 23, 2010" }, "geometry": { "type": "Point", "coordinates": [ -122.42863, 37.72939607 ] } },
{ "type": "Feature", "properties": { "key": "10-002", "short_desc": "Officer at Mission Station accidentally shot himself in the hand while reassembling his gun.", "fatal": "False", "address": "Mission Station", "time": "13:50", "date_string": "Feb. 21, 2010" }, "geometry": { "type": "Point", "coordinates": [ -122.42193, 37.7630021 ] } },
{ "type": "Feature", "properties": { "key": "10-003", "short_desc": "Suspect fled a traffic stop, reversing into an unmarked police car. The officer shot and injured the driver.", "fatal": "False", "address": "2nd St. & Minna St.", "time": "17:00", "date_string": "Apr. 12, 2010" }, "geometry": { "type": "Point", "coordinates": [ -122.3993127, 37.78756211 ] } },
{ "type": "Feature", "properties": { "key": "10-004", "short_desc": "Occupants tried to investigate a parked vehicle. The vehicle drove at an officer; the officer shot at the driver, who fled.", "fatal": "False", "address": "Reardon Rd.", "time": "22:49", "date_string": "Apr. 21, 2010" }, "geometry": { "type": "Point", "coordinates": [ -122.3770313, 37.729526 ] } },
{ "type": "Feature", "properties": { "key": "10-005", "short_desc": "Plainclothes officers saw someone fire a pistol into a crowd of people. They gave chase and fired upon him. They missed, but the suspect was arrested.", "fatal": "False", "address": "Columbus Ave. and Grant Ave.", "time": "1:31", "date_string": "July 3, 2010" }, "geometry": { "type": "Point", "coordinates": [ -122.4071699, 37.79833247 ] } },
{ "type": "Feature", "properties": { "key": "10-006", "short_desc": "Officer pursued a car wanted in relation to a carjacking. She fired upon the suspects but missed; the suspects escaped.", "fatal": "False", "address": "700 block of Arkansas St.", "time": "5:30", "date_string": "July 24, 2010" }, "geometry": { "type": "Point", "coordinates": [ -122.3981502, 37.7571795 ] } },
{ "type": "Feature", "properties": { "key": "10-007", "short_desc": "Plainclothes officers confronted several suspects. One fired a pistol at the officers, and the officers returned fire. No-one was hit; several suspects were arrested.", "fatal": "False", "address": "Kiska Rd. and Reardon Rd.", "time": "21:43", "date_string": "Aug. 28, 2010" }, "geometry": { "type": "Point", "coordinates": [ -122.3771874, 37.72998652 ] } },
{ "type": "Feature", "properties": { "key": "10-008", "short_desc": "Off-duty officer found dead with a single self-inflicted gunshot wound at his home.", "fatal": "True", "address": "Martinez", "time": "11:36", "date_string": "Sep. 19, 2010" }, "geometry": { "type": "Point", "coordinates": [ -122.1192851, 38.0032127 ] } },
{ "type": "Feature", "properties": { "key": "10-009", "short_desc": "Officer responded to a noise-complaint. The occupant of the address \"gained possession of a firearm during the confrontation.\" The officer shot and killed the occupant.", "fatal": "True", "address": "1000 Sutter St.", "time": "11:15", "date_string": "Sep. 26, 2010" }, "geometry": { "type": "Point", "coordinates": [ -122.4170648, 37.7883442 ] } },
{ "type": "Feature", "properties": { "key": "10-010", "short_desc": "Suspect refused to leave his vehicle during a traffic stop. Narcotics were found and the suspect tried to drive away; an officer fired but there were no injuries.", "fatal": "False", "address": "3rd St. and LaSalle Ave.", "time": "20:20", "date_string": "Sep. 30, 2010" }, "geometry": { "type": "Point", "coordinates": [ -122.3898676, 37.73716901 ] } },
{ "type": "Feature", "properties": { "key": "10-011", "short_desc": "Off-duty officer died from a self-inflicted gunshot wound in Los Altos.", "fatal": "True", "address": "Los Altos", "time": "18:14", "date_string": "Oct. 6, 2010" }, "geometry": { "type": "Point", "coordinates": [ -122.099416, 37.36764112 ] } },
{ "type": "Feature", "properties": { "key": "10-013", "short_desc": "Officer began to be dragged by a car. Another officer shot at the car. There were no injuries; the suspect turned himself in several days later.", "fatal": "False", "address": "Buchanan St. and Fell St.", "time": "14:21", "date_string": "Nov. 12, 2010" }, "geometry": { "type": "Point", "coordinates": [ -122.4277427, 37.77527003 ] } },
{ "type": "Feature", "properties": { "key": "10-014", "short_desc": "Officers confronted several individuals for violating \"park regulations.\" One person \"physically attacked\" an officer; the officer shot and injured them.", "fatal": "False", "address": "Garfield Square Park", "time": "15:23", "date_string": "Dec. 10, 2010" }, "geometry": { "type": "Point", "coordinates": [ -122.4123184, 37.7501682 ] } },
{ "type": "Feature", "properties": { "key": "10-015", "short_desc": "Officers responded to a report of a stabbing. Two officers were \"confronted\" by a suspect with a knife. The officers shot and killed the suspect.", "fatal": "True", "address": "626 Bacon St.", "time": "15:40", "date_string": "Dec. 29, 2010" }, "geometry": { "type": "Point", "coordinates": [ -122.4090974, 37.72635191 ] } },
{ "type": "Feature", "properties": { "key": "11-001", "short_desc": "Officers called to arrest a \"mentally disturbed\" suspect in a wheelchair. The suspect was holding a knife. One officer was stabbed; two opened fire and injured the suspect.", "fatal": "False", "address": "1380 Howard St.", "time": "10:33", "date_string": "Jan. 4, 2011" }, "geometry": { "type": "Point", "coordinates": [ -122.4143754, 37.77445526 ] } },
{ "type": "Feature", "properties": { "key": "11-002", "short_desc": "Officers saw a suspected bank robber in a parked stolen car. The suspect \"used his vehicle as a weapon\" as he pulled out. Two officers shot at the car and killed the suspect.", "fatal": "True", "address": "65 Buena Vista East", "time": "17:23", "date_string": "June 7, 2011" }, "geometry": { "type": "Point", "coordinates": [ -122.4392364, 37.77037993 ] } },
{ "type": "Feature", "properties": { "key": "11-003", "short_desc": "Suspect fired a handgun at the officers. Two officers fired back. The suspect was struck and injured.", "fatal": "False", "address": "1155 Ellis St.", "time": "7:55", "date_string": "June 29, 2011" }, "geometry": { "type": "Point", "coordinates": [ -122.4252559, 37.78315248 ] } },
{ "type": "Feature", "properties": { "key": "11-004", "short_desc": "Suspect detained in relation to MUNI fare evasion. The suspect fled and fired upon officers during the chase. Officers returned fire and killed the suspect.", "fatal": "True", "address": "3rd St. and Oakdale St.", "time": "16:43", "date_string": "July 16, 2011" }, "geometry": { "type": "Point", "coordinates": [ -122.3907283, 37.73481282 ] } },
{ "type": "Feature", "properties": { "key": "11-005", "short_desc": "Suspect armed with a pistol fled from officers. A officer shot at the suspect and hit two bystanders. The suspect was arrested.", "fatal": "False", "address": "400 block of Broadway St.", "time": "2:00", "date_string": "Sep. 17, 2011" }, "geometry": { "type": "Point", "coordinates": [ -122.4050434, 37.79799674 ] } },
{ "type": "Feature", "properties": { "key": "11-006", "short_desc": "Two victims were stabbed. One officer shot and killed the suspect. One of the stabbing victims died.", "fatal": "True", "address": "636 Funston Ave.", "time": "7:18", "date_string": "Oct. 3, 2011" }, "geometry": { "type": "Point", "coordinates": [ -122.4713259, 37.77621878 ] } },
{ "type": "Feature", "properties": { "key": "11-007", "short_desc": "Suspect fled following a traffic stop. The suspect shot at officers, who fired back and killed the suspect.", "fatal": "True", "address": "Bush St. and Larkin St.", "time": "13:30", "date_string": "Dec. 14, 2011" }, "geometry": { "type": "Point", "coordinates": [ -122.4186437, 37.78886324 ] } },
{ "type": "Feature", "properties": { "key": "11-008", "short_desc": "Suspect drove into a carjacked vehicle into a police car. An officer shot the car, which crashed. The suspect was uninjured.", "fatal": "False", "address": "118 Jerrold Ave.", "time": "21:30", "date_string": "Dec. 16, 2011" }, "geometry": { "type": "Point", "coordinates": [ -122.3710836, 37.72852485 ] } },
{ "type": "Feature", "properties": { "key": "12-001", "short_desc": "Officers attempted to interview a suspect in connection to a homicide. The suspect barricaded himself in and fired upon officers. An officer shot and killed the suspect with a rifle.", "fatal": "True", "address": "861 Post St.", "time": "20:43", "date_string": "May 10, 2012" }, "geometry": { "type": "Point", "coordinates": [ -122.4161184, 37.78720537 ] } },
{ "type": "Feature", "properties": { "key": "12-002", "short_desc": "Officers interrupted a robbery. The suspect drew a pistol; one officer fired at the suspect and missed. The suspect surrendered.", "fatal": "False", "address": "Mission St. and Fremont St.", "time": "22:40", "date_string": "May 13, 2012" }, "geometry": { "type": "Point", "coordinates": [ -122.3966692, 37.79041126 ] } },
{ "type": "Feature", "properties": { "key": "12-003", "short_desc": "Officers were called to a stabbing. The suspect thrust a boxcutter at officers. An officer shot and killed the suspect.", "fatal": "True", "address": "Davis St. and Washington St.", "time": "10:27", "date_string": "July 19, 2012" }, "geometry": { "type": "Point", "coordinates": [ -122.398193, 37.79617215 ] } },
{ "type": "Feature", "properties": { "key": "12-004", "short_desc": "Suspect fell during a chase, then pointed a pistol at an officer. The officer shot and injured the suspect.", "fatal": "False", "address": "15 Dakota St.", "time": "18:36", "date_string": "Aug. 4, 2012" }, "geometry": { "type": "Point", "coordinates": [ -122.3961391, 37.75450563 ] } },
{ "type": "Feature", "properties": { "key": "12-005", "short_desc": "Two suspects fled after being approached by an officer. One turned to the officer \"holding an object the officer believed to be a firearm.\" The officer shot and missed; the suspect escaped.", "fatal": "False", "address": "Church St. and Valley St.", "time": "8:30", "date_string": "Aug. 27, 2012" }, "geometry": { "type": "Point", "coordinates": [ -122.4272136, 37.74436845 ] } },
{ "type": "Feature", "properties": { "key": "12-006", "short_desc": "Suspect pointed a machine-pistol at an officer; another officer shot him twice, injuring him.", "fatal": "False", "address": "257 14th St.", "time": "20:30", "date_string": "Sep. 20, 2012" }, "geometry": { "type": "Point", "coordinates": [ -122.4190396, 37.76821911 ] } },
{ "type": "Feature", "properties": { "key": "13-001", "short_desc": "Suspect drove a stolen car towards officers; a recruit fired three shots at the vehicle. There were no injuries.", "fatal": "False", "address": "300 block of Eddy St.", "time": "21:55", "date_string": "Feb. 14, 2013" }, "geometry": { "type": "Point", "coordinates": [ -122.4134421, 37.78396392 ] } },
{ "type": "Feature", "properties": { "key": "13-002", "short_desc": "Suspect drove a carjacked vehicle down a dead-end. Officers fired at the car when it attempted a three-point turn, injuring the suspect.", "fatal": "False", "address": "George Court", "time": "18:49", "date_string": "Mar. 5, 2013" }, "geometry": { "type": "Point", "coordinates": [ -122.3828493, 37.73089313 ] } },
{ "type": "Feature", "properties": { "key": "13-003", "short_desc": "A carjacked taxi drove at police officers. One officer shot at the car; the driver was not struck.", "fatal": "False", "address": "Bay St. and Octavia St.", "time": "4:35", "date_string": "Mar. 15, 2013" }, "geometry": { "type": "Point", "coordinates": [ -122.4300689, 37.80349843 ] } },
{ "type": "Feature", "properties": { "key": "13-004", "short_desc": "Off-duty officer accidentally shot himself in the leg while repairing his gun.", "fatal": "False", "address": "Dublin", "time": "14:30", "date_string": "Mar. 16, 2013" }, "geometry": { "type": "Point", "coordinates": [ -121.8902094, 37.7163035 ] } },
{ "type": "Feature", "properties": { "key": "13-005", "short_desc": "Suspect held a gun threateningly. When he turned towards officers, an officer shot and injured him. The officer also shot and injured a bystander.", "fatal": "False", "address": "17th St. and Valencia St.", "time": "2:00", "date_string": "Apr. 7, 2013" }, "geometry": { "type": "Point", "coordinates": [ -122.4217145, 37.76328358 ] } },
{ "type": "Feature", "properties": { "key": "13-006", "short_desc": "Officers were called to an assault with a machete. The suspect exited the address with a hammer above his head; an officer shot and killed him", "fatal": "True", "address": "900 block of DeHaro St.", "time": "21:45", "date_string": "Apr. 17, 2013" }, "geometry": { "type": "Point", "coordinates": [ -122.4009461, 37.75807535 ] } },
{ "type": "Feature", "properties": { "key": "13-007", "short_desc": "A male suspect shot at two men. An officer fired at the suspect and missed. The suspect ran but was apprehended.", "fatal": "False", "address": "Larkin St. and O'Farrell St.", "time": "21:10", "date_string": "July 20, 2013" }, "geometry": { "type": "Point", "coordinates": [ -122.4179114, 37.78514735 ] } },
{ "type": "Feature", "properties": { "key": "13-008", "short_desc": "Officers responded to a robbery in progress. When a suspect drew a weapon, four officers fired at and injured him.", "fatal": "False", "address": "Chestnut St. and Pierce St.", "time": "12:26", "date_string": "Oct. 27, 2013" }, "geometry": { "type": "Point", "coordinates": [ -122.4395231, 37.80036636 ] } },
{ "type": "Feature", "properties": { "key": "13-009", "short_desc": "Suspect accelerated in the direction of an officer; the officer fired one time at the driver. The shot missed. The suspect later crashed the car and was arrested.", "fatal": "False", "address": "19th St. and Taraval St.", "time": "20:50", "date_string": "Dec. 30, 2013" }, "geometry": { "type": "Point", "coordinates": [ -122.4757486, 37.74311426 ] } },
{ "type": "Feature", "properties": { "key": "14-001", "short_desc": "Off-duty officer was involved in traffic collision. The other driver assaulted the officer. The officer shot and grazed him. He was then arrested.", "fatal": "False", "address": "Jerrold Ave. and Bayshore Blvd.", "time": "0:11", "date_string": "Jan. 12, 2014" }, "geometry": { "type": "Point", "coordinates": [ -122.4035593, 37.74736621 ] } },
{ "type": "Feature", "properties": { "key": "14-002", "short_desc": "Suspect rammed stolen car past vehicles as officers tried to stop him. The suspect accelerated toward an officer. Another officer shot the car; the suspect was not hit and fled.", "fatal": "False", "address": "3rd St. and 20th St.", "time": "12:15", "date_string": "Feb. 4, 2014" }, "geometry": { "type": "Point", "coordinates": [ -122.3885154, 37.76049162 ] } },
{ "type": "Feature", "properties": { "key": "14-003", "short_desc": "Suspect steered a vehicle toward an officer. An officer fired at the suspect and missed. An officer was hit by gunfire; the suspect fled and was apprehended later.", "fatal": "False", "address": "1300 block of Florida St.", "time": "14:44", "date_string": "Mar. 8, 2014" }, "geometry": { "type": "Point", "coordinates": [ -122.4098525, 37.75108443 ] } },
{ "type": "Feature", "properties": { "key": "14-004", "short_desc": "Suspect pointed a taser at officers. The officers shot and killed him.", "fatal": "True", "address": "Bernal Heights Park", "time": "19:11", "date_string": "Mar. 21, 2014" }, "geometry": { "type": "Point", "coordinates": [ -122.4148403, 37.74319199 ] } },
{ "type": "Feature", "properties": { "key": "14-005", "short_desc": "A car rolled over in a collision. When bystanders tried to render aid, they were fired upon from inside the car. The suspect ultimately emerged and pointed a gun at officers; six officers shot and killed him.", "fatal": "True", "address": "California St. and Battery St.", "time": "6:00", "date_string": "Sep. 25, 2014" }, "geometry": { "type": "Point", "coordinates": [ -122.3999677, 37.79321415 ] } },
{ "type": "Feature", "properties": { "key": "14-006", "short_desc": "Officers observed an auto burglary and followed suspects to their car. A suspect pointed a gun at an officer (who was not in uniform); the officer shot and killed him.", "fatal": "True", "address": "448 Bryant St.", "time": "20:58", "date_string": "Oct. 7, 2014" }, "geometry": { "type": "Point", "coordinates": [ -122.3949912, 37.78240949 ] } },
{ "type": "Feature", "properties": { "key": "14-007", "short_desc": "Officers interrupted a drug deal. One suspect pointed a gun at an officer; the officer shot and wounded him.", "fatal": "False", "address": "900 Connecticut St.", "time": "19:51", "date_string": "Nov. 6, 2014" }, "geometry": { "type": "Point", "coordinates": [ -122.3978487, 37.75375725 ] } },
{ "type": "Feature", "properties": { "key": "14-008", "short_desc": "Suspect attempted to rob an off-duty officer. A struggle ensued; the officer shot and wounded the suspect.", "fatal": "False", "address": "Leavenworth St. and Pine St.", "time": "6:55", "date_string": "Dec. 3, 2014" }, "geometry": { "type": "Point", "coordinates": [ -122.4155563, 37.79022333 ] } },
{ "type": "Feature", "properties": { "key": "15-001", "short_desc": "Officers were called to a closed business' tripped alarm. Upon seeing a suspect inside, an officer shot at them and missed.", "fatal": "False", "address": "400 block of Mason St.", "time": "9:20", "date_string": "Jan. 4, 2015" }, "geometry": { "type": "Point", "coordinates": [ -122.4100276, 37.78723433 ] } },
{ "type": "Feature", "properties": { "key": "15-002", "short_desc": "Suspect broke into Mission Police Station car park. The suspect drew a fake gun from his waistband; two officers shot and killed him.", "fatal": "True", "address": "Mission Police Station", "time": "17:21", "date_string": "Jan. 4, 2015" }, "geometry": { "type": "Point", "coordinates": [ -122.4219851, 37.76300273 ] } },
{ "type": "Feature", "properties": { "key": "15-003", "short_desc": "Suspect assaulted the officer with a kitchen knife. Other officers shot and killed him.", "fatal": "True", "address": "2800 block of Folsom Street", "time": "21:47", "date_string": "Feb. 26, 2015" }, "geometry": { "type": "Point", "coordinates": [ -122.4142162, 37.75239649 ] } },
{ "type": "Feature", "properties": { "key": "15-004", "short_desc": "Driver of a stolen vehicle attempted to flee officers, ramming vehicles and driving on the wrong side of the road. Officers shot and killed her.", "fatal": "True", "address": "Van Ness Ave. and Pine St.", "time": "19:07", "date_string": "Mar. 17, 2015" }, "geometry": { "type": "Point", "coordinates": [ -122.4221327, 37.78941575 ] } },
{ "type": "Feature", "properties": { "key": "15-005", "short_desc": "Suspect fled from the scene of a hit-and-run and tried to carjack several vehicles. The suspect \"charged\" an officer; the officer shot and wounded him.", "fatal": "False", "address": "South Airport Blvd.", "time": "7:00", "date_string": "July 26, 2015" }, "geometry": { "type": "Point", "coordinates": [ -122.4033991, 37.64278737 ] } },
{ "type": "Feature", "properties": { "key": "15-007", "short_desc": "Suspect assaulted an officer, took his pistol, and pointed it at the officer. Another officer shot and killed him.", "fatal": "True", "address": "Market St. and 8th St.", "time": "12:00", "date_string": "Oct. 15, 2015" }, "geometry": { "type": "Point", "coordinates": [ -122.4147571, 37.77870349 ] } },
{ "type": "Feature", "properties": { "key": "15-008", "short_desc": "Suspect on a \"citywide rampage\" ramming cars. Officer shot at him and missed on Treasure Island. The suspect was later apprehended.", "fatal": "False", "address": "Treasure Island", "time": "8:00", "date_string": "Oct. 24, 2015" }, "geometry": { "type": "Point", "coordinates": [ -122.3694507, 37.81125262 ] } },
{ "type": "Feature", "properties": { "key": "15-009", "short_desc": "Suspect took a rifle to the sixth floor of a construction site and was allegedly \"looking for potential targets.\" Three officers shot and killed him.", "fatal": "True", "address": "3000 block of Cesar Chavez St.", "time": "16:15", "date_string": "Nov. 11, 2015" }, "geometry": { "type": "Point", "coordinates": [ -122.4097925, 37.7484809 ] } },
{ "type": "Feature", "properties": { "key": "15-010", "short_desc": "Suspect of a stabbing was surrounded by officers while holding a knife. The suspect moved towards an officer; five officers shot and killed him.", "fatal": "True", "address": "Fitzgerald Ave. and Keith St.", "time": "16:34", "date_string": "Dec. 2, 2015" }, "geometry": { "type": "Point", "coordinates": [ -122.3950372, 37.72307489 ] } },
{ "type": "Feature", "properties": { "key": "16-001", "short_desc": "Homeless Outreach Team members called police. The suspect moved towards officers with a knife; after firing \"less-lethal\" rounds, officers shot and killed him.", "fatal": "True", "address": "400 block of Shotwell St.", "time": "9:57", "date_string": "Apr. 7, 2016" }, "geometry": { "type": "Point", "coordinates": [ -122.4161633, 37.7612029 ] } },
{ "type": "Feature", "properties": { "key": "16-002", "short_desc": "Suspect in a stolen car tried to flee police, \"almost striking one of the officers, before heading toward\" another. An officer shot and killed him.", "fatal": "True", "address": "100 block of Elmira St.", "time": "9:50", "date_string": "May 19, 2016" }, "geometry": { "type": "Point", "coordinates": [ -122.4037516, 37.73527884 ] } },
{ "type": "Feature", "properties": { "key": "16-003", "short_desc": "An officer was shot. The responding officers exchanged fire with the suspect, killing him.", "fatal": "True", "address": "Vicente St. & 28th Ave.", "time": "20:06", "date_string": "Oct. 14, 2016" }, "geometry": { "type": "Point", "coordinates": [ -122.4850731, 37.73884613 ] } },
{ "type": "Feature", "properties": { "key": "17-001", "short_desc": "Suspect was approached due to a reported restraining order violation. He resisted officers and injured one. Another shot the suspect twice, injuring him.", "fatal": "False", "address": "500 block of Capitol Ave.", "time": "3:50", "date_string": "Jan. 6, 2017" }, "geometry": { "type": "Point", "coordinates": [ -122.4591836, 37.71499266 ] } },
{ "type": "Feature", "properties": { "key": "17-003", "short_desc": "Officers say they saw a suspect stabbing a restaurant employee. The suspect followed the employee, carrying a knife. An officer shot and killed the suspect.", "fatal": "True", "address": "900 block of Market St.", "time": "11:22", "date_string": "May 3, 2017" }, "geometry": { "type": "Point", "coordinates": [ -122.4085653, 37.78383751 ] } },
{ "type": "Feature", "properties": { "key": "17-005", "short_desc": "Officers shot and killed an armed suspect holding a woman and child hostage. There were no other injuries.", "fatal": "True", "address": "Salmon St.", "time": "2:57", "date_string": "Sep. 24, 2017" }, "geometry": { "type": "Point", "coordinates": [ -122.4126581, 37.79661659 ] } },
{ "type": "Feature", "properties": { "key": "17-006", "short_desc": "Two officers interrupted an auto burglary. The suspect shot at both officers; one was injured. The other officer fired back and injured the suspect.", "fatal": "False", "address": "18th St. and Diamond St.", "time": "0:21", "date_string": "Nov. 1, 2017" }, "geometry": { "type": "Point", "coordinates": [ -122.4350032, 37.76090424 ] } },
{ "type": "Feature", "properties": { "key": "17-007", "short_desc": "Recruit officer and his training officer chased a suspect regarding a carjacking. The suspect stopped and ran towards the officers' car; the recruit shot and killed the suspect.", "fatal": "True", "address": "2600 block of Griffith St.", "time": "10:30", "date_string": "Dec. 1, 2017" }, "geometry": { "type": "Point", "coordinates": [ -122.3879492, 37.71855119 ] } },
{ "type": "Feature", "properties": { "key": "17-008", "short_desc": "Off-duty officer died from a self-inflicted gunshot wound.", "fatal": "True", "address": "1001 Hilltop Mall Rd.", "time": "13:25", "date_string": "Dec. 18, 2017" }, "geometry": { "type": "Point", "coordinates": [ -122.3320825, 37.98069428 ] } },
{ "type": "Feature", "properties": { "key": "18-001", "short_desc": "Suspect wanted in connection to a homicide fired upon officers from within an RV. Seven officers returned fire. There were no injuries; the suspect was arrested.", "fatal": "False", "address": "De Haro St. and Alameda St.", "time": "0:13", "date_string": "Feb. 17, 2018" }, "geometry": { "type": "Point", "coordinates": [ -122.4020615, 37.76870537 ] } },
{ "type": "Feature", "properties": { "key": "18-002", "short_desc": "Suspect trying to flee after an armed robbery concealed himself in a car trunk. He shot at officers and ten returned fire, killing him.", "fatal": "True", "address": "21st St. and Capp St.", "time": "22:36", "date_string": "Mar. 6, 2018" }, "geometry": { "type": "Point", "coordinates": [ -122.4178632, 37.75710068 ] } },
{ "type": "Feature", "properties": { "key": "18-003", "short_desc": "Officers tried to detain a suspect in a barber shop. The suspect shot and injured an officer; officers returned fire and killed him. Four bystanders were injured.", "fatal": "True", "address": "900 block of Geneva Ave.", "time": "23:36", "date_string": "Mar. 21, 2018" }, "geometry": { "type": "Point", "coordinates": [ -122.4411203, 37.7161861 ] } },
{ "type": "Feature", "properties": { "key": "18-004", "short_desc": "Suspect fled after potential auto-burglary. The suspect got into a car and collided with vehicles; a recruit officer shot at the car twice. There were no injuries and the suspect was later arrested.", "fatal": "False", "address": "Steiner St. and Geary Blvd.", "time": "0:59", "date_string": "May 11, 2018" }, "geometry": { "type": "Point", "coordinates": [ -122.4346101, 37.78416386 ] } },
{ "type": "Feature", "properties": { "key": "18-005", "short_desc": "Suspect \"acting in a suspicious manner\" fled from officers. The suspect took out a handgun; an officer shot him twice and injured him.", "fatal": "False", "address": "Grant Ave. and Green St.", "time": "0:17", "date_string": "June 9, 2018" }, "geometry": { "type": "Point", "coordinates": [ -122.4074162, 37.79969273 ] } },
{ "type": "Feature", "properties": { "key": "19-001", "short_desc": "Off-duty officer confronted a \"subject inside the gated area of a condo complex.\" The subject tried to hit the officer with a rock; the officer shot and injured him.", "fatal": "False", "address": "El Cerrito", "time": "22:15", "date_string": "Aug. 25, 2019" }, "geometry": { "type": "Point", "coordinates": [ -122.3047241, 37.91957962 ] } },
{ "type": "Feature", "properties": { "key": "19-002", "short_desc": "Off-duty officer shot at a car after a \"traffic altercation.\" The other car left at high speed.", "fatal": "False", "address": "Berkeley", "time": "15:55", "date_string": "Sep. 13, 2019" }, "geometry": { "type": "Point", "coordinates": [ -122.2730551, 37.87152762 ] } },
{ "type": "Feature", "properties": { "key": "19-003", "short_desc": "Suspect hit an officer with a glass bottle; two officers shot and injured him.", "fatal": "False", "address": "23rd St. and Capp St.", "time": "8:34", "date_string": "Dec. 7, 2019" }, "geometry": { "type": "Point", "coordinates": [ -122.4174341, 37.75390973 ] } },
{ "type": "Feature", "properties": { "key": "20-001", "short_desc": "Off-duty officer intervened in a carjacking. The suspect attacked the officer with a knife. The officer shot and injured the suspect, who fled in a police car and was late killed by police.", "fatal": "True", "address": "South San Francisco", "time": "5:40", "date_string": "Apr. 12, 2020" }, "geometry": { "type": "Point", "coordinates": [ -122.4079017, 37.65467983 ] } },
{ "type": "Feature", "properties": { "key": "20-002", "short_desc": "Suspect found trespassing in a building was wielding a \"wooden board.\" Officers discharged their weapons among \"multiple uses of force,\" but the suspect was not struck.", "fatal": "False", "address": "500 block of Jones St.", "time": "6:36", "date_string": "Apr. 21, 2020" }, "geometry": { "type": "Point", "coordinates": [ -122.4131293, 37.78588259 ] } },
{ "type": "Feature", "properties": { "key": "20-003", "short_desc": "Suspect allegedly connected to a carjacking ran at two officers with a knife. Both officers shot and killed him.", "fatal": "True", "address": "Market St. and Gough St.", "time": "23:25", "date_string": "Oct. 10, 2020" }, "geometry": { "type": "Point", "coordinates": [ -122.4222458, 37.7730797 ] } },
{ "type": "Feature", "properties": { "key": "20-004", "short_desc": "Officers were called to break up a fight between two men. One man held a knife, and did not drop it when asked. Officers shot the suspect with \"less-lethal\" weapons and with guns; he was injured.", "fatal": "False", "address": "Market St. and 5th St.", "time": "17:09", "date_string": "Nov. 17, 2020" }, "geometry": { "type": "Point", "coordinates": [ -122.4080695, 37.78400989 ] } },
{ "type": "Feature", "properties": { "key": "21-001", "short_desc": "Plainclothes officers followed auto burglary suspects. While attempting to detain a suspect, one officer shot a suspect in the wrist.", "fatal": "False", "address": "Jack London Alley and Brannan St.", "time": "12:45", "date_string": "May 7, 2021" }, "geometry": { "type": "Point", "coordinates": [ -122.393307, 37.78102205 ] } },
{ "type": "Feature", "properties": { "key": "21-002", "short_desc": "Suspect at a residential hotel ran at officers with a knife. One officer fired \"less-lethal\" weapons and the other fired their gun. The suspect was killed.", "fatal": "True", "address": "900 block of Folsom St.", "time": "8:05", "date_string": "Nov. 19, 2021" }, "geometry": { "type": "Point", "coordinates": [ -122.4043919, 37.77979278 ] } },
{ "type": "Feature", "properties": { "key": "22-001", "short_desc": "Suspect was armed with a BB gun at SFO airport. The suspect lifted the BB gun towards officers, who shot and killed him.", "fatal": "True", "address": "SFO Airport", "time": "7:30", "date_string": "Jan. 20, 2022" }, "geometry": { "type": "Point", "coordinates": [ -122.3873074, 37.61642098 ] } },
{ "type": "Feature", "properties": { "key": "22-002", "short_desc": "Police were called to reports of a man being attacked with a knife. Suspect and victim were on the ground when officers opened fire and killed them both.", "fatal": "True", "address": "Mariposa St. and Owens St.", "time": "19:48", "date_string": "May 19, 2022" }, "geometry": { "type": "Point", "coordinates": [ -122.3928444, 37.76410085 ] } }
]
}
