{
"type": "FeatureCollection",
"features": [
{ "type": "Feature", "properties": { "address": "1 Bartlett St.", "who": "Rodrigo Santos", "total": 1, "url": "https://sfplanninggis.org/pim/?tab=Property&search=1+bartlett+st" }, "geometry": { "type": "Point", "coordinates": [ -122.4198819, 37.7567968 ] } },
{ "type": "Feature", "properties": { "address": "1 Cresta Vista Dr.", "who": "Rodrigo Santos", "total": 1, "url": "https://sfplanninggis.org/pim/?tab=Property&search=1+cresta+vista+dr" }, "geometry": { "type": "Point", "coordinates": [ -122.4593959, 37.7356944 ] } },
{ "type": "Feature", "properties": { "address": "1 Embarcadero Center", "who": "Rudy Pada<br>Cyril Yu<br>Bernie Curran<br>Rodrigo Santos", "total": 4, "url": "https://sfplanninggis.org/pim/?tab=Property&search=1+embarcadero+center" }, "geometry": { "type": "Point", "coordinates": [ -122.3995845, 37.794369499999988 ] } },
{ "type": "Feature", "properties": { "address": "1 Jones St.", "who": "Cyril Yu<br>Rodrigo Santos", "total": 2, "url": "https://sfplanninggis.org/pim/?tab=Property&search=1+jones+st" }, "geometry": { "type": "Point", "coordinates": [ -122.4124596, 37.7813691 ] } },
{ "type": "Feature", "properties": { "address": "1 Megan Dr.", "who": "Rodrigo Santos", "total": 1, "url": "https://sfplanninggis.org/pim/?tab=Property&search=1+megan+dr" }, "geometry": { "type": "Point", "coordinates": [ -122.3986593, 37.7141221 ] } },
{ "type": "Feature", "properties": { "address": "1 Mizpah St.", "who": "Rodrigo Santos", "total": 1, "url": "https://sfplanninggis.org/pim/?tab=Property&search=1+mizpah+st" }, "geometry": { "type": "Point", "coordinates": [ -122.4387284, 37.7369999 ] } },
{ "type": "Feature", "properties": { "address": "1 South Hill Blvd.", "who": "Rodrigo Santos", "total": 1, "url": "https://sfplanninggis.org/pim/?tab=Property&search=1+south+hill+blvd" }, "geometry": { "type": "Point", "coordinates": [ -122.431971, 37.7121773 ] } },
{ "type": "Feature", "properties": { "address": "1 Stanyan St.", "who": "Cyril Yu<br>Rodrigo Santos", "total": 2, "url": "https://sfplanninggis.org/pim/?tab=Property&search=1+stanyan+st" }, "geometry": { "type": "Point", "coordinates": [ -122.4564776, 37.7811931 ] } },
{ "type": "Feature", "properties": { "address": "1 Wood St.", "who": "Rodrigo Santos", "total": 1, "url": "https://sfplanninggis.org/pim/?tab=Property&search=1+wood+st" }, "geometry": { "type": "Point", "coordinates": [ -122.448309, 37.7841548 ] } },
{ "type": "Feature", "properties": { "address": "1 Zoo Rd.", "who": "Rodrigo Santos", "total": 1, "url": "https://sfplanninggis.org/pim/?tab=Property&search=1+zoo+rd" }, "geometry": { "type": "Point", "coordinates": [ -122.50324, 37.7329099 ] } },
{ "type": "Feature", "properties": { "address": "10 Abbey St.", "who": "Rodrigo Santos", "total": 1, "url": "https://sfplanninggis.org/pim/?tab=Property&search=10+abbey+st" }, "geometry": { "type": "Point", "coordinates": [ -122.4273481, 37.7636533 ] } },
{ "type": "Feature", "properties": { "address": "10 Corwin St.", "who": "Rodrigo Santos", "total": 1, "url": "https://sfplanninggis.org/pim/?tab=Property&search=10+corwin+st" }, "geometry": { "type": "Point", "coordinates": [ -122.4393941, 37.7572222 ] } },
{ "type": "Feature", "properties": { "address": "10 Guy Pl.", "who": "Rodrigo Santos", "total": 1, "url": "https://sfplanninggis.org/pim/?tab=Property&search=10+guy+pl" }, "geometry": { "type": "Point", "coordinates": [ -122.3944248, 37.786561 ] } },
{ "type": "Feature", "properties": { "address": "10 Reardon Rd.", "who": "Rodrigo Santos", "total": 1, "url": "https://sfplanninggis.org/pim/?tab=Property&search=10+reardon+rd" }, "geometry": { "type": "Point", "coordinates": [ -122.3774097, 37.7296079 ] } },
{ "type": "Feature", "properties": { "address": "10 Rousseau St.", "who": "Rodrigo Santos", "total": 1, "url": "https://sfplanninggis.org/pim/?tab=Property&search=10+rousseau+st" }, "geometry": { "type": "Point", "coordinates": [ -122.4305222, 37.7335841 ] } },
{ "type": "Feature", "properties": { "address": "10 South Van Ness Ave.", "who": "Rodrigo Santos", "total": 1, "url": "https://sfplanninggis.org/pim/?tab=Property&search=10+south+van+ness+ave" }, "geometry": { "type": "Point", "coordinates": [ -122.4195611, 37.7742162 ] } },
{ "type": "Feature", "properties": { "address": "100 Clifford Tr.", "who": "Rodrigo Santos", "total": 1, "url": "https://sfplanninggis.org/pim/?tab=Property&search=100+clifford+tr" }, "geometry": { "type": "Point", "coordinates": [ -122.4446117, 37.7642298 ] } },
{ "type": "Feature", "properties": { "address": "100 Mallorca Wy.", "who": "Rodrigo Santos", "total": 1, "url": "https://sfplanninggis.org/pim/?tab=Property&search=100+mallorca+wy" }, "geometry": { "type": "Point", "coordinates": [ -122.4373776, 37.8017376 ] } },
{ "type": "Feature", "properties": { "address": "100 Mary Teresa St.", "who": "Rodrigo Santos", "total": 1, "url": "https://sfplanninggis.org/pim/?tab=Property&search=100+mary+teresa+st" }, "geometry": { "type": "Point", "coordinates": [ -122.3983007, 37.7135121 ] } },
{ "type": "Feature", "properties": { "address": "1000 03rd St.", "who": "Cyril Yu<br>Rodrigo Santos", "total": 2, "url": "https://sfplanninggis.org/pim/?tab=Property&search=1000+03rd+st" }, "geometry": { "type": "Point", "coordinates": [ -122.390239, 37.775529 ] } },
{ "type": "Feature", "properties": { "address": "1000 16th St.", "who": "Rodrigo Santos", "total": 1, "url": "https://sfplanninggis.org/pim/?tab=Property&search=1000+16th+st" }, "geometry": { "type": "Point", "coordinates": [ -122.3970157, 37.7665918 ] } },
{ "type": "Feature", "properties": { "address": "1000 Tompkins Ave.", "who": "Rodrigo Santos", "total": 1, "url": "https://sfplanninggis.org/pim/?tab=Property&search=1000+tompkins+ave" }, "geometry": { "type": "Point", "coordinates": [ -122.410222, 37.7368013 ] } },
{ "type": "Feature", "properties": { "address": "1003 Kansas St.", "who": "Rodrigo Santos", "total": 1, "url": "https://sfplanninggis.org/pim/?tab=Property&search=1003+kansas+st" }, "geometry": { "type": "Point", "coordinates": [ -122.4025477, 37.756902200000013 ] } },
{ "type": "Feature", "properties": { "address": "101 06th St.", "who": "Rodrigo Santos", "total": 1, "url": "https://sfplanninggis.org/pim/?tab=Property&search=101+06th+st" }, "geometry": { "type": "Point", "coordinates": [ -122.4083218, 37.7809908 ] } },
{ "type": "Feature", "properties": { "address": "101 Balboa St.", "who": "Cyril Yu<br>Rodrigo Santos", "total": 2, "url": "https://sfplanninggis.org/pim/?tab=Property&search=101+balboa+st" }, "geometry": { "type": "Point", "coordinates": [ -122.4599528, 37.7773016 ] } },
{ "type": "Feature", "properties": { "address": "101 Bradford St.", "who": "Rodrigo Santos", "total": 1, "url": "https://sfplanninggis.org/pim/?tab=Property&search=101+bradford+st" }, "geometry": { "type": "Point", "coordinates": [ -122.4094028, 37.7411862 ] } },
{ "type": "Feature", "properties": { "address": "101 Howard St.", "who": "Cyril Yu<br>Rodrigo Santos", "total": 2, "url": "https://sfplanninggis.org/pim/?tab=Property&search=101+howard+st" }, "geometry": { "type": "Point", "coordinates": [ -122.3925403, 37.7909048 ] } },
{ "type": "Feature", "properties": { "address": "101 Lombard St.", "who": "Rudy Pada<br>Cyril Yu<br>Rodrigo Santos", "total": 3, "url": "https://sfplanninggis.org/pim/?tab=Property&search=101+lombard+st" }, "geometry": { "type": "Point", "coordinates": [ -122.4045338, 37.8037119 ] } },
{ "type": "Feature", "properties": { "address": "101 Sanchez St.", "who": "Cyril Yu<br>Rodrigo Santos", "total": 2, "url": "https://sfplanninggis.org/pim/?tab=Property&search=101+sanchez+st" }, "geometry": { "type": "Point", "coordinates": [ -122.4310011, 37.7675036 ] } },
{ "type": "Feature", "properties": { "address": "1011 Shotwell St.", "who": "Cyril Yu<br>Bernie Curran<br>Rodrigo Santos", "total": 3, "url": "https://sfplanninggis.org/pim/?tab=Property&search=1011+shotwell+st" }, "geometry": { "type": "Point", "coordinates": [ -122.4149043, 37.7520529 ] } },
{ "type": "Feature", "properties": { "address": "1012 Shotwell St.", "who": "Cyril Yu<br>Rodrigo Santos", "total": 2, "url": "https://sfplanninggis.org/pim/?tab=Property&search=1012+shotwell+st" }, "geometry": { "type": "Point", "coordinates": [ -122.4154684, 37.751963200000013 ] } },
{ "type": "Feature", "properties": { "address": "1014 Huron Ave.", "who": "Rodrigo Santos", "total": 1, "url": "https://sfplanninggis.org/pim/?tab=Property&search=1014+huron+ave" }, "geometry": { "type": "Point", "coordinates": [ -122.4535969, 37.7090383 ] } },
{ "type": "Feature", "properties": { "address": "1016 Church St.", "who": "Rodrigo Santos", "total": 1, "url": "https://sfplanninggis.org/pim/?tab=Property&search=1016+church+st" }, "geometry": { "type": "Point", "coordinates": [ -122.4279894, 37.754555 ] } },
{ "type": "Feature", "properties": { "address": "102 San Jose Ave.", "who": "Cyril Yu<br>Rodrigo Santos", "total": 2, "url": "https://sfplanninggis.org/pim/?tab=Property&search=102+san+jose+ave" }, "geometry": { "type": "Point", "coordinates": [ -122.421707, 37.7532848 ] } },
{ "type": "Feature", "properties": { "address": "1020 Pine St.", "who": "Rodrigo Santos", "total": 1, "url": "https://sfplanninggis.org/pim/?tab=Property&search=1020+pine+st" }, "geometry": { "type": "Point", "coordinates": [ -122.4127694, 37.7908395 ] } },
{ "type": "Feature", "properties": { "address": "1020 Union St.", "who": "Bernie Curran<br>Rodrigo Santos", "total": 2, "url": "https://sfplanninggis.org/pim/?tab=Property&search=1020+union+st" }, "geometry": { "type": "Point", "coordinates": [ -122.4162386, 37.8003107 ] } },
{ "type": "Feature", "properties": { "address": "1021 Rhode Island St.", "who": "Rodrigo Santos", "total": 1, "url": "https://sfplanninggis.org/pim/?tab=Property&search=1021+rhode+island+st" }, "geometry": { "type": "Point", "coordinates": [ -122.4014856, 37.7562603 ] } },
{ "type": "Feature", "properties": { "address": "1022 Cole St.", "who": "Rodrigo Santos", "total": 1, "url": "https://sfplanninggis.org/pim/?tab=Property&search=1022+cole+st" }, "geometry": { "type": "Point", "coordinates": [ -122.44941, 37.764548 ] } },
{ "type": "Feature", "properties": { "address": "1022 Lawton St.", "who": "Rodrigo Santos", "total": 1, "url": "https://sfplanninggis.org/pim/?tab=Property&search=1022+lawton+st" }, "geometry": { "type": "Point", "coordinates": [ -122.4742111, 37.7583067 ] } },
{ "type": "Feature", "properties": { "address": "1025 Sanchez St.", "who": "Rodrigo Santos", "total": 1, "url": "https://sfplanninggis.org/pim/?tab=Property&search=1025+sanchez+st" }, "geometry": { "type": "Point", "coordinates": [ -122.429416, 37.752691 ] } },
{ "type": "Feature", "properties": { "address": "1025 Tennessee St.", "who": "Rodrigo Santos", "total": 1, "url": "https://sfplanninggis.org/pim/?tab=Property&search=1025+tennessee+st" }, "geometry": { "type": "Point", "coordinates": [ -122.3890722, 37.7589748 ] } },
{ "type": "Feature", "properties": { "address": "1027 Church St.", "who": "Rodrigo Santos", "total": 1, "url": "https://sfplanninggis.org/pim/?tab=Property&search=1027+church+st" }, "geometry": { "type": "Point", "coordinates": [ -122.4274585, 37.7544577 ] } },
{ "type": "Feature", "properties": { "address": "1029 Natoma St.", "who": "Rodrigo Santos", "total": 1, "url": "https://sfplanninggis.org/pim/?tab=Property&search=1029+natoma+st" }, "geometry": { "type": "Point", "coordinates": [ -122.4164861, 37.7730585 ] } },
{ "type": "Feature", "properties": { "address": "1031 Santiago St.", "who": "Rodrigo Santos", "total": 1, "url": "https://sfplanninggis.org/pim/?tab=Property&search=1031+santiago+st" }, "geometry": { "type": "Point", "coordinates": [ -122.4785001, 37.7446563 ] } },
{ "type": "Feature", "properties": { "address": "1032 Pacific Ave.", "who": "Bernie Curran<br>Rodrigo Santos", "total": 2, "url": "https://sfplanninggis.org/pim/?tab=Property&search=1032+pacific+ave" }, "geometry": { "type": "Point", "coordinates": [ -122.4122399, 37.7963156 ] } },
{ "type": "Feature", "properties": { "address": "1035 Union St.", "who": "Rudy Pada<br>Rodrigo Santos", "total": 2, "url": "https://sfplanninggis.org/pim/?tab=Property&search=1035+union+st" }, "geometry": { "type": "Point", "coordinates": [ -122.416304, 37.799287199999988 ] } },
{ "type": "Feature", "properties": { "address": "1038 Pine St.", "who": "Rudy Pada<br>Rodrigo Santos", "total": 2, "url": "https://sfplanninggis.org/pim/?tab=Property&search=1038+pine+st" }, "geometry": { "type": "Point", "coordinates": [ -122.413718, 37.7905952 ] } },
{ "type": "Feature", "properties": { "address": "1040 Folsom St.", "who": "Bernie Curran<br>Rodrigo Santos", "total": 2, "url": "https://sfplanninggis.org/pim/?tab=Property&search=1040+folsom+st" }, "geometry": { "type": "Point", "coordinates": [ -122.4067073, 37.777963199999988 ] } },
{ "type": "Feature", "properties": { "address": "1042 Minna St.", "who": "Rodrigo Santos", "total": 1, "url": "https://sfplanninggis.org/pim/?tab=Property&search=1042+minna+st" }, "geometry": { "type": "Point", "coordinates": [ -122.4173378, 37.7734574 ] } },
{ "type": "Feature", "properties": { "address": "1042 Montgomery St.", "who": "Rudy Pada<br>Cyril Yu<br>Bernie Curran<br>Rodrigo Santos", "total": 4, "url": "https://sfplanninggis.org/pim/?tab=Property&search=1042+montgomery+st" }, "geometry": { "type": "Point", "coordinates": [ -122.4037991, 37.798888 ] } },
{ "type": "Feature", "properties": { "address": "1043 Portola Dr.", "who": "Rodrigo Santos", "total": 1, "url": "https://sfplanninggis.org/pim/?tab=Property&search=1043+portola+dr" }, "geometry": { "type": "Point", "coordinates": [ -122.4570242, 37.7409904 ] } },
{ "type": "Feature", "properties": { "address": "1043 Valencia St.", "who": "Rudy Pada<br>Rodrigo Santos", "total": 2, "url": "https://sfplanninggis.org/pim/?tab=Property&search=1043+valencia+st" }, "geometry": { "type": "Point", "coordinates": [ -122.4207668, 37.7562082 ] } },
{ "type": "Feature", "properties": { "address": "1044 Stockton St.", "who": "Rodrigo Santos", "total": 1, "url": "https://sfplanninggis.org/pim/?tab=Property&search=1044+stockton+st" }, "geometry": { "type": "Point", "coordinates": [ -122.4080561, 37.7955318 ] } },
{ "type": "Feature", "properties": { "address": "1045 Cabrillo St.", "who": "Cyril Yu<br>Rodrigo Santos", "total": 2, "url": "https://sfplanninggis.org/pim/?tab=Property&search=1045+cabrillo+st" }, "geometry": { "type": "Point", "coordinates": [ -122.47001, 37.7749336 ] } },
{ "type": "Feature", "properties": { "address": "1045 Lake St.", "who": "Rodrigo Santos", "total": 1, "url": "https://sfplanninggis.org/pim/?tab=Property&search=1045+lake+st" }, "geometry": { "type": "Point", "coordinates": [ -122.4709599, 37.7862267 ] } },
{ "type": "Feature", "properties": { "address": "1046 Diamond St.", "who": "Rodrigo Santos", "total": 1, "url": "https://sfplanninggis.org/pim/?tab=Property&search=1046+diamond+st" }, "geometry": { "type": "Point", "coordinates": [ -122.4363064, 37.7488693 ] } },
{ "type": "Feature", "properties": { "address": "1048 Fulton St.", "who": "Rodrigo Santos", "total": 1, "url": "https://sfplanninggis.org/pim/?tab=Property&search=1048+fulton+st" }, "geometry": { "type": "Point", "coordinates": [ -122.434093, 37.777666 ] } },
{ "type": "Feature", "properties": { "address": "1048 Union St.", "who": "Cyril Yu<br>Rodrigo Santos", "total": 2, "url": "https://sfplanninggis.org/pim/?tab=Property&search=1048+union+st" }, "geometry": { "type": "Point", "coordinates": [ -122.4167988, 37.7996491 ] } },
{ "type": "Feature", "properties": { "address": "105 Harrison St.", "who": "Rodrigo Santos", "total": 1, "url": "https://sfplanninggis.org/pim/?tab=Property&search=105+harrison+st" }, "geometry": { "type": "Point", "coordinates": [ -122.3895425, 37.7884016 ] } },
{ "type": "Feature", "properties": { "address": "1050 Valencia St.", "who": "Rodrigo Santos", "total": 1, "url": "https://sfplanninggis.org/pim/?tab=Property&search=1050+valencia+st" }, "geometry": { "type": "Point", "coordinates": [ -122.421318, 37.755944 ] } },
{ "type": "Feature", "properties": { "address": "1052 Capp St.", "who": "Rodrigo Santos", "total": 1, "url": "https://sfplanninggis.org/pim/?tab=Property&search=1052+capp+st" }, "geometry": { "type": "Point", "coordinates": [ -122.4173821, 37.7499506 ] } },
{ "type": "Feature", "properties": { "address": "1052 Chestnut St.", "who": "Rodrigo Santos", "total": 1, "url": "https://sfplanninggis.org/pim/?tab=Property&search=1052+chestnut+st" }, "geometry": { "type": "Point", "coordinates": [ -122.420797, 37.803084 ] } },
{ "type": "Feature", "properties": { "address": "1052 Rhode Island St.", "who": "Rudy Pada<br>Cyril Yu<br>Rodrigo Santos", "total": 3, "url": "https://sfplanninggis.org/pim/?tab=Property&search=1052+rhode+island+st" }, "geometry": { "type": "Point", "coordinates": [ -122.4020056, 37.7564637 ] } },
{ "type": "Feature", "properties": { "address": "1056 Sanchez St.", "who": "Rudy Pada<br>Rodrigo Santos", "total": 2, "url": "https://sfplanninggis.org/pim/?tab=Property&search=1056+sanchez+st" }, "geometry": { "type": "Point", "coordinates": [ -122.430028, 37.752131 ] } },
{ "type": "Feature", "properties": { "address": "1057 Florida St.", "who": "Cyril Yu<br>Rodrigo Santos", "total": 2, "url": "https://sfplanninggis.org/pim/?tab=Property&search=1057+florida+st" }, "geometry": { "type": "Point", "coordinates": [ -122.4100942, 37.7550706 ] } },
{ "type": "Feature", "properties": { "address": "1057 Mississippi St.", "who": "Rudy Pada<br>Rodrigo Santos", "total": 2, "url": "https://sfplanninggis.org/pim/?tab=Property&search=1057+mississippi+st" }, "geometry": { "type": "Point", "coordinates": [ -122.393363, 37.753057 ] } },
{ "type": "Feature", "properties": { "address": "106 06th St.", "who": "Rodrigo Santos", "total": 1, "url": "https://sfplanninggis.org/pim/?tab=Property&search=106+06th+st" }, "geometry": { "type": "Point", "coordinates": [ -122.4086964, 37.7806377 ] } },
{ "type": "Feature", "properties": { "address": "106 19th Ave.", "who": "Rodrigo Santos", "total": 1, "url": "https://sfplanninggis.org/pim/?tab=Property&search=106+19th+ave" }, "geometry": { "type": "Point", "coordinates": [ -122.4785865, 37.7857328 ] } },
{ "type": "Feature", "properties": { "address": "106 Chattanooga St.", "who": "Rodrigo Santos", "total": 1, "url": "https://sfplanninggis.org/pim/?tab=Property&search=106+chattanooga+st" }, "geometry": { "type": "Point", "coordinates": [ -122.4268502, 37.7546913 ] } },
{ "type": "Feature", "properties": { "address": "106 Jordan Ave.", "who": "Rodrigo Santos", "total": 1, "url": "https://sfplanninggis.org/pim/?tab=Property&search=106+jordan+ave" }, "geometry": { "type": "Point", "coordinates": [ -122.456521, 37.7836655 ] } },
{ "type": "Feature", "properties": { "address": "106 Mallorca Wy.", "who": "Rodrigo Santos", "total": 1, "url": "https://sfplanninggis.org/pim/?tab=Property&search=106+mallorca+wy" }, "geometry": { "type": "Point", "coordinates": [ -122.4374204, 37.8018259 ] } },
{ "type": "Feature", "properties": { "address": "1060 Gilman Ave.", "who": "Rudy Pada<br>Rodrigo Santos", "total": 2, "url": "https://sfplanninggis.org/pim/?tab=Property&search=1060+gilman+ave" }, "geometry": { "type": "Point", "coordinates": [ -122.3891828, 37.7191012 ] } },
{ "type": "Feature", "properties": { "address": "1062 Folsom St.", "who": "Rodrigo Santos", "total": 1, "url": "https://sfplanninggis.org/pim/?tab=Property&search=1062+folsom+st" }, "geometry": { "type": "Point", "coordinates": [ -122.4072825, 37.7775258 ] } },
{ "type": "Feature", "properties": { "address": "1065 Montgomery St.", "who": "Rodrigo Santos", "total": 1, "url": "https://sfplanninggis.org/pim/?tab=Property&search=1065+montgomery+st" }, "geometry": { "type": "Point", "coordinates": [ -122.4042735, 37.7990339 ] } },
{ "type": "Feature", "properties": { "address": "1065 Munich St.", "who": "Cyril Yu<br>Rodrigo Santos", "total": 2, "url": "https://sfplanninggis.org/pim/?tab=Property&search=1065+munich+st" }, "geometry": { "type": "Point", "coordinates": [ -122.4344191, 37.7110166 ] } },
{ "type": "Feature", "properties": { "address": "1066 Market St.", "who": "Cyril Yu<br>Rodrigo Santos", "total": 2, "url": "https://sfplanninggis.org/pim/?tab=Property&search=1066+market+st" }, "geometry": { "type": "Point", "coordinates": [ -122.4115304, 37.7815803 ] } },
{ "type": "Feature", "properties": { "address": "1068 Gilman Ave.", "who": "Cyril Yu<br>Rodrigo Santos", "total": 2, "url": "https://sfplanninggis.org/pim/?tab=Property&search=1068+gilman+ave" }, "geometry": { "type": "Point", "coordinates": [ -122.3893156, 37.7191723 ] } },
{ "type": "Feature", "properties": { "address": "1069 Capp St.", "who": "Cyril Yu<br>Rodrigo Santos", "total": 2, "url": "https://sfplanninggis.org/pim/?tab=Property&search=1069+capp+st" }, "geometry": { "type": "Point", "coordinates": [ -122.4169285, 37.749615299999988 ] } },
{ "type": "Feature", "properties": { "address": "107 Marietta Dr.", "who": "Rodrigo Santos", "total": 1, "url": "https://sfplanninggis.org/pim/?tab=Property&search=107+marietta+dr" }, "geometry": { "type": "Point", "coordinates": [ -122.4481172, 37.741065 ] } },
{ "type": "Feature", "properties": { "address": "1070 Capp St.", "who": "Rodrigo Santos", "total": 1, "url": "https://sfplanninggis.org/pim/?tab=Property&search=1070+capp+st" }, "geometry": { "type": "Point", "coordinates": [ -122.417371, 37.7496655 ] } },
{ "type": "Feature", "properties": { "address": "1070 Sanchez St.", "who": "Rodrigo Santos", "total": 1, "url": "https://sfplanninggis.org/pim/?tab=Property&search=1070+sanchez+st" }, "geometry": { "type": "Point", "coordinates": [ -122.4299364, 37.752086899999988 ] } },
{ "type": "Feature", "properties": { "address": "1071 Alabama St.", "who": "Bernie Curran<br>Rodrigo Santos", "total": 2, "url": "https://sfplanninggis.org/pim/?tab=Property&search=1071+alabama+st" }, "geometry": { "type": "Point", "coordinates": [ -122.4109663, 37.75479 ] } },
{ "type": "Feature", "properties": { "address": "1071 Mississippi St.", "who": "Rodrigo Santos", "total": 1, "url": "https://sfplanninggis.org/pim/?tab=Property&search=1071+mississippi+st" }, "geometry": { "type": "Point", "coordinates": [ -122.393355, 37.752979 ] } },
{ "type": "Feature", "properties": { "address": "1071 Treat Ave.", "who": "Rodrigo Santos", "total": 1, "url": "https://sfplanninggis.org/pim/?tab=Property&search=1071+treat+ave" }, "geometry": { "type": "Point", "coordinates": [ -122.4127251, 37.7530299 ] } },
{ "type": "Feature", "properties": { "address": "1075 Sutter St.", "who": "Rodrigo Santos", "total": 1, "url": "https://sfplanninggis.org/pim/?tab=Property&search=1075+sutter+st" }, "geometry": { "type": "Point", "coordinates": [ -122.4180126, 37.7878316 ] } },
{ "type": "Feature", "properties": { "address": "1076 Florida St.", "who": "Rodrigo Santos", "total": 1, "url": "https://sfplanninggis.org/pim/?tab=Property&search=1076+florida+st" }, "geometry": { "type": "Point", "coordinates": [ -122.4104242, 37.7547425 ] } },
{ "type": "Feature", "properties": { "address": "1077 Mississippi St.", "who": "Rudy Pada<br>Rodrigo Santos", "total": 2, "url": "https://sfplanninggis.org/pim/?tab=Property&search=1077+mississippi+st" }, "geometry": { "type": "Point", "coordinates": [ -122.393355, 37.752979 ] } },
{ "type": "Feature", "properties": { "address": "1077 Treat Ave.", "who": "Rodrigo Santos", "total": 1, "url": "https://sfplanninggis.org/pim/?tab=Property&search=1077+treat+ave" }, "geometry": { "type": "Point", "coordinates": [ -122.4128724, 37.7529981 ] } },
{ "type": "Feature", "properties": { "address": "1078 Florida St.", "who": "Rodrigo Santos", "total": 1, "url": "https://sfplanninggis.org/pim/?tab=Property&search=1078+florida+st" }, "geometry": { "type": "Point", "coordinates": [ -122.4104049, 37.7547707 ] } },
{ "type": "Feature", "properties": { "address": "1078 Noe St.", "who": "Rodrigo Santos", "total": 1, "url": "https://sfplanninggis.org/pim/?tab=Property&search=1078+noe+st" }, "geometry": { "type": "Point", "coordinates": [ -122.4320848, 37.7517626 ] } },
{ "type": "Feature", "properties": { "address": "108 Mary Teresa St.", "who": "Rodrigo Santos", "total": 1, "url": "https://sfplanninggis.org/pim/?tab=Property&search=108+mary+teresa+st" }, "geometry": { "type": "Point", "coordinates": [ -122.3983854, 37.7136204 ] } },
{ "type": "Feature", "properties": { "address": "1080 Folsom St.", "who": "Rodrigo Santos", "total": 1, "url": "https://sfplanninggis.org/pim/?tab=Property&search=1080+folsom+st" }, "geometry": { "type": "Point", "coordinates": [ -122.4076208, 37.7771791 ] } },
{ "type": "Feature", "properties": { "address": "1080 Shotwell St.", "who": "Cyril Yu<br>Rodrigo Santos", "total": 2, "url": "https://sfplanninggis.org/pim/?tab=Property&search=1080+shotwell+st" }, "geometry": { "type": "Point", "coordinates": [ -122.4153357, 37.7512221 ] } },
{ "type": "Feature", "properties": { "address": "1080 South Van Ness Ave.", "who": "Rudy Pada<br>Rodrigo Santos", "total": 2, "url": "https://sfplanninggis.org/pim/?tab=Property&search=1080+south+van+ness+ave" }, "geometry": { "type": "Point", "coordinates": [ -122.416894, 37.755867 ] } },
{ "type": "Feature", "properties": { "address": "1081 Capp St.", "who": "Rodrigo Santos", "total": 1, "url": "https://sfplanninggis.org/pim/?tab=Property&search=1081+capp+st" }, "geometry": { "type": "Point", "coordinates": [ -122.4168843, 37.7495172 ] } },
{ "type": "Feature", "properties": { "address": "1082 Pine St.", "who": "Rodrigo Santos", "total": 1, "url": "https://sfplanninggis.org/pim/?tab=Property&search=1082+pine+st" }, "geometry": { "type": "Point", "coordinates": [ -122.4136543, 37.7906791 ] } },
{ "type": "Feature", "properties": { "address": "109 Buchanan St.", "who": "Rudy Pada<br>Rodrigo Santos", "total": 2, "url": "https://sfplanninggis.org/pim/?tab=Property&search=109+buchanan+st" }, "geometry": { "type": "Point", "coordinates": [ -122.4270711, 37.770855 ] } },
{ "type": "Feature", "properties": { "address": "109 Hoffman Ave.", "who": "Rodrigo Santos", "total": 1, "url": "https://sfplanninggis.org/pim/?tab=Property&search=109+hoffman+ave" }, "geometry": { "type": "Point", "coordinates": [ -122.4405863, 37.752979 ] } },
{ "type": "Feature", "properties": { "address": "1096 South Van Ness Ave.", "who": "Rodrigo Santos", "total": 1, "url": "https://sfplanninggis.org/pim/?tab=Property&search=1096+south+van+ness+ave" }, "geometry": { "type": "Point", "coordinates": [ -122.4168622, 37.7557238 ] } },
{ "type": "Feature", "properties": { "address": "11 College Tr.", "who": "Rodrigo Santos", "total": 1, "url": "https://sfplanninggis.org/pim/?tab=Property&search=11+college+tr" }, "geometry": { "type": "Point", "coordinates": [ -122.4761631, 37.7241222 ] } },
{ "type": "Feature", "properties": { "address": "11 Cook St.", "who": "Rodrigo Santos", "total": 1, "url": "https://sfplanninggis.org/pim/?tab=Property&search=11+cook+st" }, "geometry": { "type": "Point", "coordinates": [ -122.452673, 37.7834737 ] } },
{ "type": "Feature", "properties": { "address": "110 Channel", "who": "Rodrigo Santos", "total": 1, "url": "https://sfplanninggis.org/pim/?tab=Property&search=110+channel" }, "geometry": { "type": "Point", "coordinates": [ -122.3911589, 37.774613 ] } },
{ "type": "Feature", "properties": { "address": "110 Clarendon Ave.", "who": "Rodrigo Santos", "total": 1, "url": "https://sfplanninggis.org/pim/?tab=Property&search=110+clarendon+ave" }, "geometry": { "type": "Point", "coordinates": [ -122.4516999, 37.7587258 ] } },
{ "type": "Feature", "properties": { "address": "110 Monterey Blvd.", "who": "Rodrigo Santos", "total": 1, "url": "https://sfplanninggis.org/pim/?tab=Property&search=110+monterey+blvd" }, "geometry": { "type": "Point", "coordinates": [ -122.4378105, 37.7318732 ] } },
{ "type": "Feature", "properties": { "address": "110 Ripley St.", "who": "Cyril Yu<br>Rodrigo Santos", "total": 2, "url": "https://sfplanninggis.org/pim/?tab=Property&search=110+ripley+st" }, "geometry": { "type": "Point", "coordinates": [ -122.412804, 37.7440302 ] } },
{ "type": "Feature", "properties": { "address": "1100 Leavenworth St.", "who": "Bernie Curran<br>Rodrigo Santos", "total": 2, "url": "https://sfplanninggis.org/pim/?tab=Property&search=1100+leavenworth+st" }, "geometry": { "type": "Point", "coordinates": [ -122.4156931, 37.7914729 ] } },
{ "type": "Feature", "properties": { "address": "1100 Lombard St.", "who": "Rodrigo Santos", "total": 1, "url": "https://sfplanninggis.org/pim/?tab=Property&search=1100+lombard+st" }, "geometry": { "type": "Point", "coordinates": [ -122.4198708, 37.8021457 ] } },
{ "type": "Feature", "properties": { "address": "1101 Dolores St.", "who": "Rodrigo Santos", "total": 1, "url": "https://sfplanninggis.org/pim/?tab=Property&search=1101+dolores+st" }, "geometry": { "type": "Point", "coordinates": [ -122.4249105, 37.7516689 ] } },
{ "type": "Feature", "properties": { "address": "1106 Fell St.", "who": "Rodrigo Santos", "total": 1, "url": "https://sfplanninggis.org/pim/?tab=Property&search=1106+fell+st" }, "geometry": { "type": "Point", "coordinates": [ -122.4362353, 37.7744326 ] } },
{ "type": "Feature", "properties": { "address": "1107 Mason St.", "who": "Cyril Yu<br>Rodrigo Santos", "total": 2, "url": "https://sfplanninggis.org/pim/?tab=Property&search=1107+mason+st" }, "geometry": { "type": "Point", "coordinates": [ -122.4114419, 37.7937784 ] } },
{ "type": "Feature", "properties": { "address": "1108 Diamond St.", "who": "Rodrigo Santos", "total": 1, "url": "https://sfplanninggis.org/pim/?tab=Property&search=1108+diamond+st" }, "geometry": { "type": "Point", "coordinates": [ -122.4362953, 37.7485655 ] } },
{ "type": "Feature", "properties": { "address": "1108 Powhattan Ave.", "who": "Cyril Yu<br>Rodrigo Santos", "total": 2, "url": "https://sfplanninggis.org/pim/?tab=Property&search=1108+powhattan+ave" }, "geometry": { "type": "Point", "coordinates": [ -122.4090968, 37.7411852 ] } },
{ "type": "Feature", "properties": { "address": "1109 Elm St.", "who": "Rudy Pada<br>Rodrigo Santos", "total": 2, "url": "https://sfplanninggis.org/pim/?tab=Property&search=1109+elm+st" }, "geometry": { "type": "Point", "coordinates": [ -122.4320118, 37.7809178 ] } },
{ "type": "Feature", "properties": { "address": "1109 Greenwich St.", "who": "Rodrigo Santos", "total": 1, "url": "https://sfplanninggis.org/pim/?tab=Property&search=1109+greenwich+st" }, "geometry": { "type": "Point", "coordinates": [ -122.4184211, 37.801032 ] } },
{ "type": "Feature", "properties": { "address": "111 Ripley St.", "who": "Rodrigo Santos", "total": 1, "url": "https://sfplanninggis.org/pim/?tab=Property&search=111+ripley+st" }, "geometry": { "type": "Point", "coordinates": [ -122.4128134, 37.7443633 ] } },
{ "type": "Feature", "properties": { "address": "111 Williams Ave.", "who": "Rudy Pada<br>Cyril Yu<br>Rodrigo Santos", "total": 3, "url": "https://sfplanninggis.org/pim/?tab=Property&search=111+williams+ave" }, "geometry": { "type": "Point", "coordinates": [ -122.3956374, 37.7294278 ] } },
{ "type": "Feature", "properties": { "address": "1112 18th St.", "who": "Rodrigo Santos", "total": 1, "url": "https://sfplanninggis.org/pim/?tab=Property&search=1112+18th+st" }, "geometry": { "type": "Point", "coordinates": [ -122.3939917, 37.762887 ] } },
{ "type": "Feature", "properties": { "address": "1112 Lombard St.", "who": "Cyril Yu<br>Rodrigo Santos", "total": 2, "url": "https://sfplanninggis.org/pim/?tab=Property&search=1112+lombard+st" }, "geometry": { "type": "Point", "coordinates": [ -122.4202469, 37.8022347 ] } },
{ "type": "Feature", "properties": { "address": "1116 Mason St.", "who": "Rodrigo Santos", "total": 1, "url": "https://sfplanninggis.org/pim/?tab=Property&search=1116+mason+st" }, "geometry": { "type": "Point", "coordinates": [ -122.4111369, 37.7938968 ] } },
{ "type": "Feature", "properties": { "address": "1116 Stockton St.", "who": "Rodrigo Santos", "total": 1, "url": "https://sfplanninggis.org/pim/?tab=Property&search=1116+stockton+st" }, "geometry": { "type": "Point", "coordinates": [ -122.4082072, 37.7961539 ] } },
{ "type": "Feature", "properties": { "address": "112 27th St.", "who": "Cyril Yu<br>Rodrigo Santos", "total": 2, "url": "https://sfplanninggis.org/pim/?tab=Property&search=112+27th+st" }, "geometry": { "type": "Point", "coordinates": [ -122.4229479, 37.74724 ] } },
{ "type": "Feature", "properties": { "address": "112 Jordan Ave.", "who": "Rodrigo Santos", "total": 1, "url": "https://sfplanninggis.org/pim/?tab=Property&search=112+jordan+ave" }, "geometry": { "type": "Point", "coordinates": [ -122.456521, 37.7835167 ] } },
{ "type": "Feature", "properties": { "address": "112 Russ St.", "who": "Rudy Pada<br>Rodrigo Santos", "total": 2, "url": "https://sfplanninggis.org/pim/?tab=Property&search=112+russ+st" }, "geometry": { "type": "Point", "coordinates": [ -122.408114, 37.778444 ] } },
{ "type": "Feature", "properties": { "address": "1123 Powell St.", "who": "Rodrigo Santos", "total": 1, "url": "https://sfplanninggis.org/pim/?tab=Property&search=1123+powell+st" }, "geometry": { "type": "Point", "coordinates": [ -122.4100702, 37.7950561 ] } },
{ "type": "Feature", "properties": { "address": "1124 Lake St.", "who": "Rodrigo Santos", "total": 1, "url": "https://sfplanninggis.org/pim/?tab=Property&search=1124+lake+st" }, "geometry": { "type": "Point", "coordinates": [ -122.4716462, 37.7865964 ] } },
{ "type": "Feature", "properties": { "address": "1127 Clement St.", "who": "Rudy Pada<br>Rodrigo Santos", "total": 2, "url": "https://sfplanninggis.org/pim/?tab=Property&search=1127+clement+st" }, "geometry": { "type": "Point", "coordinates": [ -122.4713399, 37.7825267 ] } },
{ "type": "Feature", "properties": { "address": "113 Bartlett St.", "who": "Cyril Yu<br>Rodrigo Santos", "total": 2, "url": "https://sfplanninggis.org/pim/?tab=Property&search=113+bartlett+st" }, "geometry": { "type": "Point", "coordinates": [ -122.4195501, 37.754944 ] } },
{ "type": "Feature", "properties": { "address": "113 Lundys Ln.", "who": "Rodrigo Santos", "total": 1, "url": "https://sfplanninggis.org/pim/?tab=Property&search=113+lundys+ln" }, "geometry": { "type": "Point", "coordinates": [ -122.4190191, 37.7434519 ] } },
{ "type": "Feature", "properties": { "address": "1130 Fell St.", "who": "Rodrigo Santos", "total": 1, "url": "https://sfplanninggis.org/pim/?tab=Property&search=1130+fell+st" }, "geometry": { "type": "Point", "coordinates": [ -122.4365879, 37.7744754 ] } },
{ "type": "Feature", "properties": { "address": "1131 Mission St.", "who": "Rodrigo Santos", "total": 1, "url": "https://sfplanninggis.org/pim/?tab=Property&search=1131+mission+st" }, "geometry": { "type": "Point", "coordinates": [ -122.4113534, 37.778359 ] } },
{ "type": "Feature", "properties": { "address": "1133 Mariposa St.", "who": "Rodrigo Santos", "total": 1, "url": "https://sfplanninggis.org/pim/?tab=Property&search=1133+mariposa+st" }, "geometry": { "type": "Point", "coordinates": [ -122.3953565, 37.7637475 ] } },
{ "type": "Feature", "properties": { "address": "1133 Market St.", "who": "Rodrigo Santos", "total": 1, "url": "https://sfplanninggis.org/pim/?tab=Property&search=1133+market+st" }, "geometry": { "type": "Point", "coordinates": [ -122.412919, 37.7795208 ] } },
{ "type": "Feature", "properties": { "address": "1133 Tennessee St.", "who": "Rodrigo Santos", "total": 1, "url": "https://sfplanninggis.org/pim/?tab=Property&search=1133+tennessee+st" }, "geometry": { "type": "Point", "coordinates": [ -122.3889283, 37.7572407 ] } },
{ "type": "Feature", "properties": { "address": "1134 Hyde St.", "who": "Rodrigo Santos", "total": 1, "url": "https://sfplanninggis.org/pim/?tab=Property&search=1134+hyde+st" }, "geometry": { "type": "Point", "coordinates": [ -122.4171883, 37.7915719 ] } },
{ "type": "Feature", "properties": { "address": "1136 Hampshire St.", "who": "Rodrigo Santos", "total": 1, "url": "https://sfplanninggis.org/pim/?tab=Property&search=1136+hampshire+st" }, "geometry": { "type": "Point", "coordinates": [ -122.4076808, 37.7538727 ] } },
{ "type": "Feature", "properties": { "address": "1138 Page St.", "who": "Rodrigo Santos", "total": 1, "url": "https://sfplanninggis.org/pim/?tab=Property&search=1138+page+st" }, "geometry": { "type": "Point", "coordinates": [ -122.439648, 37.7721467 ] } },
{ "type": "Feature", "properties": { "address": "1139 Market St.", "who": "Cyril Yu<br>Rodrigo Santos", "total": 2, "url": "https://sfplanninggis.org/pim/?tab=Property&search=1139+market+st" }, "geometry": { "type": "Point", "coordinates": [ -122.4132923, 37.7796503 ] } },
{ "type": "Feature", "properties": { "address": "114 Chattanooga St.", "who": "Rudy Pada<br>Rodrigo Santos", "total": 2, "url": "https://sfplanninggis.org/pim/?tab=Property&search=114+chattanooga+st" }, "geometry": { "type": "Point", "coordinates": [ -122.4268834, 37.7544112 ] } },
{ "type": "Feature", "properties": { "address": "1140 Page St.", "who": "Rodrigo Santos", "total": 1, "url": "https://sfplanninggis.org/pim/?tab=Property&search=1140+page+st" }, "geometry": { "type": "Point", "coordinates": [ -122.4395674, 37.7721199 ] } },
{ "type": "Feature", "properties": { "address": "1141 Stockton St.", "who": "Rodrigo Santos", "total": 1, "url": "https://sfplanninggis.org/pim/?tab=Property&search=1141+stockton+st" }, "geometry": { "type": "Point", "coordinates": [ -122.4087507, 37.7963184 ] } },
{ "type": "Feature", "properties": { "address": "1142 York St.", "who": "Cyril Yu<br>Rodrigo Santos", "total": 2, "url": "https://sfplanninggis.org/pim/?tab=Property&search=1142+york+st" }, "geometry": { "type": "Point", "coordinates": [ -122.408546, 37.753678 ] } },
{ "type": "Feature", "properties": { "address": "1144 Capp St.", "who": "Cyril Yu<br>Rodrigo Santos", "total": 2, "url": "https://sfplanninggis.org/pim/?tab=Property&search=1144+capp+st" }, "geometry": { "type": "Point", "coordinates": [ -122.4174152, 37.7486464 ] } },
{ "type": "Feature", "properties": { "address": "1148 Munich St.", "who": "Rodrigo Santos", "total": 1, "url": "https://sfplanninggis.org/pim/?tab=Property&search=1148+munich+st" }, "geometry": { "type": "Point", "coordinates": [ -122.4367905, 37.7109709 ] } },
{ "type": "Feature", "properties": { "address": "1148 Taylor St.", "who": "Rodrigo Santos", "total": 1, "url": "https://sfplanninggis.org/pim/?tab=Property&search=1148+taylor+st" }, "geometry": { "type": "Point", "coordinates": [ -122.4126602, 37.7931769 ] } },
{ "type": "Feature", "properties": { "address": "115 Mason St.", "who": "Rodrigo Santos", "total": 1, "url": "https://sfplanninggis.org/pim/?tab=Property&search=115+mason+st" }, "geometry": { "type": "Point", "coordinates": [ -122.409672, 37.7846083 ] } },
{ "type": "Feature", "properties": { "address": "115 Valley St.", "who": "Rodrigo Santos", "total": 1, "url": "https://sfplanninggis.org/pim/?tab=Property&search=115+valley+st" }, "geometry": { "type": "Point", "coordinates": [ -122.4252669, 37.7444061 ] } },
{ "type": "Feature", "properties": { "address": "1150 Bryant St.", "who": "Rodrigo Santos", "total": 1, "url": "https://sfplanninggis.org/pim/?tab=Property&search=1150+bryant+st" }, "geometry": { "type": "Point", "coordinates": [ -122.4095158, 37.7708898 ] } },
{ "type": "Feature", "properties": { "address": "1150 Filbert St.", "who": "Rodrigo Santos", "total": 1, "url": "https://sfplanninggis.org/pim/?tab=Property&search=1150+filbert+st" }, "geometry": { "type": "Point", "coordinates": [ -122.4185389, 37.8003421 ] } },
{ "type": "Feature", "properties": { "address": "1150 Sutter St.", "who": "Rodrigo Santos", "total": 1, "url": "https://sfplanninggis.org/pim/?tab=Property&search=1150+sutter+st" }, "geometry": { "type": "Point", "coordinates": [ -122.4194505, 37.7881151 ] } },
{ "type": "Feature", "properties": { "address": "1151 Sutter St.", "who": "Rudy Pada<br>Bernie Curran<br>Rodrigo Santos", "total": 3, "url": "https://sfplanninggis.org/pim/?tab=Property&search=1151+sutter+st" }, "geometry": { "type": "Point", "coordinates": [ -122.4194505, 37.7876313 ] } },
{ "type": "Feature", "properties": { "address": "1155 Tennessee St.", "who": "Rodrigo Santos", "total": 1, "url": "https://sfplanninggis.org/pim/?tab=Property&search=1155+tennessee+st" }, "geometry": { "type": "Point", "coordinates": [ -122.388873, 37.7571181 ] } },
{ "type": "Feature", "properties": { "address": "1158 Sutter St.", "who": "Rodrigo Santos", "total": 1, "url": "https://sfplanninggis.org/pim/?tab=Property&search=1158+sutter+st" }, "geometry": { "type": "Point", "coordinates": [ -122.4195931, 37.7880227 ] } },
{ "type": "Feature", "properties": { "address": "1159 Clay St.", "who": "Rodrigo Santos", "total": 1, "url": "https://sfplanninggis.org/pim/?tab=Property&search=1159+clay+st" }, "geometry": { "type": "Point", "coordinates": [ -122.4122108, 37.7933605 ] } },
{ "type": "Feature", "properties": { "address": "116 10th Ave.", "who": "Rodrigo Santos", "total": 1, "url": "https://sfplanninggis.org/pim/?tab=Property&search=116+10th+ave" }, "geometry": { "type": "Point", "coordinates": [ -122.4687275, 37.7860819 ] } },
{ "type": "Feature", "properties": { "address": "116 Broderick St.", "who": "Rodrigo Santos", "total": 1, "url": "https://sfplanninggis.org/pim/?tab=Property&search=116+broderick+st" }, "geometry": { "type": "Point", "coordinates": [ -122.4385239, 37.7716646 ] } },
{ "type": "Feature", "properties": { "address": "116 Mary Teresa St.", "who": "Rodrigo Santos", "total": 1, "url": "https://sfplanninggis.org/pim/?tab=Property&search=116+mary+teresa+st" }, "geometry": { "type": "Point", "coordinates": [ -122.3984884, 37.7135831 ] } },
{ "type": "Feature", "properties": { "address": "1169 Tennessee St.", "who": "Rudy Pada<br>Rodrigo Santos", "total": 2, "url": "https://sfplanninggis.org/pim/?tab=Property&search=1169+tennessee+st" }, "geometry": { "type": "Point", "coordinates": [ -122.388934, 37.7570718 ] } },
{ "type": "Feature", "properties": { "address": "1171 Oak St.", "who": "Rudy Pada<br>Rodrigo Santos", "total": 2, "url": "https://sfplanninggis.org/pim/?tab=Property&search=1171+oak+st" }, "geometry": { "type": "Point", "coordinates": [ -122.4385209, 37.7727093 ] } },
{ "type": "Feature", "properties": { "address": "1174 Munich St.", "who": "Rodrigo Santos", "total": 1, "url": "https://sfplanninggis.org/pim/?tab=Property&search=1174+munich+st" }, "geometry": { "type": "Point", "coordinates": [ -122.4375376, 37.7111029 ] } },
{ "type": "Feature", "properties": { "address": "1175 Gilman Ave.", "who": "Rodrigo Santos", "total": 1, "url": "https://sfplanninggis.org/pim/?tab=Property&search=1175+gilman+ave" }, "geometry": { "type": "Point", "coordinates": [ -122.3915571, 37.719939 ] } },
{ "type": "Feature", "properties": { "address": "1176 Alabama St.", "who": "Rodrigo Santos", "total": 1, "url": "https://sfplanninggis.org/pim/?tab=Property&search=1176+alabama+st" }, "geometry": { "type": "Point", "coordinates": [ -122.4112626, 37.7531664 ] } },
{ "type": "Feature", "properties": { "address": "1176 Potrero Ave.", "who": "Rodrigo Santos", "total": 1, "url": "https://sfplanninggis.org/pim/?tab=Property&search=1176+potrero+ave" }, "geometry": { "type": "Point", "coordinates": [ -122.4066762, 37.7533512 ] } },
{ "type": "Feature", "properties": { "address": "1178 Clayton St.", "who": "Rodrigo Santos", "total": 1, "url": "https://sfplanninggis.org/pim/?tab=Property&search=1178+clayton+st" }, "geometry": { "type": "Point", "coordinates": [ -122.4467704, 37.762167 ] } },
{ "type": "Feature", "properties": { "address": "1178 Folsom St.", "who": "Rodrigo Santos", "total": 1, "url": "https://sfplanninggis.org/pim/?tab=Property&search=1178+folsom+st" }, "geometry": { "type": "Point", "coordinates": [ -122.4097162, 37.7755865 ] } },
{ "type": "Feature", "properties": { "address": "118 Douglass St.", "who": "Rodrigo Santos", "total": 1, "url": "https://sfplanninggis.org/pim/?tab=Property&search=118+douglass+st" }, "geometry": { "type": "Point", "coordinates": [ -122.4396411, 37.7618031 ] } },
{ "type": "Feature", "properties": { "address": "1184 Jackson St.", "who": "Rodrigo Santos", "total": 1, "url": "https://sfplanninggis.org/pim/?tab=Property&search=1184+jackson+st" }, "geometry": { "type": "Point", "coordinates": [ -122.414603, 37.795143 ] } },
{ "type": "Feature", "properties": { "address": "1188 Lombard St.", "who": "Rudy Pada<br>Rodrigo Santos", "total": 2, "url": "https://sfplanninggis.org/pim/?tab=Property&search=1188+lombard+st" }, "geometry": { "type": "Point", "coordinates": [ -122.4210433, 37.8020269 ] } },
{ "type": "Feature", "properties": { "address": "1189 Tennessee St.", "who": "Rudy Pada<br>Rodrigo Santos", "total": 2, "url": "https://sfplanninggis.org/pim/?tab=Property&search=1189+tennessee+st" }, "geometry": { "type": "Point", "coordinates": [ -122.3888951, 37.7568692 ] } },
{ "type": "Feature", "properties": { "address": "1190 Silver Ave.", "who": "Rodrigo Santos", "total": 1, "url": "https://sfplanninggis.org/pim/?tab=Property&search=1190+silver+ave" }, "geometry": { "type": "Point", "coordinates": [ -122.4125118, 37.7300716 ] } },
{ "type": "Feature", "properties": { "address": "12 25th North Ave.", "who": "Rudy Pada<br>Rodrigo Santos", "total": 2, "url": "https://sfplanninggis.org/pim/?tab=Property&search=12+25th+north+ave" }, "geometry": { "type": "Point", "coordinates": [ -122.4194155, 37.7749295 ] } },
{ "type": "Feature", "properties": { "address": "12 Guy Pl.", "who": "Rodrigo Santos", "total": 1, "url": "https://sfplanninggis.org/pim/?tab=Property&search=12+guy+pl" }, "geometry": { "type": "Point", "coordinates": [ -122.3944825, 37.7865973 ] } },
{ "type": "Feature", "properties": { "address": "12 Henry St.", "who": "Rodrigo Santos", "total": 1, "url": "https://sfplanninggis.org/pim/?tab=Property&search=12+henry+st" }, "geometry": { "type": "Point", "coordinates": [ -122.4317158, 37.7669643 ] } },
{ "type": "Feature", "properties": { "address": "12 Hoffman Ave.", "who": "Rodrigo Santos", "total": 1, "url": "https://sfplanninggis.org/pim/?tab=Property&search=12+hoffman+ave" }, "geometry": { "type": "Point", "coordinates": [ -122.4410968, 37.7536906 ] } },
{ "type": "Feature", "properties": { "address": "120 Mallorca Wy.", "who": "Rodrigo Santos", "total": 1, "url": "https://sfplanninggis.org/pim/?tab=Property&search=120+mallorca+wy" }, "geometry": { "type": "Point", "coordinates": [ -122.43729, 37.801939 ] } },
{ "type": "Feature", "properties": { "address": "120 Shrader St.", "who": "Rodrigo Santos", "total": 1, "url": "https://sfplanninggis.org/pim/?tab=Property&search=120+shrader+st" }, "geometry": { "type": "Point", "coordinates": [ -122.4525845, 37.7737137 ] } },
{ "type": "Feature", "properties": { "address": "1201 Clayton St.", "who": "Rodrigo Santos", "total": 1, "url": "https://sfplanninggis.org/pim/?tab=Property&search=1201+clayton+st" }, "geometry": { "type": "Point", "coordinates": [ -122.447027, 37.761642 ] } },
{ "type": "Feature", "properties": { "address": "1201 Guerrero St.", "who": "Rodrigo Santos", "total": 1, "url": "https://sfplanninggis.org/pim/?tab=Property&search=1201+guerrero+st" }, "geometry": { "type": "Point", "coordinates": [ -122.4226693, 37.7518068 ] } },
{ "type": "Feature", "properties": { "address": "1202 Vicente St.", "who": "Rodrigo Santos", "total": 1, "url": "https://sfplanninggis.org/pim/?tab=Property&search=1202+vicente+st" }, "geometry": { "type": "Point", "coordinates": [ -122.4801809, 37.7393077 ] } },
{ "type": "Feature", "properties": { "address": "1204 Treat Ave.", "who": "Rodrigo Santos", "total": 1, "url": "https://sfplanninggis.org/pim/?tab=Property&search=1204+treat+ave" }, "geometry": { "type": "Point", "coordinates": [ -122.413111, 37.750692 ] } },
{ "type": "Feature", "properties": { "address": "121 07th St.", "who": "Rodrigo Santos", "total": 1, "url": "https://sfplanninggis.org/pim/?tab=Property&search=121+07th+st" }, "geometry": { "type": "Point", "coordinates": [ -122.4101587, 37.7788752 ] } },
{ "type": "Feature", "properties": { "address": "121 09th St.", "who": "Rudy Pada<br>Rodrigo Santos", "total": 2, "url": "https://sfplanninggis.org/pim/?tab=Property&search=121+09th+st" }, "geometry": { "type": "Point", "coordinates": [ -122.4141667, 37.7760099 ] } },
{ "type": "Feature", "properties": { "address": "121 Lawton St.", "who": "Rodrigo Santos", "total": 1, "url": "https://sfplanninggis.org/pim/?tab=Property&search=121+lawton+st" }, "geometry": { "type": "Point", "coordinates": [ -122.4642166, 37.7583335 ] } },
{ "type": "Feature", "properties": { "address": "1211 Scott St.", "who": "Rodrigo Santos", "total": 1, "url": "https://sfplanninggis.org/pim/?tab=Property&search=1211+scott+st" }, "geometry": { "type": "Point", "coordinates": [ -122.4376777, 37.7812051 ] } },
{ "type": "Feature", "properties": { "address": "1212 Utah St.", "who": "Rodrigo Santos", "total": 1, "url": "https://sfplanninggis.org/pim/?tab=Property&search=1212+utah+st" }, "geometry": { "type": "Point", "coordinates": [ -122.4056206, 37.7539618 ] } },
{ "type": "Feature", "properties": { "address": "1214 Utah St.", "who": "Rodrigo Santos", "total": 1, "url": "https://sfplanninggis.org/pim/?tab=Property&search=1214+utah+st" }, "geometry": { "type": "Point", "coordinates": [ -122.4055695, 37.7538997 ] } },
{ "type": "Feature", "properties": { "address": "1218 44th Ave.", "who": "Rodrigo Santos", "total": 1, "url": "https://sfplanninggis.org/pim/?tab=Property&search=1218+44th+ave" }, "geometry": { "type": "Point", "coordinates": [ -122.5038354, 37.7638359 ] } },
{ "type": "Feature", "properties": { "address": "1219 19th St.", "who": "Rodrigo Santos", "total": 1, "url": "https://sfplanninggis.org/pim/?tab=Property&search=1219+19th+st" }, "geometry": { "type": "Point", "coordinates": [ -122.3948918, 37.7612278 ] } },
{ "type": "Feature", "properties": { "address": "1220 Diamond St.", "who": "Rodrigo Santos", "total": 1, "url": "https://sfplanninggis.org/pim/?tab=Property&search=1220+diamond+st" }, "geometry": { "type": "Point", "coordinates": [ -122.4361737, 37.7476069 ] } },
{ "type": "Feature", "properties": { "address": "1220 Market St.", "who": "Rodrigo Santos", "total": 1, "url": "https://sfplanninggis.org/pim/?tab=Property&search=1220+market+st" }, "geometry": { "type": "Point", "coordinates": [ -122.4154424, 37.7784363 ] } },
{ "type": "Feature", "properties": { "address": "1221 Harrison St.", "who": "Cyril Yu<br>Rodrigo Santos", "total": 2, "url": "https://sfplanninggis.org/pim/?tab=Property&search=1221+harrison+st" }, "geometry": { "type": "Point", "coordinates": [ -122.4089789, 37.7732324 ] } },
{ "type": "Feature", "properties": { "address": "1222 Clayton St.", "who": "Rudy Pada<br>Cyril Yu<br>Rodrigo Santos", "total": 3, "url": "https://sfplanninggis.org/pim/?tab=Property&search=1222+clayton+st" }, "geometry": { "type": "Point", "coordinates": [ -122.445899, 37.761581 ] } },
{ "type": "Feature", "properties": { "address": "1222 Leavenworth St.", "who": "Rodrigo Santos", "total": 1, "url": "https://sfplanninggis.org/pim/?tab=Property&search=1222+leavenworth+st" }, "geometry": { "type": "Point", "coordinates": [ -122.4158074, 37.7925267 ] } },
{ "type": "Feature", "properties": { "address": "1223 44th Ave.", "who": "Rudy Pada<br>Rodrigo Santos", "total": 2, "url": "https://sfplanninggis.org/pim/?tab=Property&search=1223+44th+ave" }, "geometry": { "type": "Point", "coordinates": [ -122.504342, 37.763744 ] } },
{ "type": "Feature", "properties": { "address": "1223 Fitzgerald Ave.", "who": "Rodrigo Santos", "total": 1, "url": "https://sfplanninggis.org/pim/?tab=Property&search=1223+fitzgerald+ave" }, "geometry": { "type": "Point", "coordinates": [ -122.3919096, 37.7211483 ] } },
{ "type": "Feature", "properties": { "address": "1225 Bay St.", "who": "Rodrigo Santos", "total": 1, "url": "https://sfplanninggis.org/pim/?tab=Property&search=1225+bay+st" }, "geometry": { "type": "Point", "coordinates": [ -122.4272814, 37.8036426 ] } },
{ "type": "Feature", "properties": { "address": "1225 Potrero Ave.", "who": "Rodrigo Santos", "total": 1, "url": "https://sfplanninggis.org/pim/?tab=Property&search=1225+potrero+ave" }, "geometry": { "type": "Point", "coordinates": [ -122.4061417, 37.752589 ] } },
{ "type": "Feature", "properties": { "address": "1227 Anza St.", "who": "Rodrigo Santos", "total": 1, "url": "https://sfplanninggis.org/pim/?tab=Property&search=1227+anza+st" }, "geometry": { "type": "Point", "coordinates": [ -122.4614524, 37.7790768 ] } },
{ "type": "Feature", "properties": { "address": "1228 Funston Ave.", "who": "Rodrigo Santos", "total": 1, "url": "https://sfplanninggis.org/pim/?tab=Property&search=1228+funston+ave" }, "geometry": { "type": "Point", "coordinates": [ -122.4704854, 37.7651209 ] } },
{ "type": "Feature", "properties": { "address": "1229 20th Ave.", "who": "Rodrigo Santos", "total": 1, "url": "https://sfplanninggis.org/pim/?tab=Property&search=1229+20th+ave" }, "geometry": { "type": "Point", "coordinates": [ -122.4786332, 37.7647595 ] } },
{ "type": "Feature", "properties": { "address": "1229 Connecticut St.", "who": "Rodrigo Santos", "total": 1, "url": "https://sfplanninggis.org/pim/?tab=Property&search=1229+connecticut+st" }, "geometry": { "type": "Point", "coordinates": [ -122.3962242, 37.7506263 ] } },
{ "type": "Feature", "properties": { "address": "1229 Vallejo St.", "who": "Rodrigo Santos", "total": 1, "url": "https://sfplanninggis.org/pim/?tab=Property&search=1229+vallejo+st" }, "geometry": { "type": "Point", "coordinates": [ -122.417528, 37.797248 ] } },
{ "type": "Feature", "properties": { "address": "123 Faith St.", "who": "Rudy Pada<br>Rodrigo Santos", "total": 2, "url": "https://sfplanninggis.org/pim/?tab=Property&search=123+faith+st" }, "geometry": { "type": "Point", "coordinates": [ -122.4065452, 37.7441005 ] } },
{ "type": "Feature", "properties": { "address": "1230 19th Ave.", "who": "Rodrigo Santos", "total": 1, "url": "https://sfplanninggis.org/pim/?tab=Property&search=1230+19th+ave" }, "geometry": { "type": "Point", "coordinates": [ -122.4769528, 37.764756299999988 ] } },
{ "type": "Feature", "properties": { "address": "1230 Powell St.", "who": "Rodrigo Santos", "total": 1, "url": "https://sfplanninggis.org/pim/?tab=Property&search=1230+powell+st" }, "geometry": { "type": "Point", "coordinates": [ -122.4098047, 37.7960681 ] } },
{ "type": "Feature", "properties": { "address": "1232 28th Ave.", "who": "Rodrigo Santos", "total": 1, "url": "https://sfplanninggis.org/pim/?tab=Property&search=1232+28th+ave" }, "geometry": { "type": "Point", "coordinates": [ -122.4865482, 37.7643294 ] } },
{ "type": "Feature", "properties": { "address": "1233 Connecticut St.", "who": "Rudy Pada<br>Rodrigo Santos", "total": 2, "url": "https://sfplanninggis.org/pim/?tab=Property&search=1233+connecticut+st" }, "geometry": { "type": "Point", "coordinates": [ -122.3960377, 37.7505617 ] } },
{ "type": "Feature", "properties": { "address": "1234 Howard St.", "who": "Rodrigo Santos", "total": 1, "url": "https://sfplanninggis.org/pim/?tab=Property&search=1234+howard+st" }, "geometry": { "type": "Point", "coordinates": [ -122.4123621, 37.7758826 ] } },
{ "type": "Feature", "properties": { "address": "1234 Plymouth Ave.", "who": "Rodrigo Santos", "total": 1, "url": "https://sfplanninggis.org/pim/?tab=Property&search=1234+plymouth+ave" }, "geometry": { "type": "Point", "coordinates": [ -122.4562114, 37.724647100000013 ] } },
{ "type": "Feature", "properties": { "address": "1235 Stanyan St.", "who": "Rudy Pada<br>Rodrigo Santos", "total": 2, "url": "https://sfplanninggis.org/pim/?tab=Property&search=1235+stanyan+st" }, "geometry": { "type": "Point", "coordinates": [ -122.4522307, 37.7612053 ] } },
{ "type": "Feature", "properties": { "address": "1236 19th Ave.", "who": "Rodrigo Santos", "total": 1, "url": "https://sfplanninggis.org/pim/?tab=Property&search=1236+19th+ave" }, "geometry": { "type": "Point", "coordinates": [ -122.4769639, 37.7646878 ] } },
{ "type": "Feature", "properties": { "address": "1238 47th Ave.", "who": "Bernie Curran<br>Rodrigo Santos", "total": 2, "url": "https://sfplanninggis.org/pim/?tab=Property&search=1238+47th+ave" }, "geometry": { "type": "Point", "coordinates": [ -122.5068415, 37.763355 ] } },
{ "type": "Feature", "properties": { "address": "1239 17th St.", "who": "Rodrigo Santos", "total": 1, "url": "https://sfplanninggis.org/pim/?tab=Property&search=1239+17th+st" }, "geometry": { "type": "Point", "coordinates": [ -122.3965735, 37.7649934 ] } },
{ "type": "Feature", "properties": { "address": "124 Eureka St.", "who": "Rodrigo Santos", "total": 1, "url": "https://sfplanninggis.org/pim/?tab=Property&search=124+eureka+st" }, "geometry": { "type": "Point", "coordinates": [ -122.4384408, 37.760215300000013 ] } },
{ "type": "Feature", "properties": { "address": "124 Fillmore St.", "who": "Rodrigo Santos", "total": 1, "url": "https://sfplanninggis.org/pim/?tab=Property&search=124+fillmore+st" }, "geometry": { "type": "Point", "coordinates": [ -122.429895, 37.770662 ] } },
{ "type": "Feature", "properties": { "address": "124 Mary Teresa St.", "who": "Rodrigo Santos", "total": 1, "url": "https://sfplanninggis.org/pim/?tab=Property&search=124+mary+teresa+st" }, "geometry": { "type": "Point", "coordinates": [ -122.3985485, 37.7136779 ] } },
{ "type": "Feature", "properties": { "address": "124 West Portal Ave.", "who": "Rodrigo Santos", "total": 1, "url": "https://sfplanninggis.org/pim/?tab=Property&search=124+west+portal+ave" }, "geometry": { "type": "Point", "coordinates": [ -122.4675957, 37.7394909 ] } },
{ "type": "Feature", "properties": { "address": "1240 Minnesota St.", "who": "Rodrigo Santos", "total": 1, "url": "https://sfplanninggis.org/pim/?tab=Property&search=1240+minnesota+st" }, "geometry": { "type": "Point", "coordinates": [ -122.3901786, 37.7546502 ] } },
{ "type": "Feature", "properties": { "address": "1241 Bush St.", "who": "Rodrigo Santos", "total": 1, "url": "https://sfplanninggis.org/pim/?tab=Property&search=1241+bush+st" }, "geometry": { "type": "Point", "coordinates": [ -122.4177471, 37.7888809 ] } },
{ "type": "Feature", "properties": { "address": "1245 Jones St.", "who": "Rodrigo Santos", "total": 1, "url": "https://sfplanninggis.org/pim/?tab=Property&search=1245+jones+st" }, "geometry": { "type": "Point", "coordinates": [ -122.414737, 37.792913 ] } },
{ "type": "Feature", "properties": { "address": "1246 Sanchez St.", "who": "Rudy Pada<br>Rodrigo Santos", "total": 2, "url": "https://sfplanninggis.org/pim/?tab=Property&search=1246+sanchez+st" }, "geometry": { "type": "Point", "coordinates": [ -122.4296197, 37.7493554 ] } },
{ "type": "Feature", "properties": { "address": "1247 Harrison St.", "who": "Rodrigo Santos", "total": 1, "url": "https://sfplanninggis.org/pim/?tab=Property&search=1247+harrison+st" }, "geometry": { "type": "Point", "coordinates": [ -122.4089282, 37.7729212 ] } },
{ "type": "Feature", "properties": { "address": "125 Crown Tr.", "who": "Bernie Curran<br>Rodrigo Santos", "total": 2, "url": "https://sfplanninggis.org/pim/?tab=Property&search=125+crown+tr" }, "geometry": { "type": "Point", "coordinates": [ -122.4469782, 37.7576944 ] } },
{ "type": "Feature", "properties": { "address": "125 Gardenside Dr.", "who": "Rodrigo Santos", "total": 1, "url": "https://sfplanninggis.org/pim/?tab=Property&search=125+gardenside+dr" }, "geometry": { "type": "Point", "coordinates": [ -122.4454064, 37.7532687 ] } },
{ "type": "Feature", "properties": { "address": "125 Rivoli St.", "who": "Rodrigo Santos", "total": 1, "url": "https://sfplanninggis.org/pim/?tab=Property&search=125+rivoli+st" }, "geometry": { "type": "Point", "coordinates": [ -122.4497713, 37.762324 ] } },
{ "type": "Feature", "properties": { "address": "1250 Broderick St.", "who": "Rodrigo Santos", "total": 1, "url": "https://sfplanninggis.org/pim/?tab=Property&search=1250+broderick+st" }, "geometry": { "type": "Point", "coordinates": [ -122.4407522, 37.7821011 ] } },
{ "type": "Feature", "properties": { "address": "1250 Ellis St.", "who": "Rodrigo Santos", "total": 1, "url": "https://sfplanninggis.org/pim/?tab=Property&search=1250+ellis+st" }, "geometry": { "type": "Point", "coordinates": [ -122.426769, 37.7834238 ] } },
{ "type": "Feature", "properties": { "address": "1250 Hyde St.", "who": "Rodrigo Santos", "total": 1, "url": "https://sfplanninggis.org/pim/?tab=Property&search=1250+hyde+st" }, "geometry": { "type": "Point", "coordinates": [ -122.4175037, 37.7925843 ] } },
{ "type": "Feature", "properties": { "address": "1250 Missouri St.", "who": "Rodrigo Santos", "total": 1, "url": "https://sfplanninggis.org/pim/?tab=Property&search=1250+missouri+st" }, "geometry": { "type": "Point", "coordinates": [ -122.3956865, 37.7505884 ] } },
{ "type": "Feature", "properties": { "address": "1251 14th Ave.", "who": "Rodrigo Santos", "total": 1, "url": "https://sfplanninggis.org/pim/?tab=Property&search=1251+14th+ave" }, "geometry": { "type": "Point", "coordinates": [ -122.4719669, 37.7647017 ] } },
{ "type": "Feature", "properties": { "address": "1251 Connecticut St.", "who": "Rudy Pada<br>Rodrigo Santos", "total": 2, "url": "https://sfplanninggis.org/pim/?tab=Property&search=1251+connecticut+st" }, "geometry": { "type": "Point", "coordinates": [ -122.3961867, 37.7504714 ] } },
{ "type": "Feature", "properties": { "address": "1258 Minnesota St.", "who": "Rodrigo Santos", "total": 1, "url": "https://sfplanninggis.org/pim/?tab=Property&search=1258+minnesota+st" }, "geometry": { "type": "Point", "coordinates": [ -122.3900433, 37.7543531 ] } },
{ "type": "Feature", "properties": { "address": "126 Museum Wy.", "who": "Rodrigo Santos", "total": 1, "url": "https://sfplanninggis.org/pim/?tab=Property&search=126+museum+wy" }, "geometry": { "type": "Point", "coordinates": [ -122.4399449, 37.764195699999988 ] } },
{ "type": "Feature", "properties": { "address": "126 Prentiss St.", "who": "Rodrigo Santos", "total": 1, "url": "https://sfplanninggis.org/pim/?tab=Property&search=126+prentiss+st" }, "geometry": { "type": "Point", "coordinates": [ -122.4121941, 37.741015399999988 ] } },
{ "type": "Feature", "properties": { "address": "126 West Portal Ave.", "who": "Rodrigo Santos", "total": 1, "url": "https://sfplanninggis.org/pim/?tab=Property&search=126+west+portal+ave" }, "geometry": { "type": "Point", "coordinates": [ -122.4676661, 37.739589 ] } },
{ "type": "Feature", "properties": { "address": "1260 Pennsylvania Ave.", "who": "Rodrigo Santos", "total": 1, "url": "https://sfplanninggis.org/pim/?tab=Property&search=1260+pennsylvania+ave" }, "geometry": { "type": "Point", "coordinates": [ -122.3927012, 37.7504106 ] } },
{ "type": "Feature", "properties": { "address": "1261 28th Ave.", "who": "Rodrigo Santos", "total": 1, "url": "https://sfplanninggis.org/pim/?tab=Property&search=1261+28th+ave" }, "geometry": { "type": "Point", "coordinates": [ -122.4870822, 37.7638162 ] } },
{ "type": "Feature", "properties": { "address": "1261 Connecticut St.", "who": "Rudy Pada<br>Rodrigo Santos", "total": 2, "url": "https://sfplanninggis.org/pim/?tab=Property&search=1261+connecticut+st" }, "geometry": { "type": "Point", "coordinates": [ -122.3960153, 37.7503221 ] } },
{ "type": "Feature", "properties": { "address": "1268 Lombard St.", "who": "Rudy Pada<br>Rodrigo Santos", "total": 2, "url": "https://sfplanninggis.org/pim/?tab=Property&search=1268+lombard+st" }, "geometry": { "type": "Point", "coordinates": [ -122.4224317, 37.8018501 ] } },
{ "type": "Feature", "properties": { "address": "127 27th St.", "who": "Rodrigo Santos", "total": 1, "url": "https://sfplanninggis.org/pim/?tab=Property&search=127+27th+st" }, "geometry": { "type": "Point", "coordinates": [ -122.42309, 37.74689 ] } },
{ "type": "Feature", "properties": { "address": "127 Buchanan St.", "who": "Cyril Yu<br>Rodrigo Santos", "total": 2, "url": "https://sfplanninggis.org/pim/?tab=Property&search=127+buchanan+st" }, "geometry": { "type": "Point", "coordinates": [ -122.4271931, 37.7709943 ] } },
{ "type": "Feature", "properties": { "address": "1270 Valencia St.", "who": "Rodrigo Santos", "total": 1, "url": "https://sfplanninggis.org/pim/?tab=Property&search=1270+valencia+st" }, "geometry": { "type": "Point", "coordinates": [ -122.4210213, 37.7525071 ] } },
{ "type": "Feature", "properties": { "address": "1272 Fell St.", "who": "Rodrigo Santos", "total": 1, "url": "https://sfplanninggis.org/pim/?tab=Property&search=1272+fell+st" }, "geometry": { "type": "Point", "coordinates": [ -122.4387791, 37.7740432 ] } },
{ "type": "Feature", "properties": { "address": "1275 Indiana St.", "who": "Rodrigo Santos", "total": 1, "url": "https://sfplanninggis.org/pim/?tab=Property&search=1275+indiana+st" }, "geometry": { "type": "Point", "coordinates": [ -122.3905749, 37.7542527 ] } },
{ "type": "Feature", "properties": { "address": "1277 Howard St.", "who": "Rodrigo Santos", "total": 1, "url": "https://sfplanninggis.org/pim/?tab=Property&search=1277+howard+st" }, "geometry": { "type": "Point", "coordinates": [ -122.4124596, 37.775041 ] } },
{ "type": "Feature", "properties": { "address": "1278 Church St.", "who": "Rodrigo Santos", "total": 1, "url": "https://sfplanninggis.org/pim/?tab=Property&search=1278+church+st" }, "geometry": { "type": "Point", "coordinates": [ -122.427585, 37.750425 ] } },
{ "type": "Feature", "properties": { "address": "1279 19th Ave.", "who": "Rodrigo Santos", "total": 1, "url": "https://sfplanninggis.org/pim/?tab=Property&search=1279+19th+ave" }, "geometry": { "type": "Point", "coordinates": [ -122.4775719, 37.7640445 ] } },
{ "type": "Feature", "properties": { "address": "128 Elsie St.", "who": "Cyril Yu<br>Rodrigo Santos", "total": 2, "url": "https://sfplanninggis.org/pim/?tab=Property&search=128+elsie+st" }, "geometry": { "type": "Point", "coordinates": [ -122.4180575, 37.7425784 ] } },
{ "type": "Feature", "properties": { "address": "128 Spear St.", "who": "Rodrigo Santos", "total": 1, "url": "https://sfplanninggis.org/pim/?tab=Property&search=128+spear+st" }, "geometry": { "type": "Point", "coordinates": [ -122.3938519, 37.7919084 ] } },
{ "type": "Feature", "properties": { "address": "1282 California St.", "who": "Rodrigo Santos", "total": 1, "url": "https://sfplanninggis.org/pim/?tab=Property&search=1282+california+st" }, "geometry": { "type": "Point", "coordinates": [ -122.4154442, 37.7914835 ] } },
{ "type": "Feature", "properties": { "address": "1289 22nd Ave.", "who": "Rodrigo Santos", "total": 1, "url": "https://sfplanninggis.org/pim/?tab=Property&search=1289+22nd+ave" }, "geometry": { "type": "Point", "coordinates": [ -122.4807115, 37.7636724 ] } },
{ "type": "Feature", "properties": { "address": "1289 Dolores St.", "who": "Rodrigo Santos", "total": 1, "url": "https://sfplanninggis.org/pim/?tab=Property&search=1289+dolores+st" }, "geometry": { "type": "Point", "coordinates": [ -122.424627, 37.7489241 ] } },
{ "type": "Feature", "properties": { "address": "129 21st Ave.", "who": "Rudy Pada<br>Rodrigo Santos", "total": 2, "url": "https://sfplanninggis.org/pim/?tab=Property&search=129+21st+ave" }, "geometry": { "type": "Point", "coordinates": [ -122.4810652, 37.7853303 ] } },
{ "type": "Feature", "properties": { "address": "129 Shawnee Ave.", "who": "Rodrigo Santos", "total": 1, "url": "https://sfplanninggis.org/pim/?tab=Property&search=129+shawnee+ave" }, "geometry": { "type": "Point", "coordinates": [ -122.4468676, 37.7183141 ] } },
{ "type": "Feature", "properties": { "address": "129 Westwood Dr.", "who": "Rudy Pada<br>Rodrigo Santos", "total": 2, "url": "https://sfplanninggis.org/pim/?tab=Property&search=129+westwood+dr" }, "geometry": { "type": "Point", "coordinates": [ -122.4593516, 37.7282609 ] } },
{ "type": "Feature", "properties": { "address": "1291 33rd Ave.", "who": "Rodrigo Santos", "total": 1, "url": "https://sfplanninggis.org/pim/?tab=Property&search=1291+33rd+ave" }, "geometry": { "type": "Point", "coordinates": [ -122.4923404, 37.7631019 ] } },
{ "type": "Feature", "properties": { "address": "1294 Geneva Ave.", "who": "Rudy Pada<br>Rodrigo Santos", "total": 2, "url": "https://sfplanninggis.org/pim/?tab=Property&search=1294+geneva+ave" }, "geometry": { "type": "Point", "coordinates": [ -122.4349109, 37.7133683 ] } },
{ "type": "Feature", "properties": { "address": "1295 17th Ave.", "who": "Rodrigo Santos", "total": 1, "url": "https://sfplanninggis.org/pim/?tab=Property&search=1295+17th+ave" }, "geometry": { "type": "Point", "coordinates": [ -122.475157, 37.7638545 ] } },
{ "type": "Feature", "properties": { "address": "1298 California St.", "who": "Rodrigo Santos", "total": 1, "url": "https://sfplanninggis.org/pim/?tab=Property&search=1298+california+st" }, "geometry": { "type": "Point", "coordinates": [ -122.4156606, 37.7913541 ] } },
{ "type": "Feature", "properties": { "address": "130 Alhambra St.", "who": "Rodrigo Santos", "total": 1, "url": "https://sfplanninggis.org/pim/?tab=Property&search=130+alhambra+st" }, "geometry": { "type": "Point", "coordinates": [ -122.4386953, 37.8023303 ] } },
{ "type": "Feature", "properties": { "address": "130 Locust St.", "who": "Rodrigo Santos", "total": 1, "url": "https://sfplanninggis.org/pim/?tab=Property&search=130+locust+st" }, "geometry": { "type": "Point", "coordinates": [ -122.4522307, 37.7898239 ] } },
{ "type": "Feature", "properties": { "address": "130 Monterey Blvd.", "who": "Rodrigo Santos", "total": 1, "url": "https://sfplanninggis.org/pim/?tab=Property&search=130+monterey+blvd" }, "geometry": { "type": "Point", "coordinates": [ -122.4382528, 37.7318861 ] } },
{ "type": "Feature", "properties": { "address": "130 Turk St.", "who": "Rodrigo Santos", "total": 1, "url": "https://sfplanninggis.org/pim/?tab=Property&search=130+turk+st" }, "geometry": { "type": "Point", "coordinates": [ -122.411457, 37.783413 ] } },
{ "type": "Feature", "properties": { "address": "1300 Golden Gate Ave.", "who": "Rodrigo Santos", "total": 1, "url": "https://sfplanninggis.org/pim/?tab=Property&search=1300+golden+gate+ave" }, "geometry": { "type": "Point", "coordinates": [ -122.4322727, 37.7796663 ] } },
{ "type": "Feature", "properties": { "address": "1301 40th Ave.", "who": "Rodrigo Santos", "total": 1, "url": "https://sfplanninggis.org/pim/?tab=Property&search=1301+40th+ave" }, "geometry": { "type": "Point", "coordinates": [ -122.4997717, 37.7623171 ] } },
{ "type": "Feature", "properties": { "address": "1301 Divisadero St.", "who": "Rodrigo Santos", "total": 1, "url": "https://sfplanninggis.org/pim/?tab=Property&search=1301+divisadero+st" }, "geometry": { "type": "Point", "coordinates": [ -122.439191, 37.7815397 ] } },
{ "type": "Feature", "properties": { "address": "1301 Indiana St.", "who": "Rodrigo Santos", "total": 1, "url": "https://sfplanninggis.org/pim/?tab=Property&search=1301+indiana+st" }, "geometry": { "type": "Point", "coordinates": [ -122.3905769, 37.7540437 ] } },
{ "type": "Feature", "properties": { "address": "1301 Ocean Ave.", "who": "Rodrigo Santos", "total": 1, "url": "https://sfplanninggis.org/pim/?tab=Property&search=1301+ocean+ave" }, "geometry": { "type": "Point", "coordinates": [ -122.4563883, 37.7236244 ] } },
{ "type": "Feature", "properties": { "address": "1301 Polk St.", "who": "Rodrigo Santos", "total": 1, "url": "https://sfplanninggis.org/pim/?tab=Property&search=1301+polk+st" }, "geometry": { "type": "Point", "coordinates": [ -122.4204696, 37.7888125 ] } },
{ "type": "Feature", "properties": { "address": "1301 Ulloa St.", "who": "Rodrigo Santos", "total": 1, "url": "https://sfplanninggis.org/pim/?tab=Property&search=1301+ulloa+st" }, "geometry": { "type": "Point", "coordinates": [ -122.4702753, 37.7412425 ] } },
{ "type": "Feature", "properties": { "address": "1308 Valencia St.", "who": "Rodrigo Santos", "total": 1, "url": "https://sfplanninggis.org/pim/?tab=Property&search=1308+valencia+st" }, "geometry": { "type": "Point", "coordinates": [ -122.4209283, 37.7518086 ] } },
{ "type": "Feature", "properties": { "address": "131 Missouri St.", "who": "Rudy Pada<br>Cyril Yu<br>Rodrigo Santos", "total": 3, "url": "https://sfplanninggis.org/pim/?tab=Property&search=131+missouri+st" }, "geometry": { "type": "Point", "coordinates": [ -122.3964186, 37.7646873 ] } },
{ "type": "Feature", "properties": { "address": "131 Randall St.", "who": "Rodrigo Santos", "total": 1, "url": "https://sfplanninggis.org/pim/?tab=Property&search=131+randall+st" }, "geometry": { "type": "Point", "coordinates": [ -122.426343, 37.739662 ] } },
{ "type": "Feature", "properties": { "address": "131 Rivoli St.", "who": "Rudy Pada<br>Cyril Yu<br>Rodrigo Santos", "total": 3, "url": "https://sfplanninggis.org/pim/?tab=Property&search=131+rivoli+st" }, "geometry": { "type": "Point", "coordinates": [ -122.4498546, 37.7622724 ] } },
{ "type": "Feature", "properties": { "address": "1310 Minnesota St.", "who": "Rodrigo Santos", "total": 1, "url": "https://sfplanninggis.org/pim/?tab=Property&search=1310+minnesota+st" }, "geometry": { "type": "Point", "coordinates": [ -122.3900758, 37.7537397 ] } },
{ "type": "Feature", "properties": { "address": "1311 22nd St.", "who": "Rudy Pada<br>Rodrigo Santos", "total": 2, "url": "https://sfplanninggis.org/pim/?tab=Property&search=1311+22nd+st" }, "geometry": { "type": "Point", "coordinates": [ -122.3943829, 37.7572692 ] } },
{ "type": "Feature", "properties": { "address": "1314 Polk St.", "who": "Rodrigo Santos", "total": 1, "url": "https://sfplanninggis.org/pim/?tab=Property&search=1314+polk+st" }, "geometry": { "type": "Point", "coordinates": [ -122.4202391, 37.7890607 ] } },
{ "type": "Feature", "properties": { "address": "1315 07th Ave.", "who": "Rudy Pada<br>Rodrigo Santos", "total": 2, "url": "https://sfplanninggis.org/pim/?tab=Property&search=1315+07th+ave" }, "geometry": { "type": "Point", "coordinates": [ -122.4644277, 37.7637589 ] } },
{ "type": "Feature", "properties": { "address": "1315 Diamond St.", "who": "Rodrigo Santos", "total": 1, "url": "https://sfplanninggis.org/pim/?tab=Property&search=1315+diamond+st" }, "geometry": { "type": "Point", "coordinates": [ -122.4356824, 37.7468929 ] } },
{ "type": "Feature", "properties": { "address": "1315 Page St.", "who": "Rodrigo Santos", "total": 1, "url": "https://sfplanninggis.org/pim/?tab=Property&search=1315+page+st" }, "geometry": { "type": "Point", "coordinates": [ -122.4425019, 37.7713516 ] } },
{ "type": "Feature", "properties": { "address": "132 Albion St.", "who": "Rodrigo Santos", "total": 1, "url": "https://sfplanninggis.org/pim/?tab=Property&search=132+albion+st" }, "geometry": { "type": "Point", "coordinates": [ -122.423035, 37.764228 ] } },
{ "type": "Feature", "properties": { "address": "132 Dorado Tr.", "who": "Rodrigo Santos", "total": 1, "url": "https://sfplanninggis.org/pim/?tab=Property&search=132+dorado+tr" }, "geometry": { "type": "Point", "coordinates": [ -122.461165, 37.7271068 ] } },
{ "type": "Feature", "properties": { "address": "132 Mary Teresa St.", "who": "Rodrigo Santos", "total": 1, "url": "https://sfplanninggis.org/pim/?tab=Property&search=132+mary+teresa+st" }, "geometry": { "type": "Point", "coordinates": [ -122.3985761, 37.7137004 ] } },
{ "type": "Feature", "properties": { "address": "1320 California St.", "who": "Rodrigo Santos", "total": 1, "url": "https://sfplanninggis.org/pim/?tab=Property&search=1320+california+st" }, "geometry": { "type": "Point", "coordinates": [ -122.4162506, 37.7914176 ] } },
{ "type": "Feature", "properties": { "address": "1320 Sanchez St.", "who": "Rodrigo Santos", "total": 1, "url": "https://sfplanninggis.org/pim/?tab=Property&search=1320+sanchez+st" }, "geometry": { "type": "Point", "coordinates": [ -122.429615, 37.7479886 ] } },
{ "type": "Feature", "properties": { "address": "1320 Taylor St.", "who": "Rudy Pada<br>Rodrigo Santos", "total": 2, "url": "https://sfplanninggis.org/pim/?tab=Property&search=1320+taylor+st" }, "geometry": { "type": "Point", "coordinates": [ -122.412726, 37.794695 ] } },
{ "type": "Feature", "properties": { "address": "1321 San Bruno Ave.", "who": "Rodrigo Santos", "total": 1, "url": "https://sfplanninggis.org/pim/?tab=Property&search=1321+san+bruno+ave" }, "geometry": { "type": "Point", "coordinates": [ -122.404185, 37.7528242 ] } },
{ "type": "Feature", "properties": { "address": "1325 10th Ave.", "who": "Rodrigo Santos", "total": 1, "url": "https://sfplanninggis.org/pim/?tab=Property&search=1325+10th+ave" }, "geometry": { "type": "Point", "coordinates": [ -122.467676, 37.76349 ] } },
{ "type": "Feature", "properties": { "address": "1327 48th Ave.", "who": "Rodrigo Santos", "total": 1, "url": "https://sfplanninggis.org/pim/?tab=Property&search=1327+48th+ave" }, "geometry": { "type": "Point", "coordinates": [ -122.5083446, 37.7616262 ] } },
{ "type": "Feature", "properties": { "address": "1329 07th Ave.", "who": "Rudy Pada<br>Rodrigo Santos", "total": 2, "url": "https://sfplanninggis.org/pim/?tab=Property&search=1329+07th+ave" }, "geometry": { "type": "Point", "coordinates": [ -122.4644598, 37.7634879 ] } },
{ "type": "Feature", "properties": { "address": "133 29th St.", "who": "Rodrigo Santos", "total": 1, "url": "https://sfplanninggis.org/pim/?tab=Property&search=133+29th+st" }, "geometry": { "type": "Point", "coordinates": [ -122.4231781, 37.7437374 ] } },
{ "type": "Feature", "properties": { "address": "133 Bertita St.", "who": "Rodrigo Santos", "total": 1, "url": "https://sfplanninggis.org/pim/?tab=Property&search=133+bertita+st" }, "geometry": { "type": "Point", "coordinates": [ -122.4396105, 37.7190685 ] } },
{ "type": "Feature", "properties": { "address": "1330 Cole St.", "who": "Rodrigo Santos", "total": 1, "url": "https://sfplanninggis.org/pim/?tab=Property&search=1330+cole+st" }, "geometry": { "type": "Point", "coordinates": [ -122.4490018, 37.7620876 ] } },
{ "type": "Feature", "properties": { "address": "1333 South Van Ness Ave.", "who": "Rodrigo Santos", "total": 1, "url": "https://sfplanninggis.org/pim/?tab=Property&search=1333+south+van+ness+ave" }, "geometry": { "type": "Point", "coordinates": [ -122.416025, 37.7518517 ] } },
{ "type": "Feature", "properties": { "address": "1333 Waller St.", "who": "Bernie Curran<br>Rodrigo Santos", "total": 2, "url": "https://sfplanninggis.org/pim/?tab=Property&search=1333+waller+st" }, "geometry": { "type": "Point", "coordinates": [ -122.4456917, 37.76903 ] } },
{ "type": "Feature", "properties": { "address": "1336 25th Ave.", "who": "Rodrigo Santos", "total": 1, "url": "https://sfplanninggis.org/pim/?tab=Property&search=1336+25th+ave" }, "geometry": { "type": "Point", "coordinates": [ -122.483177, 37.7626009 ] } },
{ "type": "Feature", "properties": { "address": "134 Alhambra St.", "who": "Rodrigo Santos", "total": 1, "url": "https://sfplanninggis.org/pim/?tab=Property&search=134+alhambra+st" }, "geometry": { "type": "Point", "coordinates": [ -122.4387617, 37.8022913 ] } },
{ "type": "Feature", "properties": { "address": "134 Grattan St.", "who": "Rodrigo Santos", "total": 1, "url": "https://sfplanninggis.org/pim/?tab=Property&search=134+grattan+st" }, "geometry": { "type": "Point", "coordinates": [ -122.4503404, 37.764027 ] } },
{ "type": "Feature", "properties": { "address": "1340 Natoma St.", "who": "Rudy Pada<br>Rodrigo Santos", "total": 2, "url": "https://sfplanninggis.org/pim/?tab=Property&search=1340+natoma+st" }, "geometry": { "type": "Point", "coordinates": [ -122.4187104, 37.7676706 ] } },
{ "type": "Feature", "properties": { "address": "1341 Stanyan St.", "who": "Rodrigo Santos", "total": 1, "url": "https://sfplanninggis.org/pim/?tab=Property&search=1341+stanyan+st" }, "geometry": { "type": "Point", "coordinates": [ -122.4517011, 37.7589229 ] } },
{ "type": "Feature", "properties": { "address": "1342 Funston Ave.", "who": "Rudy Pada<br>Rodrigo Santos", "total": 2, "url": "https://sfplanninggis.org/pim/?tab=Property&search=1342+funston+ave" }, "geometry": { "type": "Point", "coordinates": [ -122.4703741, 37.7630335 ] } },
{ "type": "Feature", "properties": { "address": "1344 Alabama St.", "who": "Cyril Yu<br>Rodrigo Santos", "total": 2, "url": "https://sfplanninggis.org/pim/?tab=Property&search=1344+alabama+st" }, "geometry": { "type": "Point", "coordinates": [ -122.4109663, 37.750098 ] } },
{ "type": "Feature", "properties": { "address": "1346 46th Ave.", "who": "Cyril Yu<br>Rodrigo Santos", "total": 2, "url": "https://sfplanninggis.org/pim/?tab=Property&search=1346+46th+ave" }, "geometry": { "type": "Point", "coordinates": [ -122.5057989, 37.7614169 ] } },
{ "type": "Feature", "properties": { "address": "135 06th St.", "who": "Rudy Pada<br>Rodrigo Santos", "total": 2, "url": "https://sfplanninggis.org/pim/?tab=Property&search=135+06th+st" }, "geometry": { "type": "Point", "coordinates": [ -122.4079032, 37.7806623 ] } },
{ "type": "Feature", "properties": { "address": "135 Edgewood Ave.", "who": "Rodrigo Santos", "total": 1, "url": "https://sfplanninggis.org/pim/?tab=Property&search=135+edgewood+ave" }, "geometry": { "type": "Point", "coordinates": [ -122.4553014, 37.7629333 ] } },
{ "type": "Feature", "properties": { "address": "135 Kiska Rd.", "who": "Rodrigo Santos", "total": 1, "url": "https://sfplanninggis.org/pim/?tab=Property&search=135+kiska+rd" }, "geometry": { "type": "Point", "coordinates": [ -122.3780088, 37.729838099999988 ] } },
{ "type": "Feature", "properties": { "address": "135 Townsend St.", "who": "Cyril Yu<br>Rodrigo Santos", "total": 2, "url": "https://sfplanninggis.org/pim/?tab=Property&search=135+townsend+st" }, "geometry": { "type": "Point", "coordinates": [ -122.3912197, 37.7798868 ] } },
{ "type": "Feature", "properties": { "address": "135 Wetmore St.", "who": "Rudy Pada<br>Rodrigo Santos", "total": 2, "url": "https://sfplanninggis.org/pim/?tab=Property&search=135+wetmore+st" }, "geometry": { "type": "Point", "coordinates": [ -122.4106367, 37.7941668 ] } },
{ "type": "Feature", "properties": { "address": "1350 Thomas Ave.", "who": "Rodrigo Santos", "total": 1, "url": "https://sfplanninggis.org/pim/?tab=Property&search=1350+thomas+ave" }, "geometry": { "type": "Point", "coordinates": [ -122.3865273, 37.7279644 ] } },
{ "type": "Feature", "properties": { "address": "1352 Thomas Ave.", "who": "Rodrigo Santos", "total": 1, "url": "https://sfplanninggis.org/pim/?tab=Property&search=1352+thomas+ave" }, "geometry": { "type": "Point", "coordinates": [ -122.3866444, 37.7280445 ] } },
{ "type": "Feature", "properties": { "address": "1355 Pacific Ave.", "who": "Rodrigo Santos", "total": 1, "url": "https://sfplanninggis.org/pim/?tab=Property&search=1355+pacific+ave" }, "geometry": { "type": "Point", "coordinates": [ -122.4175701, 37.7953364 ] } },
{ "type": "Feature", "properties": { "address": "1357 Masonic Ave.", "who": "Rodrigo Santos", "total": 1, "url": "https://sfplanninggis.org/pim/?tab=Property&search=1357+masonic+ave" }, "geometry": { "type": "Point", "coordinates": [ -122.4451535, 37.7681854 ] } },
{ "type": "Feature", "properties": { "address": "1357 Washington St.", "who": "Rodrigo Santos", "total": 1, "url": "https://sfplanninggis.org/pim/?tab=Property&search=1357+washington+st" }, "geometry": { "type": "Point", "coordinates": [ -122.415707, 37.793778499999988 ] } },
{ "type": "Feature", "properties": { "address": "1359 Minna St.", "who": "Rodrigo Santos", "total": 1, "url": "https://sfplanninggis.org/pim/?tab=Property&search=1359+minna+st" }, "geometry": { "type": "Point", "coordinates": [ -122.418997, 37.7673818 ] } },
{ "type": "Feature", "properties": { "address": "136 27th Ave.", "who": "Rodrigo Santos", "total": 1, "url": "https://sfplanninggis.org/pim/?tab=Property&search=136+27th+ave" }, "geometry": { "type": "Point", "coordinates": [ -122.487112, 37.7868236 ] } },
{ "type": "Feature", "properties": { "address": "136 Marview Wy.", "who": "Rodrigo Santos", "total": 1, "url": "https://sfplanninggis.org/pim/?tab=Property&search=136+marview+wy" }, "geometry": { "type": "Point", "coordinates": [ -122.448471, 37.7545453 ] } },
{ "type": "Feature", "properties": { "address": "136 Rivoli St.", "who": "Rodrigo Santos", "total": 1, "url": "https://sfplanninggis.org/pim/?tab=Property&search=136+rivoli+st" }, "geometry": { "type": "Point", "coordinates": [ -122.4500191, 37.7626305 ] } },
{ "type": "Feature", "properties": { "address": "1360 Dolores St.", "who": "Bernie Curran<br>Rodrigo Santos", "total": 2, "url": "https://sfplanninggis.org/pim/?tab=Property&search=1360+dolores+st" }, "geometry": { "type": "Point", "coordinates": [ -122.4250363, 37.747411199999988 ] } },
{ "type": "Feature", "properties": { "address": "1360 Jackson St.", "who": "Rodrigo Santos", "total": 1, "url": "https://sfplanninggis.org/pim/?tab=Property&search=1360+jackson+st" }, "geometry": { "type": "Point", "coordinates": [ -122.4173545, 37.7948444 ] } },
{ "type": "Feature", "properties": { "address": "1360 Lyon St.", "who": "Rodrigo Santos", "total": 1, "url": "https://sfplanninggis.org/pim/?tab=Property&search=1360+lyon+st" }, "geometry": { "type": "Point", "coordinates": [ -122.4444016, 37.7834526 ] } },
{ "type": "Feature", "properties": { "address": "1362 Florida St.", "who": "Rudy Pada<br>Cyril Yu<br>Rodrigo Santos", "total": 3, "url": "https://sfplanninggis.org/pim/?tab=Property&search=1362+florida+st" }, "geometry": { "type": "Point", "coordinates": [ -122.4100506, 37.7501978 ] } },
{ "type": "Feature", "properties": { "address": "1363 Green St.", "who": "Rodrigo Santos", "total": 1, "url": "https://sfplanninggis.org/pim/?tab=Property&search=1363+green+st" }, "geometry": { "type": "Point", "coordinates": [ -122.421537, 37.7977012 ] } },
{ "type": "Feature", "properties": { "address": "1364 Natoma St.", "who": "Rodrigo Santos", "total": 1, "url": "https://sfplanninggis.org/pim/?tab=Property&search=1364+natoma+st" }, "geometry": { "type": "Point", "coordinates": [ -122.418656, 37.7673208 ] } },
{ "type": "Feature", "properties": { "address": "1364 Union St.", "who": "Rudy Pada<br>Rodrigo Santos", "total": 2, "url": "https://sfplanninggis.org/pim/?tab=Property&search=1364+union+st" }, "geometry": { "type": "Point", "coordinates": [ -122.4217564, 37.7989779 ] } },
{ "type": "Feature", "properties": { "address": "1365 Green St.", "who": "Rodrigo Santos", "total": 1, "url": "https://sfplanninggis.org/pim/?tab=Property&search=1365+green+st" }, "geometry": { "type": "Point", "coordinates": [ -122.4215063, 37.7977619 ] } },
{ "type": "Feature", "properties": { "address": "1365 Portola Dr.", "who": "Rodrigo Santos", "total": 1, "url": "https://sfplanninggis.org/pim/?tab=Property&search=1365+portola+dr" }, "geometry": { "type": "Point", "coordinates": [ -122.4652227, 37.7392525 ] } },
{ "type": "Feature", "properties": { "address": "1366 Hayes St.", "who": "Rodrigo Santos", "total": 1, "url": "https://sfplanninggis.org/pim/?tab=Property&search=1366+hayes+st" }, "geometry": { "type": "Point", "coordinates": [ -122.4389561, 37.7750671 ] } },
{ "type": "Feature", "properties": { "address": "1367 Haight St.", "who": "Rodrigo Santos", "total": 1, "url": "https://sfplanninggis.org/pim/?tab=Property&search=1367+haight+st" }, "geometry": { "type": "Point", "coordinates": [ -122.4446713, 37.7699738 ] } },
{ "type": "Feature", "properties": { "address": "1367 Rhode Island St.", "who": "Bernie Curran<br>Rodrigo Santos", "total": 2, "url": "https://sfplanninggis.org/pim/?tab=Property&search=1367+rhode+island+st" }, "geometry": { "type": "Point", "coordinates": [ -122.401075, 37.752436 ] } },
{ "type": "Feature", "properties": { "address": "137 Cook St.", "who": "Rodrigo Santos", "total": 1, "url": "https://sfplanninggis.org/pim/?tab=Property&search=137+cook+st" }, "geometry": { "type": "Point", "coordinates": [ -122.4522052, 37.7812061 ] } },
{ "type": "Feature", "properties": { "address": "137 Duboce Ave.", "who": "Rodrigo Santos", "total": 1, "url": "https://sfplanninggis.org/pim/?tab=Property&search=137+duboce+ave" }, "geometry": { "type": "Point", "coordinates": [ -122.4232711, 37.7697104 ] } },
{ "type": "Feature", "properties": { "address": "137 Granville Wy.", "who": "Rodrigo Santos", "total": 1, "url": "https://sfplanninggis.org/pim/?tab=Property&search=137+granville+wy" }, "geometry": { "type": "Point", "coordinates": [ -122.461619, 37.741548 ] } },
{ "type": "Feature", "properties": { "address": "137 Noe St.", "who": "Rodrigo Santos", "total": 1, "url": "https://sfplanninggis.org/pim/?tab=Property&search=137+noe+st" }, "geometry": { "type": "Point", "coordinates": [ -122.4332449, 37.766974100000013 ] } },
{ "type": "Feature", "properties": { "address": "1370 Florida St.", "who": "Rodrigo Santos", "total": 1, "url": "https://sfplanninggis.org/pim/?tab=Property&search=1370+florida+st" }, "geometry": { "type": "Point", "coordinates": [ -122.4100813, 37.750056 ] } },
{ "type": "Feature", "properties": { "address": "1370 Noriega St.", "who": "Rodrigo Santos", "total": 1, "url": "https://sfplanninggis.org/pim/?tab=Property&search=1370+noriega+st" }, "geometry": { "type": "Point", "coordinates": [ -122.4783678, 37.7544207 ] } },
{ "type": "Feature", "properties": { "address": "1370 Taylor St.", "who": "Cyril Yu<br>Rodrigo Santos", "total": 2, "url": "https://sfplanninggis.org/pim/?tab=Property&search=1370+taylor+st" }, "geometry": { "type": "Point", "coordinates": [ -122.4128639, 37.7949826 ] } },
{ "type": "Feature", "properties": { "address": "1370 Washington St.", "who": "Rodrigo Santos", "total": 1, "url": "https://sfplanninggis.org/pim/?tab=Property&search=1370+washington+st" }, "geometry": { "type": "Point", "coordinates": [ -122.4158224, 37.7941434 ] } },
{ "type": "Feature", "properties": { "address": "1372 Union St.", "who": "Rudy Pada<br>Rodrigo Santos", "total": 2, "url": "https://sfplanninggis.org/pim/?tab=Property&search=1372+union+st" }, "geometry": { "type": "Point", "coordinates": [ -122.4218096, 37.799006899999988 ] } },
{ "type": "Feature", "properties": { "address": "1374 Jackson St.", "who": "Rodrigo Santos", "total": 1, "url": "https://sfplanninggis.org/pim/?tab=Property&search=1374+jackson+st" }, "geometry": { "type": "Point", "coordinates": [ -122.4176807, 37.7948 ] } },
{ "type": "Feature", "properties": { "address": "1376 Natoma St.", "who": "Bernie Curran<br>Rodrigo Santos", "total": 2, "url": "https://sfplanninggis.org/pim/?tab=Property&search=1376+natoma+st" }, "geometry": { "type": "Point", "coordinates": [ -122.4185767, 37.7671946 ] } },
{ "type": "Feature", "properties": { "address": "1378 20th Ave.", "who": "Rodrigo Santos", "total": 1, "url": "https://sfplanninggis.org/pim/?tab=Property&search=1378+20th+ave" }, "geometry": { "type": "Point", "coordinates": [ -122.4778372, 37.762102 ] } },
{ "type": "Feature", "properties": { "address": "138 06th St.", "who": "Cyril Yu<br>Rodrigo Santos", "total": 2, "url": "https://sfplanninggis.org/pim/?tab=Property&search=138+06th+st" }, "geometry": { "type": "Point", "coordinates": [ -122.4081836, 37.7802918 ] } },
{ "type": "Feature", "properties": { "address": "1380 Filbert St.", "who": "Rodrigo Santos", "total": 1, "url": "https://sfplanninggis.org/pim/?tab=Property&search=1380+filbert+st" }, "geometry": { "type": "Point", "coordinates": [ -122.4221937, 37.7999242 ] } },
{ "type": "Feature", "properties": { "address": "1385 Portola Dr.", "who": "Rodrigo Santos", "total": 1, "url": "https://sfplanninggis.org/pim/?tab=Property&search=1385+portola+dr" }, "geometry": { "type": "Point", "coordinates": [ -122.4655433, 37.7392747 ] } },
{ "type": "Feature", "properties": { "address": "139 Byxbee St.", "who": "Rodrigo Santos", "total": 1, "url": "https://sfplanninggis.org/pim/?tab=Property&search=139+byxbee+st" }, "geometry": { "type": "Point", "coordinates": [ -122.4700613, 37.7168291 ] } },
{ "type": "Feature", "properties": { "address": "139 Hugo St.", "who": "Rudy Pada<br>Rodrigo Santos", "total": 2, "url": "https://sfplanninggis.org/pim/?tab=Property&search=139+hugo+st" }, "geometry": { "type": "Point", "coordinates": [ -122.4597195, 37.7651593 ] } },
{ "type": "Feature", "properties": { "address": "1391 14th Ave.", "who": "Rodrigo Santos", "total": 1, "url": "https://sfplanninggis.org/pim/?tab=Property&search=1391+14th+ave" }, "geometry": { "type": "Point", "coordinates": [ -122.4717347, 37.7621588 ] } },
{ "type": "Feature", "properties": { "address": "1391 Clayton St.", "who": "Rudy Pada<br>Rodrigo Santos", "total": 2, "url": "https://sfplanninggis.org/pim/?tab=Property&search=1391+clayton+st" }, "geometry": { "type": "Point", "coordinates": [ -122.4466575, 37.7589751 ] } },
{ "type": "Feature", "properties": { "address": "1393 Guerrero St.", "who": "Rodrigo Santos", "total": 1, "url": "https://sfplanninggis.org/pim/?tab=Property&search=1393+guerrero+st" }, "geometry": { "type": "Point", "coordinates": [ -122.4224189, 37.748986 ] } },
{ "type": "Feature", "properties": { "address": "1398 Noe St.", "who": "Cyril Yu<br>Rodrigo Santos", "total": 2, "url": "https://sfplanninggis.org/pim/?tab=Property&search=1398+noe+st" }, "geometry": { "type": "Point", "coordinates": [ -122.4316125, 37.7467657 ] } },
{ "type": "Feature", "properties": { "address": "14 Richland Ave.", "who": "Rodrigo Santos", "total": 1, "url": "https://sfplanninggis.org/pim/?tab=Property&search=14+richland+ave" }, "geometry": { "type": "Point", "coordinates": [ -122.426629, 37.7357868 ] } },
{ "type": "Feature", "properties": { "address": "140 Carmel St.", "who": "Rodrigo Santos", "total": 1, "url": "https://sfplanninggis.org/pim/?tab=Property&search=140+carmel+st" }, "geometry": { "type": "Point", "coordinates": [ -122.449729, 37.761049 ] } },
{ "type": "Feature", "properties": { "address": "140 Landers St.", "who": "Bernie Curran<br>Rodrigo Santos", "total": 2, "url": "https://sfplanninggis.org/pim/?tab=Property&search=140+landers+st" }, "geometry": { "type": "Point", "coordinates": [ -122.4279319, 37.7653846 ] } },
{ "type": "Feature", "properties": { "address": "140 Mary Teresa St.", "who": "Rodrigo Santos", "total": 1, "url": "https://sfplanninggis.org/pim/?tab=Property&search=140+mary+teresa+st" }, "geometry": { "type": "Point", "coordinates": [ -122.3987203, 37.7137588 ] } },
{ "type": "Feature", "properties": { "address": "140 Sussex St.", "who": "Rodrigo Santos", "total": 1, "url": "https://sfplanninggis.org/pim/?tab=Property&search=140+sussex+st" }, "geometry": { "type": "Point", "coordinates": [ -122.4354769, 37.736976 ] } },
{ "type": "Feature", "properties": { "address": "1400 35th Ave.", "who": "Rodrigo Santos", "total": 1, "url": "https://sfplanninggis.org/pim/?tab=Property&search=1400+35th+ave" }, "geometry": { "type": "Point", "coordinates": [ -122.4939321, 37.7607877 ] } },
{ "type": "Feature", "properties": { "address": "1400 Tennessee St.", "who": "Cyril Yu<br>Rodrigo Santos", "total": 2, "url": "https://sfplanninggis.org/pim/?tab=Property&search=1400+tennessee+st" }, "geometry": { "type": "Point", "coordinates": [ -122.3894705, 37.7538249 ] } },
{ "type": "Feature", "properties": { "address": "1405 Indiana St.", "who": "Cyril Yu<br>Rodrigo Santos", "total": 2, "url": "https://sfplanninggis.org/pim/?tab=Property&search=1405+indiana+st" }, "geometry": { "type": "Point", "coordinates": [ -122.3904663, 37.752494899999988 ] } },
{ "type": "Feature", "properties": { "address": "1405 Mcallister St.", "who": "Rodrigo Santos", "total": 1, "url": "https://sfplanninggis.org/pim/?tab=Property&search=1405+mcallister+st" }, "geometry": { "type": "Point", "coordinates": [ -122.4353136, 37.7780301 ] } },
{ "type": "Feature", "properties": { "address": "1405 Van Dyke Ave.", "who": "Rodrigo Santos", "total": 1, "url": "https://sfplanninggis.org/pim/?tab=Property&search=1405+van+dyke+ave" }, "geometry": { "type": "Point", "coordinates": [ -122.3890485, 37.7269494 ] } },
{ "type": "Feature", "properties": { "address": "1408 Douglass St.", "who": "Rodrigo Santos", "total": 1, "url": "https://sfplanninggis.org/pim/?tab=Property&search=1408+douglass+st" }, "geometry": { "type": "Point", "coordinates": [ -122.4381194, 37.7452401 ] } },
{ "type": "Feature", "properties": { "address": "141 Industrial St.", "who": "Rodrigo Santos", "total": 1, "url": "https://sfplanninggis.org/pim/?tab=Property&search=141+industrial+st" }, "geometry": { "type": "Point", "coordinates": [ -122.4023486, 37.7388821 ] } },
{ "type": "Feature", "properties": { "address": "1410 Noriega St.", "who": "Rodrigo Santos", "total": 1, "url": "https://sfplanninggis.org/pim/?tab=Property&search=1410+noriega+st" }, "geometry": { "type": "Point", "coordinates": [ -122.4789636, 37.7542727 ] } },
{ "type": "Feature", "properties": { "address": "1410 Stanyan St.", "who": "Rodrigo Santos", "total": 1, "url": "https://sfplanninggis.org/pim/?tab=Property&search=1410+stanyan+st" }, "geometry": { "type": "Point", "coordinates": [ -122.4510672, 37.7584659 ] } },
{ "type": "Feature", "properties": { "address": "1412 Mcallister St.", "who": "Rodrigo Santos", "total": 1, "url": "https://sfplanninggis.org/pim/?tab=Property&search=1412+mcallister+st" }, "geometry": { "type": "Point", "coordinates": [ -122.4354741, 37.7782684 ] } },
{ "type": "Feature", "properties": { "address": "1412 Noe St.", "who": "Rodrigo Santos", "total": 1, "url": "https://sfplanninggis.org/pim/?tab=Property&search=1412+noe+st" }, "geometry": { "type": "Point", "coordinates": [ -122.4315618, 37.7463725 ] } },
{ "type": "Feature", "properties": { "address": "1414 Douglass St.", "who": "Rodrigo Santos", "total": 1, "url": "https://sfplanninggis.org/pim/?tab=Property&search=1414+douglass+st" }, "geometry": { "type": "Point", "coordinates": [ -122.4380943, 37.7451677 ] } },
{ "type": "Feature", "properties": { "address": "1417 Valencia St.", "who": "Rodrigo Santos", "total": 1, "url": "https://sfplanninggis.org/pim/?tab=Property&search=1417+valencia+st" }, "geometry": { "type": "Point", "coordinates": [ -122.4200411, 37.7502024 ] } },
{ "type": "Feature", "properties": { "address": "142 Alpine Tr.", "who": "Rodrigo Santos", "total": 1, "url": "https://sfplanninggis.org/pim/?tab=Property&search=142+alpine+tr" }, "geometry": { "type": "Point", "coordinates": [ -122.437635, 37.768151 ] } },
{ "type": "Feature", "properties": { "address": "142 Freelon St.", "who": "Rodrigo Santos", "total": 1, "url": "https://sfplanninggis.org/pim/?tab=Property&search=142+freelon+st" }, "geometry": { "type": "Point", "coordinates": [ -122.397832, 37.778364 ] } },
{ "type": "Feature", "properties": { "address": "1424 Polk St.", "who": "Rodrigo Santos", "total": 1, "url": "https://sfplanninggis.org/pim/?tab=Property&search=1424+polk+st" }, "geometry": { "type": "Point", "coordinates": [ -122.4203354, 37.7901504 ] } },
{ "type": "Feature", "properties": { "address": "143 28th St.", "who": "Rodrigo Santos", "total": 1, "url": "https://sfplanninggis.org/pim/?tab=Property&search=143+28th+st" }, "geometry": { "type": "Point", "coordinates": [ -122.425585, 37.7452163 ] } },
{ "type": "Feature", "properties": { "address": "143 Varennes St.", "who": "Rodrigo Santos", "total": 1, "url": "https://sfplanninggis.org/pim/?tab=Property&search=143+varennes+st" }, "geometry": { "type": "Point", "coordinates": [ -122.4070486, 37.8012767 ] } },
{ "type": "Feature", "properties": { "address": "1430 09th Ave.", "who": "Rodrigo Santos", "total": 1, "url": "https://sfplanninggis.org/pim/?tab=Property&search=1430+09th+ave" }, "geometry": { "type": "Point", "coordinates": [ -122.4659749, 37.7615662 ] } },
{ "type": "Feature", "properties": { "address": "1430 California St.", "who": "Rodrigo Santos", "total": 1, "url": "https://sfplanninggis.org/pim/?tab=Property&search=1430+california+st" }, "geometry": { "type": "Point", "coordinates": [ -122.418012, 37.7912109 ] } },