{
"type": "FeatureCollection",
"features": [
{ "type": "Feature", "properties": { "address": "1 Anzavista Ave.", "who": "Cyril Yu<br>Bernie Curran", "total": 2 }, "geometry": { "type": "Point", "coordinates": [ -122.4420295, 37.7796483 ] } },
{ "type": "Feature", "properties": { "address": "1 Avenue Of The Palms", "who": "Cyril Yu", "total": 1 }, "geometry": { "type": "Point", "coordinates": [ -122.370686, 37.8172234 ] } },
{ "type": "Feature", "properties": { "address": "1 Baker St.", "who": "Cyril Yu", "total": 1 }, "geometry": { "type": "Point", "coordinates": [ -122.4405865, 37.7710043 ] } },
{ "type": "Feature", "properties": { "address": "1 Bayview Park Rd.", "who": "Cyril Yu", "total": 1 }, "geometry": { "type": "Point", "coordinates": [ -122.3947456, 37.716251799999988 ] } },
{ "type": "Feature", "properties": { "address": "1 Bernice St.", "who": "Cyril Yu", "total": 1 }, "geometry": { "type": "Point", "coordinates": [ -122.4139902, 37.7696998 ] } },
{ "type": "Feature", "properties": { "address": "1 Bush St.", "who": "Rudy Pada<br>Cyril Yu", "total": 2 }, "geometry": { "type": "Point", "coordinates": [ -122.4000648, 37.7911014 ] } },
{ "type": "Feature", "properties": { "address": "1 California St.", "who": "Cyril Yu", "total": 1 }, "geometry": { "type": "Point", "coordinates": [ -122.3967727, 37.7933931 ] } },
{ "type": "Feature", "properties": { "address": "1 Castro St.", "who": "Cyril Yu", "total": 1 }, "geometry": { "type": "Point", "coordinates": [ -122.4358124, 37.7680156 ] } },
{ "type": "Feature", "properties": { "address": "1 Church St.", "who": "Cyril Yu", "total": 1 }, "geometry": { "type": "Point", "coordinates": [ -122.42867, 37.7699592 ] } },
{ "type": "Feature", "properties": { "address": "1 Daniel Burnham Ct.", "who": "Rudy Pada<br>Cyril Yu<br>Bernie Curran", "total": 3 }, "geometry": { "type": "Point", "coordinates": [ -122.4219061, 37.786783 ] } },
{ "type": "Feature", "properties": { "address": "1 Edna St.", "who": "Cyril Yu", "total": 1 }, "geometry": { "type": "Point", "coordinates": [ -122.4468344, 37.726788 ] } },
{ "type": "Feature", "properties": { "address": "1 Embarcadero Center", "who": "Rudy Pada<br>Cyril Yu<br>Bernie Curran<br>Rodrigo Santos", "total": 4 }, "geometry": { "type": "Point", "coordinates": [ -122.3995845, 37.794369499999988 ] } },
{ "type": "Feature", "properties": { "address": "1 Franklin St.", "who": "Cyril Yu", "total": 1 }, "geometry": { "type": "Point", "coordinates": [ -122.4211097, 37.7744473 ] } },
{ "type": "Feature", "properties": { "address": "1 Front St.", "who": "Rudy Pada<br>Cyril Yu", "total": 2 }, "geometry": { "type": "Point", "coordinates": [ -122.3989854, 37.791819800000013 ] } },
{ "type": "Feature", "properties": { "address": "1 Grant Ave.", "who": "Cyril Yu", "total": 1 }, "geometry": { "type": "Point", "coordinates": [ -122.4051806, 37.7870125 ] } },
{ "type": "Feature", "properties": { "address": "1 Harrison St.", "who": "Cyril Yu", "total": 1 }, "geometry": { "type": "Point", "coordinates": [ -122.3888066, 37.7890659 ] } },
{ "type": "Feature", "properties": { "address": "1 Henry Adams St.", "who": "Cyril Yu", "total": 1 }, "geometry": { "type": "Point", "coordinates": [ -122.4034142, 37.7690435 ] } },
{ "type": "Feature", "properties": { "address": "1 Jones St.", "who": "Cyril Yu<br>Rodrigo Santos", "total": 2 }, "geometry": { "type": "Point", "coordinates": [ -122.4124596, 37.7813691 ] } },
{ "type": "Feature", "properties": { "address": "1 La Avanzada", "who": "Cyril Yu<br>Bernie Curran", "total": 2 }, "geometry": { "type": "Point", "coordinates": [ -122.4527642, 37.7552213 ] } },
{ "type": "Feature", "properties": { "address": "1 Madera St.", "who": "Cyril Yu", "total": 1 }, "geometry": { "type": "Point", "coordinates": [ -122.3982575, 37.7558164 ] } },
{ "type": "Feature", "properties": { "address": "1 Majestic Ave.", "who": "Cyril Yu", "total": 1 }, "geometry": { "type": "Point", "coordinates": [ -122.4505941, 37.7182569 ] } },
{ "type": "Feature", "properties": { "address": "1 Maritime Pz.", "who": "Rudy Pada<br>Cyril Yu", "total": 2 }, "geometry": { "type": "Point", "coordinates": [ -122.3992066, 37.7956599 ] } },
{ "type": "Feature", "properties": { "address": "1 Market St.", "who": "Rudy Pada<br>Cyril Yu", "total": 2 }, "geometry": { "type": "Point", "coordinates": [ -122.3945839, 37.7935071 ] } },
{ "type": "Feature", "properties": { "address": "1 Mccormick St.", "who": "Cyril Yu<br>Bernie Curran", "total": 2 }, "geometry": { "type": "Point", "coordinates": [ -122.419185, 37.7949328 ] } },
{ "type": "Feature", "properties": { "address": "1 Mclaren Ave.", "who": "Cyril Yu", "total": 1 }, "geometry": { "type": "Point", "coordinates": [ -122.4886264, 37.786124099999988 ] } },
{ "type": "Feature", "properties": { "address": "1 Mercato Ct.", "who": "Cyril Yu", "total": 1 }, "geometry": { "type": "Point", "coordinates": [ -122.4425879, 37.7352074 ] } },
{ "type": "Feature", "properties": { "address": "1 Montgomery St.", "who": "Cyril Yu", "total": 1 }, "geometry": { "type": "Point", "coordinates": [ -122.4022503, 37.7892447 ] } },
{ "type": "Feature", "properties": { "address": "1 Morningside Dr.", "who": "Cyril Yu<br>Bernie Curran", "total": 2 }, "geometry": { "type": "Point", "coordinates": [ -122.4925615, 37.7336308 ] } },
{ "type": "Feature", "properties": { "address": "1 Peter Yorke Wy.", "who": "Cyril Yu", "total": 1 }, "geometry": { "type": "Point", "coordinates": [ -122.4238528, 37.785663199999988 ] } },
{ "type": "Feature", "properties": { "address": "1 Post St.", "who": "Rudy Pada<br>Cyril Yu", "total": 2 }, "geometry": { "type": "Point", "coordinates": [ -122.4027468, 37.7887655 ] } },
{ "type": "Feature", "properties": { "address": "1 Powell St.", "who": "Cyril Yu", "total": 1 }, "geometry": { "type": "Point", "coordinates": [ -122.4082339, 37.7846968 ] } },
{ "type": "Feature", "properties": { "address": "1 Presidio Ave.", "who": "Cyril Yu", "total": 1 }, "geometry": { "type": "Point", "coordinates": [ -122.4479053, 37.7918078 ] } },
{ "type": "Feature", "properties": { "address": "1 Raycliff Tr.", "who": "Rudy Pada<br>Cyril Yu", "total": 2 }, "geometry": { "type": "Point", "coordinates": [ -122.4428933, 37.7925388 ] } },
{ "type": "Feature", "properties": { "address": "1 Richardson Ave.", "who": "Cyril Yu", "total": 1 }, "geometry": { "type": "Point", "coordinates": [ -122.4455016, 37.7989366 ] } },
{ "type": "Feature", "properties": { "address": "1 Roanoke St.", "who": "Rudy Pada<br>Cyril Yu", "total": 2 }, "geometry": { "type": "Point", "coordinates": [ -122.4311747, 37.7366327 ] } },
{ "type": "Feature", "properties": { "address": "1 San Gabriel Ave.", "who": "Cyril Yu<br>Bernie Curran", "total": 2 }, "geometry": { "type": "Point", "coordinates": [ -122.4376224, 37.729054 ] } },
{ "type": "Feature", "properties": { "address": "1 San Marcos Ave.", "who": "Cyril Yu", "total": 1 }, "geometry": { "type": "Point", "coordinates": [ -122.463907, 37.7459587 ] } },
{ "type": "Feature", "properties": { "address": "1 Sansome St.", "who": "Rudy Pada<br>Cyril Yu<br>Bernie Curran", "total": 3 }, "geometry": { "type": "Point", "coordinates": [ -122.4011537, 37.7904462 ] } },
{ "type": "Feature", "properties": { "address": "1 Sola Ave.", "who": "Cyril Yu", "total": 1 }, "geometry": { "type": "Point", "coordinates": [ -122.4603689, 37.7477182 ] } },
{ "type": "Feature", "properties": { "address": "1 South Van Ness Ave.", "who": "Cyril Yu", "total": 1 }, "geometry": { "type": "Point", "coordinates": [ -122.4189171, 37.774835 ] } },
{ "type": "Feature", "properties": { "address": "1 Stanyan St.", "who": "Cyril Yu<br>Rodrigo Santos", "total": 2 }, "geometry": { "type": "Point", "coordinates": [ -122.4564776, 37.7811931 ] } },
{ "type": "Feature", "properties": { "address": "1 Turner Tr.", "who": "Cyril Yu", "total": 1 }, "geometry": { "type": "Point", "coordinates": [ -122.3951441, 37.7558204 ] } },
{ "type": "Feature", "properties": { "address": "1 Warriors Wy.", "who": "Cyril Yu", "total": 1 }, "geometry": { "type": "Point", "coordinates": [ -122.3878772, 37.7680183 ] } },
{ "type": "Feature", "properties": { "address": "10 06th St.", "who": "Cyril Yu", "total": 1 }, "geometry": { "type": "Point", "coordinates": [ -122.4100456, 37.781873 ] } },
{ "type": "Feature", "properties": { "address": "10 Aladdin Tr.", "who": "Cyril Yu", "total": 1 }, "geometry": { "type": "Point", "coordinates": [ -122.4137245, 37.8004396 ] } },
{ "type": "Feature", "properties": { "address": "10 Argent Al.", "who": "Cyril Yu<br>Bernie Curran", "total": 2 }, "geometry": { "type": "Point", "coordinates": [ -122.443163, 37.7529401 ] } },
{ "type": "Feature", "properties": { "address": "10 Clayton St.", "who": "Cyril Yu", "total": 1 }, "geometry": { "type": "Point", "coordinates": [ -122.449369, 37.775233 ] } },
{ "type": "Feature", "properties": { "address": "10 Funston Ave.", "who": "Cyril Yu", "total": 1 }, "geometry": { "type": "Point", "coordinates": [ -122.4720166, 37.7866328 ] } },
{ "type": "Feature", "properties": { "address": "10 Hemway Tr.", "who": "Cyril Yu", "total": 1 }, "geometry": { "type": "Point", "coordinates": [ -122.4479949, 37.775864 ] } },
{ "type": "Feature", "properties": { "address": "10 Heron St.", "who": "Cyril Yu", "total": 1 }, "geometry": { "type": "Point", "coordinates": [ -122.4085481, 37.7748466 ] } },
{ "type": "Feature", "properties": { "address": "10 Nobles Al.", "who": "Cyril Yu", "total": 1 }, "geometry": { "type": "Point", "coordinates": [ -122.4072878, 37.801056 ] } },
{ "type": "Feature", "properties": { "address": "10 Olympia Wy.", "who": "Cyril Yu", "total": 1 }, "geometry": { "type": "Point", "coordinates": [ -122.4524076, 37.7513978 ] } },
{ "type": "Feature", "properties": { "address": "10 Perine Pl.", "who": "Cyril Yu", "total": 1 }, "geometry": { "type": "Point", "coordinates": [ -122.436024, 37.789207 ] } },
{ "type": "Feature", "properties": { "address": "10 Willard North St.", "who": "Cyril Yu", "total": 1 }, "geometry": { "type": "Point", "coordinates": [ -122.4567422, 37.7780529 ] } },
{ "type": "Feature", "properties": { "address": "100 01st St.", "who": "Rudy Pada<br>Cyril Yu", "total": 2 }, "geometry": { "type": "Point", "coordinates": [ -122.3974736, 37.7895085 ] } },
{ "type": "Feature", "properties": { "address": "100 09th Ave.", "who": "Cyril Yu", "total": 1 }, "geometry": { "type": "Point", "coordinates": [ -122.4677214, 37.7864012 ] } },
{ "type": "Feature", "properties": { "address": "100 Belgrave Ave.", "who": "Cyril Yu", "total": 1 }, "geometry": { "type": "Point", "coordinates": [ -122.4497095, 37.7597108 ] } },
{ "type": "Feature", "properties": { "address": "100 Bush St.", "who": "Cyril Yu", "total": 1 }, "geometry": { "type": "Point", "coordinates": [ -122.3998881, 37.7914124 ] } },
{ "type": "Feature", "properties": { "address": "100 California St.", "who": "Cyril Yu", "total": 1 }, "geometry": { "type": "Point", "coordinates": [ -122.3979713, 37.7937983 ] } },
{ "type": "Feature", "properties": { "address": "100 Channel", "who": "Cyril Yu", "total": 1 }, "geometry": { "type": "Point", "coordinates": [ -122.3903556, 37.7748528 ] } },
{ "type": "Feature", "properties": { "address": "100 Delano Ave.", "who": "Rudy Pada<br>Cyril Yu<br>Bernie Curran", "total": 3 }, "geometry": { "type": "Point", "coordinates": [ -122.4408476, 37.7265093 ] } },
{ "type": "Feature", "properties": { "address": "100 Dolores St.", "who": "Cyril Yu", "total": 1 }, "geometry": { "type": "Point", "coordinates": [ -122.4269891, 37.7677406 ] } },
{ "type": "Feature", "properties": { "address": "100 Hooper St.", "who": "Cyril Yu", "total": 1 }, "geometry": { "type": "Point", "coordinates": [ -122.398606, 37.768974 ] } },
{ "type": "Feature", "properties": { "address": "100 Larkin St.", "who": "Cyril Yu", "total": 1 }, "geometry": { "type": "Point", "coordinates": [ -122.4158888, 37.7789562 ] } },
{ "type": "Feature", "properties": { "address": "100 Montgomery St.", "who": "Rudy Pada<br>Cyril Yu", "total": 2 }, "geometry": { "type": "Point", "coordinates": [ -122.4020838, 37.7901964 ] } },
{ "type": "Feature", "properties": { "address": "100 Oxford St.", "who": "Cyril Yu", "total": 1 }, "geometry": { "type": "Point", "coordinates": [ -122.4205677, 37.7284134 ] } },
{ "type": "Feature", "properties": { "address": "100 Parker Ave.", "who": "Cyril Yu", "total": 1 }, "geometry": { "type": "Point", "coordinates": [ -122.4544011, 37.783783799999988 ] } },
{ "type": "Feature", "properties": { "address": "100 Pine St.", "who": "Rudy Pada<br>Cyril Yu<br>Bernie Curran", "total": 3 }, "geometry": { "type": "Point", "coordinates": [ -122.3989844, 37.7925848 ] } },
{ "type": "Feature", "properties": { "address": "100 Potrero Ave.", "who": "Cyril Yu", "total": 1 }, "geometry": { "type": "Point", "coordinates": [ -122.4080569, 37.7680737 ] } },
{ "type": "Feature", "properties": { "address": "100 Rivoli St.", "who": "Cyril Yu", "total": 1 }, "geometry": { "type": "Point", "coordinates": [ -122.4495326, 37.7625942 ] } },
{ "type": "Feature", "properties": { "address": "100 San Buenaventura Wy.", "who": "Cyril Yu", "total": 1 }, "geometry": { "type": "Point", "coordinates": [ -122.4656097, 37.7346189 ] } },
{ "type": "Feature", "properties": { "address": "100 Terra Vista Ave.", "who": "Cyril Yu", "total": 1 }, "geometry": { "type": "Point", "coordinates": [ -122.4438265, 37.7816945 ] } },
{ "type": "Feature", "properties": { "address": "100 The Embarcadero", "who": "Cyril Yu", "total": 1 }, "geometry": { "type": "Point", "coordinates": [ -122.3927897, 37.7932769 ] } },
{ "type": "Feature", "properties": { "address": "100 Van Ness Ave.", "who": "Rudy Pada<br>Cyril Yu", "total": 2 }, "geometry": { "type": "Point", "coordinates": [ -122.4192217, 37.7766802 ] } },
{ "type": "Feature", "properties": { "address": "100 Woodside Ave.", "who": "Cyril Yu", "total": 1 }, "geometry": { "type": "Point", "coordinates": [ -122.4570075, 37.7465195 ] } },
{ "type": "Feature", "properties": { "address": "1000 03rd St.", "who": "Cyril Yu<br>Rodrigo Santos", "total": 2 }, "geometry": { "type": "Point", "coordinates": [ -122.390239, 37.775529 ] } },
{ "type": "Feature", "properties": { "address": "1000 Brannan St.", "who": "Cyril Yu", "total": 1 }, "geometry": { "type": "Point", "coordinates": [ -122.4075259, 37.770024 ] } },
{ "type": "Feature", "properties": { "address": "1000 Evans Ave.", "who": "Cyril Yu", "total": 1 }, "geometry": { "type": "Point", "coordinates": [ -122.376784, 37.7367761 ] } },
{ "type": "Feature", "properties": { "address": "1000 Fulton St.", "who": "Cyril Yu<br>Bernie Curran", "total": 2 }, "geometry": { "type": "Point", "coordinates": [ -122.4336742, 37.777654600000012 ] } },
{ "type": "Feature", "properties": { "address": "1000 Howard St.", "who": "Cyril Yu", "total": 1 }, "geometry": { "type": "Point", "coordinates": [ -122.4076586, 37.7796995 ] } },
{ "type": "Feature", "properties": { "address": "1000 Powell St.", "who": "Rudy Pada<br>Cyril Yu", "total": 2 }, "geometry": { "type": "Point", "coordinates": [ -122.4093518, 37.7940532 ] } },
{ "type": "Feature", "properties": { "address": "1000 Sansome St.", "who": "Cyril Yu", "total": 1 }, "geometry": { "type": "Point", "coordinates": [ -122.4022158, 37.7996478 ] } },
{ "type": "Feature", "properties": { "address": "1000 Sutter St.", "who": "Cyril Yu", "total": 1 }, "geometry": { "type": "Point", "coordinates": [ -122.4171276, 37.7884014 ] } },
{ "type": "Feature", "properties": { "address": "1001 16th St.", "who": "Cyril Yu", "total": 1 }, "geometry": { "type": "Point", "coordinates": [ -122.3972595, 37.7660301 ] } },
{ "type": "Feature", "properties": { "address": "1001 Balboa St.", "who": "Cyril Yu", "total": 1 }, "geometry": { "type": "Point", "coordinates": [ -122.469612, 37.7768423 ] } },
{ "type": "Feature", "properties": { "address": "1001 Brannan St.", "who": "Cyril Yu", "total": 1 }, "geometry": { "type": "Point", "coordinates": [ -122.4069949, 37.7695915 ] } },
{ "type": "Feature", "properties": { "address": "1001 Broadway", "who": "Cyril Yu", "total": 1 }, "geometry": { "type": "Point", "coordinates": [ -122.4137382, 37.7968206 ] } },
{ "type": "Feature", "properties": { "address": "1001 Chestnut St.", "who": "Cyril Yu", "total": 1 }, "geometry": { "type": "Point", "coordinates": [ -122.4200478, 37.802761 ] } },
{ "type": "Feature", "properties": { "address": "1001 Excelsior Ave.", "who": "Cyril Yu", "total": 1 }, "geometry": { "type": "Point", "coordinates": [ -122.4254676, 37.7225211 ] } },
{ "type": "Feature", "properties": { "address": "1001 Fell St.", "who": "Cyril Yu", "total": 1 }, "geometry": { "type": "Point", "coordinates": [ -122.4344475, 37.7743028 ] } },
{ "type": "Feature", "properties": { "address": "1001 Judah St.", "who": "Cyril Yu", "total": 1 }, "geometry": { "type": "Point", "coordinates": [ -122.4729687, 37.7617521 ] } },
{ "type": "Feature", "properties": { "address": "1001 Polk St.", "who": "Cyril Yu", "total": 1 }, "geometry": { "type": "Point", "coordinates": [ -122.4199174, 37.7860464 ] } },
{ "type": "Feature", "properties": { "address": "1001 Potrero Ave.", "who": "Cyril Yu", "total": 1 }, "geometry": { "type": "Point", "coordinates": [ -122.4050756, 37.7556659 ] } },
{ "type": "Feature", "properties": { "address": "1001 Van Ness Ave.", "who": "Cyril Yu", "total": 1 }, "geometry": { "type": "Point", "coordinates": [ -122.4218618, 37.7849729 ] } },
{ "type": "Feature", "properties": { "address": "1004 Filbert St.", "who": "Cyril Yu", "total": 1 }, "geometry": { "type": "Point", "coordinates": [ -122.4163018, 37.8006487 ] } },
{ "type": "Feature", "properties": { "address": "1005 Lombard St.", "who": "Cyril Yu", "total": 1 }, "geometry": { "type": "Point", "coordinates": [ -122.4182519, 37.8020586 ] } },
{ "type": "Feature", "properties": { "address": "1005 Powell St.", "who": "Cyril Yu", "total": 1 }, "geometry": { "type": "Point", "coordinates": [ -122.4097588, 37.7940745 ] } },
{ "type": "Feature", "properties": { "address": "1006 Capitol Ave.", "who": "Cyril Yu", "total": 1 }, "geometry": { "type": "Point", "coordinates": [ -122.4589646, 37.7202151 ] } },
{ "type": "Feature", "properties": { "address": "1006 Cole St.", "who": "Cyril Yu", "total": 1 }, "geometry": { "type": "Point", "coordinates": [ -122.4496303, 37.7647074 ] } },
{ "type": "Feature", "properties": { "address": "1008 Larkin St.", "who": "Rudy Pada<br>Cyril Yu<br>Bernie Curran", "total": 3 }, "geometry": { "type": "Point", "coordinates": [ -122.4181781, 37.7873106 ] } },
{ "type": "Feature", "properties": { "address": "101 01st St.", "who": "Cyril Yu", "total": 1 }, "geometry": { "type": "Point", "coordinates": [ -122.3975004, 37.7900156 ] } },
{ "type": "Feature", "properties": { "address": "101 02nd St.", "who": "Cyril Yu", "total": 1 }, "geometry": { "type": "Point", "coordinates": [ -122.3992066, 37.7880669 ] } },
{ "type": "Feature", "properties": { "address": "101 08th St.", "who": "Cyril Yu", "total": 1 }, "geometry": { "type": "Point", "coordinates": [ -122.4125924, 37.7776059 ] } },
{ "type": "Feature", "properties": { "address": "101 09th St.", "who": "Cyril Yu", "total": 1 }, "geometry": { "type": "Point", "coordinates": [ -122.4143975, 37.7761511 ] } },
{ "type": "Feature", "properties": { "address": "101 09th Ti St.", "who": "Cyril Yu", "total": 1 }, "geometry": { "type": "Point", "coordinates": [ -122.4448881, 37.798794 ] } },
{ "type": "Feature", "properties": { "address": "101 28th St.", "who": "Cyril Yu", "total": 1 }, "geometry": { "type": "Point", "coordinates": [ -122.4248699, 37.7453104 ] } },
{ "type": "Feature", "properties": { "address": "101 Balboa St.", "who": "Cyril Yu<br>Rodrigo Santos", "total": 2 }, "geometry": { "type": "Point", "coordinates": [ -122.4599528, 37.7773016 ] } },
{ "type": "Feature", "properties": { "address": "101 Bay Shore Blvd.", "who": "Cyril Yu", "total": 1 }, "geometry": { "type": "Point", "coordinates": [ -122.4034548, 37.7469969 ] } },
{ "type": "Feature", "properties": { "address": "101 Broad St.", "who": "Cyril Yu", "total": 1 }, "geometry": { "type": "Point", "coordinates": [ -122.4562051, 37.7130392 ] } },
{ "type": "Feature", "properties": { "address": "101 Broderick St.", "who": "Cyril Yu", "total": 1 }, "geometry": { "type": "Point", "coordinates": [ -122.4389433, 37.7712826 ] } },
{ "type": "Feature", "properties": { "address": "101 California St.", "who": "Cyril Yu", "total": 1 }, "geometry": { "type": "Point", "coordinates": [ -122.3978746, 37.792827 ] } },
{ "type": "Feature", "properties": { "address": "101 Cargo Wy.", "who": "Cyril Yu", "total": 1 }, "geometry": { "type": "Point", "coordinates": [ -122.3777859, 37.740278 ] } },
{ "type": "Feature", "properties": { "address": "101 Castro St.", "who": "Cyril Yu", "total": 1 }, "geometry": { "type": "Point", "coordinates": [ -122.4354558, 37.76725 ] } },
{ "type": "Feature", "properties": { "address": "101 Congo St.", "who": "Cyril Yu", "total": 1 }, "geometry": { "type": "Point", "coordinates": [ -122.4422783, 37.7300519 ] } },
{ "type": "Feature", "properties": { "address": "101 Darien Wy.", "who": "Cyril Yu", "total": 1 }, "geometry": { "type": "Point", "coordinates": [ -122.4702311, 37.7320229 ] } },
{ "type": "Feature", "properties": { "address": "101 Hahn St.", "who": "Cyril Yu", "total": 1 }, "geometry": { "type": "Point", "coordinates": [ -122.4151144, 37.7132978 ] } },
{ "type": "Feature", "properties": { "address": "101 Henry Adams St.", "who": "Rudy Pada<br>Cyril Yu", "total": 2 }, "geometry": { "type": "Point", "coordinates": [ -122.4034548, 37.7681477 ] } },
{ "type": "Feature", "properties": { "address": "101 Howard St.", "who": "Cyril Yu<br>Rodrigo Santos", "total": 2 }, "geometry": { "type": "Point", "coordinates": [ -122.3925403, 37.7909048 ] } },
{ "type": "Feature", "properties": { "address": "101 Hyde St.", "who": "Cyril Yu", "total": 1 }, "geometry": { "type": "Point", "coordinates": [ -122.4158888, 37.7818595 ] } },
{ "type": "Feature", "properties": { "address": "101 Knollview Wy.", "who": "Cyril Yu", "total": 1 }, "geometry": { "type": "Point", "coordinates": [ -122.4512576, 37.7513036 ] } },
{ "type": "Feature", "properties": { "address": "101 Lombard St.", "who": "Rudy Pada<br>Cyril Yu<br>Rodrigo Santos", "total": 3 }, "geometry": { "type": "Point", "coordinates": [ -122.4045338, 37.8037119 ] } },
{ "type": "Feature", "properties": { "address": "101 Lundys Ln.", "who": "Cyril Yu<br>Bernie Curran", "total": 2 }, "geometry": { "type": "Point", "coordinates": [ -122.4188319, 37.7436493 ] } },
{ "type": "Feature", "properties": { "address": "101 Mission St.", "who": "Rudy Pada<br>Cyril Yu", "total": 2 }, "geometry": { "type": "Point", "coordinates": [ -122.4186699, 37.7728145 ] } },
{ "type": "Feature", "properties": { "address": "101 Montgomery St.", "who": "Cyril Yu", "total": 1 }, "geometry": { "type": "Point", "coordinates": [ -122.4025256, 37.7904341 ] } },
{ "type": "Feature", "properties": { "address": "101 Natoma St.", "who": "Cyril Yu", "total": 1 }, "geometry": { "type": "Point", "coordinates": [ -122.3989584, 37.7869508 ] } },
{ "type": "Feature", "properties": { "address": "101 Peabody St.", "who": "Rudy Pada<br>Cyril Yu", "total": 2 }, "geometry": { "type": "Point", "coordinates": [ -122.40684, 37.7109963 ] } },
{ "type": "Feature", "properties": { "address": "101 Post St.", "who": "Cyril Yu", "total": 1 }, "geometry": { "type": "Point", "coordinates": [ -122.4038625, 37.7886872 ] } },
{ "type": "Feature", "properties": { "address": "101 Sanchez St.", "who": "Cyril Yu<br>Rodrigo Santos", "total": 2 }, "geometry": { "type": "Point", "coordinates": [ -122.4310011, 37.7675036 ] } },
{ "type": "Feature", "properties": { "address": "101 Seacliff Ave.", "who": "Cyril Yu", "total": 1 }, "geometry": { "type": "Point", "coordinates": [ -122.4870788, 37.7885729 ] } },
{ "type": "Feature", "properties": { "address": "101 Spear St.", "who": "Cyril Yu", "total": 1 }, "geometry": { "type": "Point", "coordinates": [ -122.3930995, 37.792549 ] } },
{ "type": "Feature", "properties": { "address": "101 Townsend St.", "who": "Cyril Yu", "total": 1 }, "geometry": { "type": "Point", "coordinates": [ -122.3904884, 37.7802849 ] } },
{ "type": "Feature", "properties": { "address": "101 Vallejo St.", "who": "Cyril Yu<br>Bernie Curran", "total": 2 }, "geometry": { "type": "Point", "coordinates": [ -122.4003708, 37.799484799999988 ] } },
{ "type": "Feature", "properties": { "address": "1011 23rd St.", "who": "Rudy Pada<br>Cyril Yu", "total": 2 }, "geometry": { "type": "Point", "coordinates": [ -122.3902509, 37.7550424 ] } },
{ "type": "Feature", "properties": { "address": "1011 Church St.", "who": "Cyril Yu", "total": 1 }, "geometry": { "type": "Point", "coordinates": [ -122.427547, 37.754654 ] } },
{ "type": "Feature", "properties": { "address": "1011 Shotwell St.", "who": "Cyril Yu<br>Bernie Curran<br>Rodrigo Santos", "total": 3 }, "geometry": { "type": "Point", "coordinates": [ -122.4149043, 37.7520529 ] } },
{ "type": "Feature", "properties": { "address": "1012 Shotwell St.", "who": "Cyril Yu<br>Rodrigo Santos", "total": 2 }, "geometry": { "type": "Point", "coordinates": [ -122.4154684, 37.751963200000013 ] } },
{ "type": "Feature", "properties": { "address": "1013 Oakdale Ave.", "who": "Cyril Yu", "total": 1 }, "geometry": { "type": "Point", "coordinates": [ -122.3794538, 37.728178 ] } },
{ "type": "Feature", "properties": { "address": "1014 Gilman Ave.", "who": "Cyril Yu", "total": 1 }, "geometry": { "type": "Point", "coordinates": [ -122.3882534, 37.7185668 ] } },
{ "type": "Feature", "properties": { "address": "1014 Scott St.", "who": "Cyril Yu", "total": 1 }, "geometry": { "type": "Point", "coordinates": [ -122.4369042, 37.7795131 ] } },
{ "type": "Feature", "properties": { "address": "1015 Castro St.", "who": "Rudy Pada<br>Cyril Yu", "total": 2 }, "geometry": { "type": "Point", "coordinates": [ -122.4340392, 37.7531876 ] } },
{ "type": "Feature", "properties": { "address": "1015 Cortland Ave.", "who": "Cyril Yu", "total": 1 }, "geometry": { "type": "Point", "coordinates": [ -122.4131233, 37.7392401 ] } },
{ "type": "Feature", "properties": { "address": "1015 Folsom St.", "who": "Cyril Yu", "total": 1 }, "geometry": { "type": "Point", "coordinates": [ -122.4058001, 37.7781117 ] } },
{ "type": "Feature", "properties": { "address": "1015 Shotwell St.", "who": "Cyril Yu", "total": 1 }, "geometry": { "type": "Point", "coordinates": [ -122.4148932, 37.7519166 ] } },
{ "type": "Feature", "properties": { "address": "1016 Washington St.", "who": "Cyril Yu", "total": 1 }, "geometry": { "type": "Point", "coordinates": [ -122.4101702, 37.7948901 ] } },
{ "type": "Feature", "properties": { "address": "1017 Green St.", "who": "Cyril Yu", "total": 1 }, "geometry": { "type": "Point", "coordinates": [ -122.415945, 37.798416 ] } },
{ "type": "Feature", "properties": { "address": "1018 Cortland Ave.", "who": "Cyril Yu", "total": 1 }, "geometry": { "type": "Point", "coordinates": [ -122.4131945, 37.7388714 ] } },
{ "type": "Feature", "properties": { "address": "1018 Hollister Ave.", "who": "Rudy Pada<br>Cyril Yu", "total": 2 }, "geometry": { "type": "Point", "coordinates": [ -122.3908048, 37.7190388 ] } },
{ "type": "Feature", "properties": { "address": "1018 Mission St.", "who": "Rudy Pada<br>Cyril Yu", "total": 2 }, "geometry": { "type": "Point", "coordinates": [ -122.4094096, 37.7807163 ] } },
{ "type": "Feature", "properties": { "address": "102 Divisadero St.", "who": "Cyril Yu", "total": 1 }, "geometry": { "type": "Point", "coordinates": [ -122.436322, 37.769174 ] } },
{ "type": "Feature", "properties": { "address": "102 San Jose Ave.", "who": "Cyril Yu<br>Rodrigo Santos", "total": 2 }, "geometry": { "type": "Point", "coordinates": [ -122.421707, 37.7532848 ] } },
{ "type": "Feature", "properties": { "address": "1020 Filbert St.", "who": "Cyril Yu", "total": 1 }, "geometry": { "type": "Point", "coordinates": [ -122.4164407, 37.800616 ] } },
{ "type": "Feature", "properties": { "address": "1020 Green St.", "who": "Cyril Yu", "total": 1 }, "geometry": { "type": "Point", "coordinates": [ -122.4160644, 37.7989182 ] } },
{ "type": "Feature", "properties": { "address": "1020 Munich St.", "who": "Cyril Yu", "total": 1 }, "geometry": { "type": "Point", "coordinates": [ -122.4339232, 37.7118151 ] } },
{ "type": "Feature", "properties": { "address": "1023 Kansas St.", "who": "Cyril Yu", "total": 1 }, "geometry": { "type": "Point", "coordinates": [ -122.4025809, 37.7566965 ] } },
{ "type": "Feature", "properties": { "address": "1023 Vallejo St.", "who": "Cyril Yu", "total": 1 }, "geometry": { "type": "Point", "coordinates": [ -122.4143696, 37.7977661 ] } },
{ "type": "Feature", "properties": { "address": "1024 Anza St.", "who": "Cyril Yu", "total": 1 }, "geometry": { "type": "Point", "coordinates": [ -122.4592997, 37.7794265 ] } },
{ "type": "Feature", "properties": { "address": "1024 Potrero Ave.", "who": "Cyril Yu", "total": 1 }, "geometry": { "type": "Point", "coordinates": [ -122.4069285, 37.755693699999988 ] } },
{ "type": "Feature", "properties": { "address": "1025 Anza St.", "who": "Cyril Yu", "total": 1 }, "geometry": { "type": "Point", "coordinates": [ -122.4592632, 37.7790999 ] } },
{ "type": "Feature", "properties": { "address": "1025 Carolina St.", "who": "Cyril Yu", "total": 1 }, "geometry": { "type": "Point", "coordinates": [ -122.399637, 37.75567 ] } },
{ "type": "Feature", "properties": { "address": "1025 Masonic Ave.", "who": "Cyril Yu", "total": 1 }, "geometry": { "type": "Point", "coordinates": [ -122.4459497, 37.7716251 ] } },
{ "type": "Feature", "properties": { "address": "1025 Minna St.", "who": "Cyril Yu", "total": 1 }, "geometry": { "type": "Point", "coordinates": [ -122.4168843, 37.7734573 ] } },
{ "type": "Feature", "properties": { "address": "1026 Valencia St.", "who": "Cyril Yu", "total": 1 }, "geometry": { "type": "Point", "coordinates": [ -122.4213973, 37.7564333 ] } },
{ "type": "Feature", "properties": { "address": "1027 Hayes St.", "who": "Cyril Yu<br>Bernie Curran", "total": 2 }, "geometry": { "type": "Point", "coordinates": [ -122.4333424, 37.775356 ] } },
{ "type": "Feature", "properties": { "address": "1029 Geary St.", "who": "Cyril Yu", "total": 1 }, "geometry": { "type": "Point", "coordinates": [ -122.4203847, 37.7855438 ] } },
{ "type": "Feature", "properties": { "address": "103 Geary St.", "who": "Cyril Yu", "total": 1 }, "geometry": { "type": "Point", "coordinates": [ -122.4064814, 37.7874821 ] } },
{ "type": "Feature", "properties": { "address": "1030 Fell St.", "who": "Cyril Yu", "total": 1 }, "geometry": { "type": "Point", "coordinates": [ -122.434901, 37.7746608 ] } },
{ "type": "Feature", "properties": { "address": "1030 Green St.", "who": "Cyril Yu", "total": 1 }, "geometry": { "type": "Point", "coordinates": [ -122.4162421, 37.7988734 ] } },
{ "type": "Feature", "properties": { "address": "1030 Larkin St.", "who": "Cyril Yu", "total": 1 }, "geometry": { "type": "Point", "coordinates": [ -122.4182117, 37.7874912 ] } },
{ "type": "Feature", "properties": { "address": "1030 Polk St.", "who": "Cyril Yu", "total": 1 }, "geometry": { "type": "Point", "coordinates": [ -122.4197209, 37.7865129 ] } },
{ "type": "Feature", "properties": { "address": "1032 Castro St.", "who": "Cyril Yu", "total": 1 }, "geometry": { "type": "Point", "coordinates": [ -122.4345258, 37.753224 ] } },
{ "type": "Feature", "properties": { "address": "1033 Felton St.", "who": "Cyril Yu", "total": 1 }, "geometry": { "type": "Point", "coordinates": [ -122.4149928, 37.7271655 ] } },
{ "type": "Feature", "properties": { "address": "1033 Green St.", "who": "Cyril Yu", "total": 1 }, "geometry": { "type": "Point", "coordinates": [ -122.4160864, 37.7984406 ] } },
{ "type": "Feature", "properties": { "address": "1033 Kearny St.", "who": "Cyril Yu", "total": 1 }, "geometry": { "type": "Point", "coordinates": [ -122.4056495, 37.7976116 ] } },
{ "type": "Feature", "properties": { "address": "1033 Polk St.", "who": "Cyril Yu", "total": 1 }, "geometry": { "type": "Point", "coordinates": [ -122.4200699, 37.7864359 ] } },
{ "type": "Feature", "properties": { "address": "1034 Chestnut St.", "who": "Cyril Yu", "total": 1 }, "geometry": { "type": "Point", "coordinates": [ -122.420515, 37.80312 ] } },
{ "type": "Feature", "properties": { "address": "1034 Filbert St.", "who": "Cyril Yu", "total": 1 }, "geometry": { "type": "Point", "coordinates": [ -122.4168015, 37.8007163 ] } },
{ "type": "Feature", "properties": { "address": "1035 Market St.", "who": "Cyril Yu", "total": 1 }, "geometry": { "type": "Point", "coordinates": [ -122.4108242, 37.781237 ] } },
{ "type": "Feature", "properties": { "address": "1035 Natoma St.", "who": "Cyril Yu", "total": 1 }, "geometry": { "type": "Point", "coordinates": [ -122.4165635, 37.7730068 ] } },
{ "type": "Feature", "properties": { "address": "1035 Sutter St.", "who": "Cyril Yu", "total": 1 }, "geometry": { "type": "Point", "coordinates": [ -122.4173931, 37.7879476 ] } },
{ "type": "Feature", "properties": { "address": "1037 Valencia St.", "who": "Cyril Yu", "total": 1 }, "geometry": { "type": "Point", "coordinates": [ -122.4208177, 37.7563323 ] } },
{ "type": "Feature", "properties": { "address": "1038 Ingerson Ave.", "who": "Cyril Yu", "total": 1 }, "geometry": { "type": "Point", "coordinates": [ -122.393647728812851, 37.719678696200567 ] } },
{ "type": "Feature", "properties": { "address": "1038 Polk St.", "who": "Cyril Yu", "total": 1 }, "geometry": { "type": "Point", "coordinates": [ -122.4197764, 37.7866835 ] } },
{ "type": "Feature", "properties": { "address": "1038 Santiago St.", "who": "Cyril Yu", "total": 1 }, "geometry": { "type": "Point", "coordinates": [ -122.4786965, 37.7450378 ] } },
{ "type": "Feature", "properties": { "address": "1039 Green St.", "who": "Cyril Yu", "total": 1 }, "geometry": { "type": "Point", "coordinates": [ -122.4162803, 37.7983967 ] } },
{ "type": "Feature", "properties": { "address": "104 09th Ave.", "who": "Cyril Yu", "total": 1 }, "geometry": { "type": "Point", "coordinates": [ -122.4677546, 37.7863445 ] } },
{ "type": "Feature", "properties": { "address": "104 Eureka St.", "who": "Cyril Yu", "total": 1 }, "geometry": { "type": "Point", "coordinates": [ -122.438407, 37.760492 ] } },
{ "type": "Feature", "properties": { "address": "104 Lake Merced Hill St South St.", "who": "Cyril Yu", "total": 1 }, "geometry": { "type": "Point", "coordinates": [ -122.4848505, 37.7112621 ] } },
{ "type": "Feature", "properties": { "address": "104 Robinhood Dr.", "who": "Cyril Yu", "total": 1 }, "geometry": { "type": "Point", "coordinates": [ -122.457096, 37.7368493 ] } },
{ "type": "Feature", "properties": { "address": "104 Trumbull St.", "who": "Cyril Yu", "total": 1 }, "geometry": { "type": "Point", "coordinates": [ -122.4281975, 37.7306102 ] } },
{ "type": "Feature", "properties": { "address": "1040 Ashbury St.", "who": "Cyril Yu", "total": 1 }, "geometry": { "type": "Point", "coordinates": [ -122.4463478, 37.7635745 ] } },
{ "type": "Feature", "properties": { "address": "1040 Mariposa St.", "who": "Cyril Yu", "total": 1 }, "geometry": { "type": "Point", "coordinates": [ -122.3943829, 37.7641955 ] } },
{ "type": "Feature", "properties": { "address": "1040 Palou Ave.", "who": "Cyril Yu", "total": 1 }, "geometry": { "type": "Point", "coordinates": [ -122.3802081, 37.7283129 ] } },
{ "type": "Feature", "properties": { "address": "1040 Sutter St.", "who": "Cyril Yu", "total": 1 }, "geometry": { "type": "Point", "coordinates": [ -122.4176586, 37.7883126 ] } },
{ "type": "Feature", "properties": { "address": "1041 Florida St.", "who": "Cyril Yu", "total": 1 }, "geometry": { "type": "Point", "coordinates": [ -122.410026, 37.7552745 ] } },
{ "type": "Feature", "properties": { "address": "1041 Leavenworth St.", "who": "Cyril Yu", "total": 1 }, "geometry": { "type": "Point", "coordinates": [ -122.4159007, 37.7907575 ] } },
{ "type": "Feature", "properties": { "address": "1041 Valencia St.", "who": "Cyril Yu", "total": 1 }, "geometry": { "type": "Point", "coordinates": [ -122.4209278, 37.7562459 ] } },
{ "type": "Feature", "properties": { "address": "1042 Montgomery St.", "who": "Rudy Pada<br>Cyril Yu<br>Bernie Curran<br>Rodrigo Santos", "total": 4 }, "geometry": { "type": "Point", "coordinates": [ -122.4037991, 37.798888 ] } },
{ "type": "Feature", "properties": { "address": "1043 Minna St.", "who": "Cyril Yu<br>Bernie Curran", "total": 2 }, "geometry": { "type": "Point", "coordinates": [ -122.4172, 37.7732819 ] } },
{ "type": "Feature", "properties": { "address": "1043 York St.", "who": "Cyril Yu", "total": 1 }, "geometry": { "type": "Point", "coordinates": [ -122.4083233, 37.755344 ] } },
{ "type": "Feature", "properties": { "address": "1044 Church St.", "who": "Cyril Yu", "total": 1 }, "geometry": { "type": "Point", "coordinates": [ -122.4279205, 37.7541902 ] } },
{ "type": "Feature", "properties": { "address": "1044 Page St.", "who": "Cyril Yu", "total": 1 }, "geometry": { "type": "Point", "coordinates": [ -122.4381091, 37.7722981 ] } },
{ "type": "Feature", "properties": { "address": "1045 Bryant St.", "who": "Cyril Yu", "total": 1 }, "geometry": { "type": "Point", "coordinates": [ -122.4073313, 37.7717685 ] } },
{ "type": "Feature", "properties": { "address": "1045 Cabrillo St.", "who": "Cyril Yu<br>Rodrigo Santos", "total": 2 }, "geometry": { "type": "Point", "coordinates": [ -122.47001, 37.7749336 ] } },
{ "type": "Feature", "properties": { "address": "1045 Capp St.", "who": "Cyril Yu", "total": 1 }, "geometry": { "type": "Point", "coordinates": [ -122.4167737, 37.7500166 ] } },
{ "type": "Feature", "properties": { "address": "1045 Oak St.", "who": "Cyril Yu", "total": 1 }, "geometry": { "type": "Point", "coordinates": [ -122.4365538, 37.7731238 ] } },
{ "type": "Feature", "properties": { "address": "1045 Sanchez St.", "who": "Cyril Yu", "total": 1 }, "geometry": { "type": "Point", "coordinates": [ -122.4294825, 37.7524855 ] } },
{ "type": "Feature", "properties": { "address": "1046 Pacific Ave.", "who": "Rudy Pada<br>Cyril Yu", "total": 2 }, "geometry": { "type": "Point", "coordinates": [ -122.4124963, 37.7962806 ] } },
{ "type": "Feature", "properties": { "address": "1047 Florida St.", "who": "Cyril Yu", "total": 1 }, "geometry": { "type": "Point", "coordinates": [ -122.4101587, 37.7551964 ] } },
{ "type": "Feature", "properties": { "address": "1048 Union St.", "who": "Cyril Yu<br>Rodrigo Santos", "total": 2 }, "geometry": { "type": "Point", "coordinates": [ -122.4167988, 37.7996491 ] } },
{ "type": "Feature", "properties": { "address": "1049 Church St.", "who": "Cyril Yu", "total": 1 }, "geometry": { "type": "Point", "coordinates": [ -122.4274585, 37.7541598 ] } },
{ "type": "Feature", "properties": { "address": "1049 Fell St.", "who": "Cyril Yu", "total": 1 }, "geometry": { "type": "Point", "coordinates": [ -122.4351755, 37.7741734 ] } },
{ "type": "Feature", "properties": { "address": "105 Broad St.", "who": "Cyril Yu", "total": 1 }, "geometry": { "type": "Point", "coordinates": [ -122.4564104, 37.7130217 ] } },
{ "type": "Feature", "properties": { "address": "105 Fillmore St.", "who": "Cyril Yu", "total": 1 }, "geometry": { "type": "Point", "coordinates": [ -122.430368, 37.770402 ] } },
{ "type": "Feature", "properties": { "address": "105 Grant Ave.", "who": "Cyril Yu", "total": 1 }, "geometry": { "type": "Point", "coordinates": [ -122.4052834, 37.7878805 ] } },
{ "type": "Feature", "properties": { "address": "105 Lake St.", "who": "Rudy Pada<br>Cyril Yu", "total": 2 }, "geometry": { "type": "Point", "coordinates": [ -122.4606342, 37.7867149 ] } },
{ "type": "Feature", "properties": { "address": "105 Liberty St.", "who": "Cyril Yu", "total": 1 }, "geometry": { "type": "Point", "coordinates": [ -122.423896, 37.757293 ] } },
{ "type": "Feature", "properties": { "address": "105 Palm Ave.", "who": "Cyril Yu", "total": 1 }, "geometry": { "type": "Point", "coordinates": [ -122.458268, 37.7837043 ] } },
{ "type": "Feature", "properties": { "address": "1050 Castro St.", "who": "Cyril Yu", "total": 1 }, "geometry": { "type": "Point", "coordinates": [ -122.4344484, 37.7530152 ] } },
{ "type": "Feature", "properties": { "address": "1050 Lake St.", "who": "Rudy Pada<br>Cyril Yu", "total": 2 }, "geometry": { "type": "Point", "coordinates": [ -122.4709829, 37.7866148 ] } },
{ "type": "Feature", "properties": { "address": "1050 Monterey Blvd.", "who": "Cyril Yu", "total": 1 }, "geometry": { "type": "Point", "coordinates": [ -122.4599266, 37.7309139 ] } },
{ "type": "Feature", "properties": { "address": "1050 North Point St.", "who": "Rudy Pada<br>Cyril Yu", "total": 2 }, "geometry": { "type": "Point", "coordinates": [ -122.4248482, 37.8053959 ] } },
{ "type": "Feature", "properties": { "address": "1050 Sansome St.", "who": "Cyril Yu", "total": 1 }, "geometry": { "type": "Point", "coordinates": [ -122.4022236, 37.7999085 ] } },
{ "type": "Feature", "properties": { "address": "1050 Stanyan St.", "who": "Cyril Yu", "total": 1 }, "geometry": { "type": "Point", "coordinates": [ -122.4525096, 37.764686 ] } },
{ "type": "Feature", "properties": { "address": "1051 Alabama St.", "who": "Rudy Pada<br>Cyril Yu", "total": 2 }, "geometry": { "type": "Point", "coordinates": [ -122.4110437, 37.7550734 ] } },
{ "type": "Feature", "properties": { "address": "1051 Fell St.", "who": "Cyril Yu", "total": 1 }, "geometry": { "type": "Point", "coordinates": [ -122.4351747, 37.7741824 ] } },
{ "type": "Feature", "properties": { "address": "1052 Divisadero St.", "who": "Cyril Yu", "total": 1 }, "geometry": { "type": "Point", "coordinates": [ -122.4385615, 37.7794101 ] } },
{ "type": "Feature", "properties": { "address": "1052 Filbert St.", "who": "Cyril Yu", "total": 1 }, "geometry": { "type": "Point", "coordinates": [ -122.4170956, 37.800674699999988 ] } },
{ "type": "Feature", "properties": { "address": "1052 Rhode Island St.", "who": "Rudy Pada<br>Cyril Yu<br>Rodrigo Santos", "total": 3 }, "geometry": { "type": "Point", "coordinates": [ -122.4020056, 37.7564637 ] } },
{ "type": "Feature", "properties": { "address": "1053 Bush St.", "who": "Rudy Pada<br>Cyril Yu", "total": 2 }, "geometry": { "type": "Point", "coordinates": [ -122.4145977, 37.7892634 ] } },
{ "type": "Feature", "properties": { "address": "1053 Clayton St.", "who": "Cyril Yu", "total": 1 }, "geometry": { "type": "Point", "coordinates": [ -122.4472657, 37.7631338 ] } },
{ "type": "Feature", "properties": { "address": "1053 Fell St.", "who": "Cyril Yu", "total": 1 }, "geometry": { "type": "Point", "coordinates": [ -122.4352768, 37.7741608 ] } },
{ "type": "Feature", "properties": { "address": "1054 Ingerson Ave.", "who": "Rudy Pada<br>Cyril Yu", "total": 2 }, "geometry": { "type": "Point", "coordinates": [ -122.393874, 37.7198593 ] } },
{ "type": "Feature", "properties": { "address": "1054 Plymouth Ave.", "who": "Cyril Yu", "total": 1 }, "geometry": { "type": "Point", "coordinates": [ -122.4558907, 37.7210496 ] } },
{ "type": "Feature", "properties": { "address": "1055 Mason St.", "who": "Cyril Yu", "total": 1 }, "geometry": { "type": "Point", "coordinates": [ -122.4114106, 37.793422199999988 ] } },
{ "type": "Feature", "properties": { "address": "1056 Filbert St.", "who": "Cyril Yu", "total": 1 }, "geometry": { "type": "Point", "coordinates": [ -122.4169336, 37.8005579 ] } },
{ "type": "Feature", "properties": { "address": "1057 Florida St.", "who": "Cyril Yu<br>Rodrigo Santos", "total": 2 }, "geometry": { "type": "Point", "coordinates": [ -122.4100942, 37.7550706 ] } },
{ "type": "Feature", "properties": { "address": "1058 Mississippi St.", "who": "Cyril Yu", "total": 1 }, "geometry": { "type": "Point", "coordinates": [ -122.3940067, 37.753009 ] } },
{ "type": "Feature", "properties": { "address": "1059 Leavenworth St.", "who": "Cyril Yu", "total": 1 }, "geometry": { "type": "Point", "coordinates": [ -122.4159645, 37.790997399999988 ] } },
{ "type": "Feature", "properties": { "address": "1059 Union St.", "who": "Cyril Yu", "total": 1 }, "geometry": { "type": "Point", "coordinates": [ -122.4166543, 37.799342 ] } },
{ "type": "Feature", "properties": { "address": "106 Banks St.", "who": "Cyril Yu", "total": 1 }, "geometry": { "type": "Point", "coordinates": [ -122.4127804, 37.7411798 ] } },
{ "type": "Feature", "properties": { "address": "106 Gates St.", "who": "Cyril Yu", "total": 1 }, "geometry": { "type": "Point", "coordinates": [ -122.4140083, 37.741389 ] } },
{ "type": "Feature", "properties": { "address": "106 Lathrop Ave.", "who": "Cyril Yu", "total": 1 }, "geometry": { "type": "Point", "coordinates": [ -122.4009104, 37.710805400000012 ] } },
{ "type": "Feature", "properties": { "address": "1060 Bush St.", "who": "Cyril Yu", "total": 1 }, "geometry": { "type": "Point", "coordinates": [ -122.4147196, 37.78954 ] } },
{ "type": "Feature", "properties": { "address": "1060 Fulton St.", "who": "Cyril Yu", "total": 1 }, "geometry": { "type": "Point", "coordinates": [ -122.4342863, 37.7775822 ] } },
{ "type": "Feature", "properties": { "address": "1060 Pine St.", "who": "Rudy Pada<br>Cyril Yu<br>Bernie Curran", "total": 3 }, "geometry": { "type": "Point", "coordinates": [ -122.4133224, 37.7907625 ] } },
{ "type": "Feature", "properties": { "address": "1061 Oak St.", "who": "Cyril Yu", "total": 1 }, "geometry": { "type": "Point", "coordinates": [ -122.4367902, 37.7731535 ] } },
{ "type": "Feature", "properties": { "address": "1064 Dolores St.", "who": "Cyril Yu", "total": 1 }, "geometry": { "type": "Point", "coordinates": [ -122.4256085, 37.7523684 ] } },
{ "type": "Feature", "properties": { "address": "1065 Munich St.", "who": "Cyril Yu<br>Rodrigo Santos", "total": 2 }, "geometry": { "type": "Point", "coordinates": [ -122.4344191, 37.7110166 ] } },
{ "type": "Feature", "properties": { "address": "1066 Market St.", "who": "Cyril Yu<br>Rodrigo Santos", "total": 2 }, "geometry": { "type": "Point", "coordinates": [ -122.4115304, 37.7815803 ] } },
{ "type": "Feature", "properties": { "address": "1068 Gilman Ave.", "who": "Cyril Yu<br>Rodrigo Santos", "total": 2 }, "geometry": { "type": "Point", "coordinates": [ -122.3893156, 37.7191723 ] } },
{ "type": "Feature", "properties": { "address": "1068 Noe St.", "who": "Rudy Pada<br>Cyril Yu", "total": 2 }, "geometry": { "type": "Point", "coordinates": [ -122.432239, 37.751876 ] } },
{ "type": "Feature", "properties": { "address": "1069 Capp St.", "who": "Cyril Yu<br>Rodrigo Santos", "total": 2 }, "geometry": { "type": "Point", "coordinates": [ -122.4169285, 37.749615299999988 ] } },
{ "type": "Feature", "properties": { "address": "107 Caselli Ave.", "who": "Cyril Yu", "total": 1 }, "geometry": { "type": "Point", "coordinates": [ -122.4412094, 37.7595207 ] } },
{ "type": "Feature", "properties": { "address": "107 Sagamore St.", "who": "Cyril Yu", "total": 1 }, "geometry": { "type": "Point", "coordinates": [ -122.4563235, 37.711195200000013 ] } },
{ "type": "Feature", "properties": { "address": "107 Webster St.", "who": "Cyril Yu", "total": 1 }, "geometry": { "type": "Point", "coordinates": [ -122.428947, 37.771566 ] } },
{ "type": "Feature", "properties": { "address": "1071 Cayuga Ave.", "who": "Cyril Yu", "total": 1 }, "geometry": { "type": "Point", "coordinates": [ -122.4400997, 37.7211597 ] } },
{ "type": "Feature", "properties": { "address": "1072 Filbert St.", "who": "Cyril Yu<br>Bernie Curran", "total": 2 }, "geometry": { "type": "Point", "coordinates": [ -122.4172064, 37.8005903 ] } },
{ "type": "Feature", "properties": { "address": "1072 Folsom St.", "who": "Cyril Yu", "total": 1 }, "geometry": { "type": "Point", "coordinates": [ -122.4073378, 37.777425 ] } },
{ "type": "Feature", "properties": { "address": "1072 Gilman Ave.", "who": "Cyril Yu", "total": 1 }, "geometry": { "type": "Point", "coordinates": [ -122.3894821, 37.7192178 ] } },
{ "type": "Feature", "properties": { "address": "1072 Sanchez St.", "who": "Cyril Yu", "total": 1 }, "geometry": { "type": "Point", "coordinates": [ -122.430013, 37.751975 ] } },
{ "type": "Feature", "properties": { "address": "1074 Filbert St.", "who": "Cyril Yu", "total": 1 }, "geometry": { "type": "Point", "coordinates": [ -122.4171872, 37.8005083 ] } },
{ "type": "Feature", "properties": { "address": "1075 Le Conte Ave.", "who": "Cyril Yu", "total": 1 }, "geometry": { "type": "Point", "coordinates": [ -122.3979391, 37.7188927 ] } },
{ "type": "Feature", "properties": { "address": "1076 Francisco St.", "who": "Cyril Yu", "total": 1 }, "geometry": { "type": "Point", "coordinates": [ -122.4228043, 37.8035962 ] } },
{ "type": "Feature", "properties": { "address": "1078 Howard St.", "who": "Cyril Yu", "total": 1 }, "geometry": { "type": "Point", "coordinates": [ -122.4090121, 37.7784845 ] } },
{ "type": "Feature", "properties": { "address": "108 Albion St.", "who": "Cyril Yu", "total": 1 }, "geometry": { "type": "Point", "coordinates": [ -122.4230785, 37.7644794 ] } },
{ "type": "Feature", "properties": { "address": "108 Bosworth St.", "who": "Rudy Pada<br>Cyril Yu<br>Bernie Curran", "total": 3 }, "geometry": { "type": "Point", "coordinates": [ -122.4281221, 37.7336983 ] } },
{ "type": "Feature", "properties": { "address": "108 Congdon St.", "who": "Cyril Yu", "total": 1 }, "geometry": { "type": "Point", "coordinates": [ -122.4263866, 37.7305179 ] } },
{ "type": "Feature", "properties": { "address": "108 Corbett Ave.", "who": "Cyril Yu", "total": 1 }, "geometry": { "type": "Point", "coordinates": [ -122.440764, 37.761952 ] } },
{ "type": "Feature", "properties": { "address": "108 Ellsworth St.", "who": "Cyril Yu", "total": 1 }, "geometry": { "type": "Point", "coordinates": [ -122.4146167, 37.7413975 ] } },
{ "type": "Feature", "properties": { "address": "108 Nevada St.", "who": "Cyril Yu", "total": 1 }, "geometry": { "type": "Point", "coordinates": [ -122.4114713, 37.7411572 ] } },
{ "type": "Feature", "properties": { "address": "108 Shotwell St.", "who": "Cyril Yu", "total": 1 }, "geometry": { "type": "Point", "coordinates": [ -122.4167375, 37.7666794 ] } },
{ "type": "Feature", "properties": { "address": "1080 Alabama St.", "who": "Cyril Yu", "total": 1 }, "geometry": { "type": "Point", "coordinates": [ -122.4113977, 37.7547039 ] } },
{ "type": "Feature", "properties": { "address": "1080 Eddy St.", "who": "Rudy Pada<br>Cyril Yu", "total": 2 }, "geometry": { "type": "Point", "coordinates": [ -122.425357, 37.7825953 ] } },
{ "type": "Feature", "properties": { "address": "1080 Filbert St.", "who": "Cyril Yu", "total": 1 }, "geometry": { "type": "Point", "coordinates": [ -122.4173486, 37.8005009 ] } },
{ "type": "Feature", "properties": { "address": "1080 Shotwell St.", "who": "Cyril Yu<br>Rodrigo Santos", "total": 2 }, "geometry": { "type": "Point", "coordinates": [ -122.4153357, 37.7512221 ] } },
{ "type": "Feature", "properties": { "address": "1080 Sutter St.", "who": "Rudy Pada<br>Cyril Yu", "total": 2 }, "geometry": { "type": "Point", "coordinates": [ -122.418101, 37.788251 ] } },
{ "type": "Feature", "properties": { "address": "1081 Ashbury St.", "who": "Cyril Yu", "total": 1 }, "geometry": { "type": "Point", "coordinates": [ -122.4469288, 37.7632969 ] } },
{ "type": "Feature", "properties": { "address": "1081 Le Conte Ave.", "who": "Cyril Yu", "total": 1 }, "geometry": { "type": "Point", "coordinates": [ -122.3984543, 37.7189931 ] } },
{ "type": "Feature", "properties": { "address": "1082 Church St.", "who": "Cyril Yu", "total": 1 }, "geometry": { "type": "Point", "coordinates": [ -122.4279693, 37.7536487 ] } },
{ "type": "Feature", "properties": { "address": "1083 Hampshire St.", "who": "Cyril Yu", "total": 1 }, "geometry": { "type": "Point", "coordinates": [ -122.4073555, 37.7548494 ] } },
{ "type": "Feature", "properties": { "address": "1083 Lombard St.", "who": "Cyril Yu", "total": 1 }, "geometry": { "type": "Point", "coordinates": [ -122.4192735, 37.8019015 ] } },
{ "type": "Feature", "properties": { "address": "1086 Fulton St.", "who": "Cyril Yu", "total": 1 }, "geometry": { "type": "Point", "coordinates": [ -122.4346375, 37.7774606 ] } },
{ "type": "Feature", "properties": { "address": "1087 Mississippi St.", "who": "Cyril Yu", "total": 1 }, "geometry": { "type": "Point", "coordinates": [ -122.393348, 37.752904 ] } },
{ "type": "Feature", "properties": { "address": "1087 Palou Ave.", "who": "Cyril Yu<br>Bernie Curran", "total": 2 }, "geometry": { "type": "Point", "coordinates": [ -122.3813837, 37.7283675 ] } },
{ "type": "Feature", "properties": { "address": "1088 Howard St.", "who": "Cyril Yu", "total": 1 }, "geometry": { "type": "Point", "coordinates": [ -122.4093069, 37.7784205 ] } },
{ "type": "Feature", "properties": { "address": "1088 Rhode Island St.", "who": "Cyril Yu", "total": 1 }, "geometry": { "type": "Point", "coordinates": [ -122.4019614, 37.7559558 ] } },
{ "type": "Feature", "properties": { "address": "1088 Sansome St.", "who": "Cyril Yu", "total": 1 }, "geometry": { "type": "Point", "coordinates": [ -122.402259, 37.8000905 ] } },
{ "type": "Feature", "properties": { "address": "109 Clement St.", "who": "Cyril Yu", "total": 1 }, "geometry": { "type": "Point", "coordinates": [ -122.4603918, 37.7830248 ] } },
{ "type": "Feature", "properties": { "address": "109 Cornwall St.", "who": "Rudy Pada<br>Cyril Yu", "total": 2 }, "geometry": { "type": "Point", "coordinates": [ -122.4605458, 37.7848073 ] } },
{ "type": "Feature", "properties": { "address": "109 Forest Side Ave.", "who": "Cyril Yu<br>Bernie Curran", "total": 2 }, "geometry": { "type": "Point", "coordinates": [ -122.4684511, 37.7411994 ] } },
{ "type": "Feature", "properties": { "address": "109 Gambier St.", "who": "Cyril Yu", "total": 1 }, "geometry": { "type": "Point", "coordinates": [ -122.4221162, 37.7279374 ] } },
{ "type": "Feature", "properties": { "address": "109 Gates St.", "who": "Cyril Yu", "total": 1 }, "geometry": { "type": "Point", "coordinates": [ -122.4137096, 37.7412294 ] } },
{ "type": "Feature", "properties": { "address": "109 Germania St.", "who": "Cyril Yu", "total": 1 }, "geometry": { "type": "Point", "coordinates": [ -122.4306556, 37.7705244 ] } },
{ "type": "Feature", "properties": { "address": "109 Gladeview Wy.", "who": "Cyril Yu", "total": 1 }, "geometry": { "type": "Point", "coordinates": [ -122.4506826, 37.7515565 ] } },
{ "type": "Feature", "properties": { "address": "109 Lakeshore Dr.", "who": "Cyril Yu", "total": 1 }, "geometry": { "type": "Point", "coordinates": [ -122.4944088, 37.7299561 ] } },
{ "type": "Feature", "properties": { "address": "109 Liberty St.", "who": "Cyril Yu", "total": 1 }, "geometry": { "type": "Point", "coordinates": [ -122.4239273, 37.7573338 ] } },
{ "type": "Feature", "properties": { "address": "1090 Eddy St.", "who": "Cyril Yu", "total": 1 }, "geometry": { "type": "Point", "coordinates": [ -122.4255574, 37.7824597 ] } },
{ "type": "Feature", "properties": { "address": "1090 Francisco St.", "who": "Cyril Yu", "total": 1 }, "geometry": { "type": "Point", "coordinates": [ -122.4231449, 37.8036688 ] } },
{ "type": "Feature", "properties": { "address": "1091 Mission St.", "who": "Cyril Yu", "total": 1 }, "geometry": { "type": "Point", "coordinates": [ -122.4105273, 37.779242 ] } },
{ "type": "Feature", "properties": { "address": "1095 Shafter Ave.", "who": "Cyril Yu", "total": 1 }, "geometry": { "type": "Point", "coordinates": [ -122.381228, 37.725435 ] } },
{ "type": "Feature", "properties": { "address": "1096 Fulton St.", "who": "Cyril Yu", "total": 1 }, "geometry": { "type": "Point", "coordinates": [ -122.4347138, 37.7775022 ] } },
{ "type": "Feature", "properties": { "address": "1098 Harrison St.", "who": "Cyril Yu", "total": 1 }, "geometry": { "type": "Point", "coordinates": [ -122.4061099, 37.7761179 ] } },
{ "type": "Feature", "properties": { "address": "11 17th Ave.", "who": "Rudy Pada<br>Cyril Yu", "total": 2 }, "geometry": { "type": "Point", "coordinates": [ -122.4769086, 37.7867604 ] } },
{ "type": "Feature", "properties": { "address": "11 Bell Ct.", "who": "Cyril Yu", "total": 1 }, "geometry": { "type": "Point", "coordinates": [ -122.3850668, 37.7342619 ] } },
{ "type": "Feature", "properties": { "address": "11 Bennington St.", "who": "Cyril Yu", "total": 1 }, "geometry": { "type": "Point", "coordinates": [ -122.4175516, 37.7400574 ] } },
{ "type": "Feature", "properties": { "address": "11 Brush Pl.", "who": "Cyril Yu", "total": 1 }, "geometry": { "type": "Point", "coordinates": [ -122.4083215, 37.775318 ] } },
{ "type": "Feature", "properties": { "address": "11 Mizpah St.", "who": "Cyril Yu", "total": 1 }, "geometry": { "type": "Point", "coordinates": [ -122.4387284, 37.7369068 ] } },
{ "type": "Feature", "properties": { "address": "11 Winthrop St.", "who": "Cyril Yu", "total": 1 }, "geometry": { "type": "Point", "coordinates": [ -122.4194155, 37.7749295 ] } },
{ "type": "Feature", "properties": { "address": "110 05th St.", "who": "Cyril Yu", "total": 1 }, "geometry": { "type": "Point", "coordinates": [ -122.4060656, 37.7819015 ] } },
{ "type": "Feature", "properties": { "address": "110 27th Ave.", "who": "Cyril Yu", "total": 1 }, "geometry": { "type": "Point", "coordinates": [ -122.4872225, 37.7872731 ] } },
{ "type": "Feature", "properties": { "address": "110 Carl St.", "who": "Cyril Yu", "total": 1 }, "geometry": { "type": "Point", "coordinates": [ -122.4504962, 37.7659013 ] } },
{ "type": "Feature", "properties": { "address": "110 Cherry St.", "who": "Cyril Yu", "total": 1 }, "geometry": { "type": "Point", "coordinates": [ -122.4571291, 37.7893717 ] } },
{ "type": "Feature", "properties": { "address": "110 Connecticut St.", "who": "Cyril Yu", "total": 1 }, "geometry": { "type": "Point", "coordinates": [ -122.3979004, 37.7648243 ] } },
{ "type": "Feature", "properties": { "address": "110 Everson St.", "who": "Cyril Yu<br>Bernie Curran", "total": 2 }, "geometry": { "type": "Point", "coordinates": [ -122.431783, 37.7383915 ] } },
{ "type": "Feature", "properties": { "address": "110 Linda St.", "who": "Cyril Yu", "total": 1 }, "geometry": { "type": "Point", "coordinates": [ -122.4229383, 37.7597864 ] } },
{ "type": "Feature", "properties": { "address": "110 Ripley St.", "who": "Cyril Yu<br>Rodrigo Santos", "total": 2 }, "geometry": { "type": "Point", "coordinates": [ -122.412804, 37.7440302 ] } },
{ "type": "Feature", "properties": { "address": "110 Sagamore St.", "who": "Cyril Yu<br>Bernie Curran", "total": 2 }, "geometry": { "type": "Point", "coordinates": [ -122.4564811, 37.7115823 ] } },
{ "type": "Feature", "properties": { "address": "110 The Embarcadero", "who": "Cyril Yu", "total": 1 }, "geometry": { "type": "Point", "coordinates": [ -122.3926127, 37.7932568 ] } },
{ "type": "Feature", "properties": { "address": "110 Tucker Ave.", "who": "Cyril Yu<br>Bernie Curran", "total": 2 }, "geometry": { "type": "Point", "coordinates": [ -122.406121, 37.7161819 ] } },
{ "type": "Feature", "properties": { "address": "1100 Franklin St.", "who": "Cyril Yu", "total": 1 }, "geometry": { "type": "Point", "coordinates": [ -122.4225255, 37.7847316 ] } },
{ "type": "Feature", "properties": { "address": "1100 Fulton St.", "who": "Cyril Yu", "total": 1 }, "geometry": { "type": "Point", "coordinates": [ -122.4350677, 37.777505 ] } },
{ "type": "Feature", "properties": { "address": "1100 Jackson St.", "who": "Cyril Yu", "total": 1 }, "geometry": { "type": "Point", "coordinates": [ -122.4134069, 37.7953605 ] } },
{ "type": "Feature", "properties": { "address": "1100 Junipero Serra Blvd.", "who": "Cyril Yu", "total": 1 }, "geometry": { "type": "Point", "coordinates": [ -122.4729508, 37.7182084 ] } },
{ "type": "Feature", "properties": { "address": "1100 Lake Merced Blvd.", "who": "Cyril Yu", "total": 1 }, "geometry": { "type": "Point", "coordinates": [ -122.4849122, 37.7084351 ] } },
{ "type": "Feature", "properties": { "address": "1100 Market St.", "who": "Cyril Yu", "total": 1 }, "geometry": { "type": "Point", "coordinates": [ -122.412498, 37.7807304 ] } },
{ "type": "Feature", "properties": { "address": "1100 Monterey Blvd.", "who": "Cyril Yu", "total": 1 }, "geometry": { "type": "Point", "coordinates": [ -122.460988, 37.7304382 ] } },
{ "type": "Feature", "properties": { "address": "1100 Sacramento St.", "who": "Rudy Pada<br>Cyril Yu<br>Bernie Curran", "total": 3 }, "geometry": { "type": "Point", "coordinates": [ -122.4114198, 37.7929478 ] } },
{ "type": "Feature", "properties": { "address": "1100 South Van Ness Ave.", "who": "Cyril Yu", "total": 1 }, "geometry": { "type": "Point", "coordinates": [ -122.4167262, 37.7554671 ] } },
{ "type": "Feature", "properties": { "address": "1100 Van Ness Ave.", "who": "Cyril Yu", "total": 1 }, "geometry": { "type": "Point", "coordinates": [ -122.4209769, 37.7859895 ] } },
{ "type": "Feature", "properties": { "address": "1101 Clay St.", "who": "Cyril Yu", "total": 1 }, "geometry": { "type": "Point", "coordinates": [ -122.4113725, 37.7934796 ] } },
{ "type": "Feature", "properties": { "address": "1101 Green St.", "who": "Rudy Pada<br>Cyril Yu", "total": 2 }, "geometry": { "type": "Point", "coordinates": [ -122.4174152, 37.7982681 ] } },
{ "type": "Feature", "properties": { "address": "1101 Greenwich St.", "who": "Cyril Yu", "total": 1 }, "geometry": { "type": "Point", "coordinates": [ -122.418133, 37.800941 ] } },
{ "type": "Feature", "properties": { "address": "1101 Van Ness Ave.", "who": "Cyril Yu", "total": 1 }, "geometry": { "type": "Point", "coordinates": [ -122.4227467, 37.7860406 ] } },
{ "type": "Feature", "properties": { "address": "1102 Dolores St.", "who": "Cyril Yu", "total": 1 }, "geometry": { "type": "Point", "coordinates": [ -122.4254578, 37.7516734 ] } },
{ "type": "Feature", "properties": { "address": "1102 Tennessee St.", "who": "Cyril Yu", "total": 1 }, "geometry": { "type": "Point", "coordinates": [ -122.3895258, 37.7576903 ] } },
{ "type": "Feature", "properties": { "address": "1107 Mason St.", "who": "Cyril Yu<br>Rodrigo Santos", "total": 2 }, "geometry": { "type": "Point", "coordinates": [ -122.4114419, 37.7937784 ] } },
{ "type": "Feature", "properties": { "address": "1108 Page St.", "who": "Cyril Yu<br>Bernie Curran", "total": 2 }, "geometry": { "type": "Point", "coordinates": [ -122.4392101, 37.7721586 ] } },
{ "type": "Feature", "properties": { "address": "1108 Powhattan Ave.", "who": "Cyril Yu<br>Rodrigo Santos", "total": 2 }, "geometry": { "type": "Point", "coordinates": [ -122.4090968, 37.7411852 ] } },
{ "type": "Feature", "properties": { "address": "1109 Castro St.", "who": "Cyril Yu", "total": 1 }, "geometry": { "type": "Point", "coordinates": [ -122.4339949, 37.7526613 ] } },
{ "type": "Feature", "properties": { "address": "111 27th Ave.", "who": "Cyril Yu", "total": 1 }, "geometry": { "type": "Point", "coordinates": [ -122.4876094, 37.7871817 ] } },
{ "type": "Feature", "properties": { "address": "111 28th St.", "who": "Rudy Pada<br>Cyril Yu", "total": 2 }, "geometry": { "type": "Point", "coordinates": [ -122.4252618, 37.7453139 ] } },
{ "type": "Feature", "properties": { "address": "111 Chestnut St.", "who": "Cyril Yu<br>Bernie Curran", "total": 2 }, "geometry": { "type": "Point", "coordinates": [ -122.4056771, 37.8045643 ] } },
{ "type": "Feature", "properties": { "address": "111 Clement St.", "who": "Cyril Yu", "total": 1 }, "geometry": { "type": "Point", "coordinates": [ -122.4604131, 37.7829506 ] } },
{ "type": "Feature", "properties": { "address": "111 Hoffman Ave.", "who": "Cyril Yu", "total": 1 }, "geometry": { "type": "Point", "coordinates": [ -122.4405973, 37.7529105 ] } },
{ "type": "Feature", "properties": { "address": "111 Mason St.", "who": "Cyril Yu", "total": 1 }, "geometry": { "type": "Point", "coordinates": [ -122.4096135, 37.784498600000013 ] } },
{ "type": "Feature", "properties": { "address": "111 Pine St.", "who": "Cyril Yu", "total": 1 }, "geometry": { "type": "Point", "coordinates": [ -122.3990296, 37.7921412 ] } },
{ "type": "Feature", "properties": { "address": "111 Rhode Island St.", "who": "Cyril Yu", "total": 1 }, "geometry": { "type": "Point", "coordinates": [ -122.4023928, 37.7683251 ] } },
{ "type": "Feature", "properties": { "address": "111 States St.", "who": "Cyril Yu", "total": 1 }, "geometry": { "type": "Point", "coordinates": [ -122.4376521, 37.7631832 ] } },
{ "type": "Feature", "properties": { "address": "111 Sutter St.", "who": "Rudy Pada<br>Cyril Yu<br>Bernie Curran", "total": 3 }, "geometry": { "type": "Point", "coordinates": [ -122.4025654, 37.7899001 ] } },
{ "type": "Feature", "properties": { "address": "111 Williams Ave.", "who": "Rudy Pada<br>Cyril Yu<br>Rodrigo Santos", "total": 3 }, "geometry": { "type": "Point", "coordinates": [ -122.3956374, 37.7294278 ] } },
{ "type": "Feature", "properties": { "address": "1110 Green St.", "who": "Rudy Pada<br>Cyril Yu", "total": 2 }, "geometry": { "type": "Point", "coordinates": [ -122.4175721, 37.7985441 ] } },
{ "type": "Feature", "properties": { "address": "1111 08th St.", "who": "Cyril Yu", "total": 1 }, "geometry": { "type": "Point", "coordinates": [ -122.399486, 37.7673765 ] } },
{ "type": "Feature", "properties": { "address": "1111 17th St.", "who": "Cyril Yu", "total": 1 }, "geometry": { "type": "Point", "coordinates": [ -122.3953168, 37.7649893 ] } },
{ "type": "Feature", "properties": { "address": "1111 Chestnut St.", "who": "Cyril Yu", "total": 1 }, "geometry": { "type": "Point", "coordinates": [ -122.4219736, 37.8025201 ] } },
{ "type": "Feature", "properties": { "address": "1111 Junipero Serra Blvd.", "who": "Cyril Yu", "total": 1 }, "geometry": { "type": "Point", "coordinates": [ -122.4719779, 37.7174653 ] } },
{ "type": "Feature", "properties": { "address": "1111 Taraval St.", "who": "Cyril Yu", "total": 1 }, "geometry": { "type": "Point", "coordinates": [ -122.478187, 37.7427912 ] } },
{ "type": "Feature", "properties": { "address": "1112 Larkin St.", "who": "Rudy Pada<br>Cyril Yu", "total": 2 }, "geometry": { "type": "Point", "coordinates": [ -122.4182741, 37.7882494 ] } },
{ "type": "Feature", "properties": { "address": "1112 Lombard St.", "who": "Cyril Yu<br>Rodrigo Santos", "total": 2 }, "geometry": { "type": "Point", "coordinates": [ -122.4202469, 37.8022347 ] } },
{ "type": "Feature", "properties": { "address": "1114 Cole St.", "who": "Cyril Yu", "total": 1 }, "geometry": { "type": "Point", "coordinates": [ -122.449308, 37.763807 ] } },
{ "type": "Feature", "properties": { "address": "1114 Shotwell St.", "who": "Cyril Yu", "total": 1 }, "geometry": { "type": "Point", "coordinates": [ -122.4152029, 37.7505181 ] } },
{ "type": "Feature", "properties": { "address": "1115 Moraga St.", "who": "Cyril Yu", "total": 1 }, "geometry": { "type": "Point", "coordinates": [ -122.4748465, 37.7559896 ] } },
{ "type": "Feature", "properties": { "address": "1115 Polk St.", "who": "Cyril Yu", "total": 1 }, "geometry": { "type": "Point", "coordinates": [ -122.4202248, 37.7870768 ] } },
{ "type": "Feature", "properties": { "address": "1115 Webster St.", "who": "Cyril Yu", "total": 1 }, "geometry": { "type": "Point", "coordinates": [ -122.4308298, 37.7809356 ] } },
{ "type": "Feature", "properties": { "address": "1116 Pine St.", "who": "Cyril Yu", "total": 1 }, "geometry": { "type": "Point", "coordinates": [ -122.4143255, 37.7906234 ] } },
{ "type": "Feature", "properties": { "address": "1117 Alabama St.", "who": "Cyril Yu", "total": 1 }, "geometry": { "type": "Point", "coordinates": [ -122.4108667, 37.75375 ] } },
{ "type": "Feature", "properties": { "address": "1118 De Haro St.", "who": "Cyril Yu", "total": 1 }, "geometry": { "type": "Point", "coordinates": [ -122.4010411, 37.7556515 ] } },
{ "type": "Feature", "properties": { "address": "1118 Geneva Ave.", "who": "Cyril Yu", "total": 1 }, "geometry": { "type": "Point", "coordinates": [ -122.4376354, 37.7145915 ] } },
{ "type": "Feature", "properties": { "address": "1118 Ingerson Ave.", "who": "Cyril Yu", "total": 1 }, "geometry": { "type": "Point", "coordinates": [ -122.3950825, 37.7205072 ] } },
{ "type": "Feature", "properties": { "address": "1119 Cole St.", "who": "Cyril Yu", "total": 1 }, "geometry": { "type": "Point", "coordinates": [ -122.4497537, 37.7636799 ] } },
{ "type": "Feature", "properties": { "address": "1119 Mason St.", "who": "Cyril Yu", "total": 1 }, "geometry": { "type": "Point", "coordinates": [ -122.4115747, 37.7938865 ] } },
{ "type": "Feature", "properties": { "address": "1119 Mendell St.", "who": "Cyril Yu", "total": 1 }, "geometry": { "type": "Point", "coordinates": [ -122.3887513, 37.7361016 ] } },
{ "type": "Feature", "properties": { "address": "112 27th St.", "who": "Cyril Yu<br>Rodrigo Santos", "total": 2 }, "geometry": { "type": "Point", "coordinates": [ -122.4229479, 37.74724 ] } },
{ "type": "Feature", "properties": { "address": "112 Corwin St.", "who": "Rudy Pada<br>Cyril Yu", "total": 2 }, "geometry": { "type": "Point", "coordinates": [ -122.440341, 37.7575867 ] } },
{ "type": "Feature", "properties": { "address": "112 Delano Ave.", "who": "Cyril Yu", "total": 1 }, "geometry": { "type": "Point", "coordinates": [ -122.4408601, 37.7263257 ] } },
{ "type": "Feature", "properties": { "address": "112 Lunado Wy.", "who": "Rudy Pada<br>Cyril Yu", "total": 2 }, "geometry": { "type": "Point", "coordinates": [ -122.4710271, 37.7242935 ] } },
{ "type": "Feature", "properties": { "address": "112 Ripley St.", "who": "Cyril Yu", "total": 1 }, "geometry": { "type": "Point", "coordinates": [ -122.4127251, 37.7440179 ] } },
{ "type": "Feature", "properties": { "address": "112 Sadowa St.", "who": "Cyril Yu", "total": 1 }, "geometry": { "type": "Point", "coordinates": [ -122.4566426, 37.7124754 ] } },
{ "type": "Feature", "properties": { "address": "112 Virginia Ave.", "who": "Rudy Pada<br>Cyril Yu", "total": 2 }, "geometry": { "type": "Point", "coordinates": [ -122.420081, 37.742362 ] } },
{ "type": "Feature", "properties": { "address": "112 Woodland Ave.", "who": "Cyril Yu", "total": 1 }, "geometry": { "type": "Point", "coordinates": [ -122.4530821, 37.7621622 ] } },
{ "type": "Feature", "properties": { "address": "1120 04th St.", "who": "Cyril Yu", "total": 1 }, "geometry": { "type": "Point", "coordinates": [ -122.3917069, 37.77403 ] } },
{ "type": "Feature", "properties": { "address": "1120 Diamond St.", "who": "Rudy Pada<br>Cyril Yu", "total": 2 }, "geometry": { "type": "Point", "coordinates": [ -122.4362732, 37.7483861 ] } },
{ "type": "Feature", "properties": { "address": "1120 Pacific Ave.", "who": "Cyril Yu", "total": 1 }, "geometry": { "type": "Point", "coordinates": [ -122.4138781, 37.7961908 ] } },
{ "type": "Feature", "properties": { "address": "1120 South Van Ness Ave.", "who": "Rudy Pada<br>Cyril Yu", "total": 2 }, "geometry": { "type": "Point", "coordinates": [ -122.4167958, 37.7551671 ] } },
{ "type": "Feature", "properties": { "address": "1120 Valencia St.", "who": "Cyril Yu", "total": 1 }, "geometry": { "type": "Point", "coordinates": [ -122.4212867, 37.7548848 ] } },
{ "type": "Feature", "properties": { "address": "1121 Tennessee St.", "who": "Cyril Yu", "total": 1 }, "geometry": { "type": "Point", "coordinates": [ -122.3889173, 37.7574024 ] } },
{ "type": "Feature", "properties": { "address": "1122 Folsom St.", "who": "Cyril Yu", "total": 1 }, "geometry": { "type": "Point", "coordinates": [ -122.4086985, 37.7763832 ] } },
{ "type": "Feature", "properties": { "address": "1122 Howard St.", "who": "Cyril Yu", "total": 1 }, "geometry": { "type": "Point", "coordinates": [ -122.4102251, 37.7777194 ] } },
{ "type": "Feature", "properties": { "address": "1122 Powell St.", "who": "Cyril Yu", "total": 1 }, "geometry": { "type": "Point", "coordinates": [ -122.4095428, 37.7951239 ] } },
{ "type": "Feature", "properties": { "address": "1122 Wawona St.", "who": "Cyril Yu", "total": 1 }, "geometry": { "type": "Point", "coordinates": [ -122.4790446, 37.7374783 ] } },
{ "type": "Feature", "properties": { "address": "1124 Fulton St.", "who": "Rudy Pada<br>Cyril Yu", "total": 2 }, "geometry": { "type": "Point", "coordinates": [ -122.4357638, 37.777410499999988 ] } },
{ "type": "Feature", "properties": { "address": "1124 Harrison St.", "who": "Cyril Yu", "total": 1 }, "geometry": { "type": "Point", "coordinates": [ -122.40714, 37.775165 ] } },
{ "type": "Feature", "properties": { "address": "1124 Leavenworth St.", "who": "Cyril Yu", "total": 1 }, "geometry": { "type": "Point", "coordinates": [ -122.4156454, 37.7916299 ] } },
{ "type": "Feature", "properties": { "address": "1125 18th St.", "who": "Cyril Yu", "total": 1 }, "geometry": { "type": "Point", "coordinates": [ -122.3941623, 37.762597199999988 ] } },
{ "type": "Feature", "properties": { "address": "1125 Broadway", "who": "Cyril Yu<br>Bernie Curran", "total": 2 }, "geometry": { "type": "Point", "coordinates": [ -122.4155569, 37.7966068 ] } },
{ "type": "Feature", "properties": { "address": "1125 Fillmore St.", "who": "Cyril Yu", "total": 1 }, "geometry": { "type": "Point", "coordinates": [ -122.4325142, 37.780224 ] } },
{ "type": "Feature", "properties": { "address": "1125 Leavenworth St.", "who": "Cyril Yu", "total": 1 }, "geometry": { "type": "Point", "coordinates": [ -122.4160464, 37.7916454 ] } },
{ "type": "Feature", "properties": { "address": "1125 Mariposa St.", "who": "Cyril Yu", "total": 1 }, "geometry": { "type": "Point", "coordinates": [ -122.3951795, 37.7637274 ] } },
{ "type": "Feature", "properties": { "address": "1125 Mason St.", "who": "Cyril Yu", "total": 1 }, "geometry": { "type": "Point", "coordinates": [ -122.4115304, 37.7939745 ] } },
{ "type": "Feature", "properties": { "address": "1125 Mission St.", "who": "Cyril Yu", "total": 1 }, "geometry": { "type": "Point", "coordinates": [ -122.4112871, 37.7785097 ] } },
{ "type": "Feature", "properties": { "address": "1125 Revere Ave.", "who": "Cyril Yu<br>Bernie Curran", "total": 2 }, "geometry": { "type": "Point", "coordinates": [ -122.3813711, 37.7263988 ] } },
{ "type": "Feature", "properties": { "address": "1125 Union St.", "who": "Cyril Yu<br>Bernie Curran", "total": 2 }, "geometry": { "type": "Point", "coordinates": [ -122.4178023, 37.7991079 ] } },
{ "type": "Feature", "properties": { "address": "1125 Vicente St.", "who": "Cyril Yu", "total": 1 }, "geometry": { "type": "Point", "coordinates": [ -122.4791301, 37.7390481 ] } },
{ "type": "Feature", "properties": { "address": "1126 Bush St.", "who": "Rudy Pada<br>Cyril Yu", "total": 2 }, "geometry": { "type": "Point", "coordinates": [ -122.4159537, 37.789482199999988 ] } },
{ "type": "Feature", "properties": { "address": "1126 Harrison St.", "who": "Rudy Pada<br>Cyril Yu", "total": 2 }, "geometry": { "type": "Point", "coordinates": [ -122.4072467, 37.7750797 ] } },
{ "type": "Feature", "properties": { "address": "1126 Taylor St.", "who": "Cyril Yu", "total": 1 }, "geometry": { "type": "Point", "coordinates": [ -122.4124853, 37.7929385 ] } },
{ "type": "Feature", "properties": { "address": "1127 Hyde St.", "who": "Cyril Yu", "total": 1 }, "geometry": { "type": "Point", "coordinates": [ -122.417725, 37.7913626 ] } },
{ "type": "Feature", "properties": { "address": "1127 Kearny St.", "who": "Cyril Yu", "total": 1 }, "geometry": { "type": "Point", "coordinates": [ -122.4060227, 37.7983711 ] } },
{ "type": "Feature", "properties": { "address": "1127 Wisconsin St.", "who": "Cyril Yu", "total": 1 }, "geometry": { "type": "Point", "coordinates": [ -122.3981667, 37.7531836 ] } },
{ "type": "Feature", "properties": { "address": "1129 Church St.", "who": "Cyril Yu", "total": 1 }, "geometry": { "type": "Point", "coordinates": [ -122.4274085, 37.752763900000012 ] } },
{ "type": "Feature", "properties": { "address": "113 Bartlett St.", "who": "Cyril Yu<br>Rodrigo Santos", "total": 2 }, "geometry": { "type": "Point", "coordinates": [ -122.4195501, 37.754944 ] } },
{ "type": "Feature", "properties": { "address": "1130 04th St.", "who": "Cyril Yu", "total": 1 }, "geometry": { "type": "Point", "coordinates": [ -122.391771, 37.773817 ] } },
{ "type": "Feature", "properties": { "address": "1130 Mendell St.", "who": "Cyril Yu", "total": 1 }, "geometry": { "type": "Point", "coordinates": [ -122.3891496, 37.7362587 ] } },
{ "type": "Feature", "properties": { "address": "1130 Sacramento St.", "who": "Cyril Yu", "total": 1 }, "geometry": { "type": "Point", "coordinates": [ -122.4115583, 37.7929133 ] } },
{ "type": "Feature", "properties": { "address": "1132 Green St.", "who": "Cyril Yu<br>Bernie Curran", "total": 2 }, "geometry": { "type": "Point", "coordinates": [ -122.4179364, 37.798571 ] } },
{ "type": "Feature", "properties": { "address": "1132 Haight St.", "who": "Cyril Yu", "total": 1 }, "geometry": { "type": "Point", "coordinates": [ -122.4411282, 37.771024800000013 ] } },
{ "type": "Feature", "properties": { "address": "1132 Page St.", "who": "Cyril Yu", "total": 1 }, "geometry": { "type": "Point", "coordinates": [ -122.4395403, 37.7720157 ] } },
{ "type": "Feature", "properties": { "address": "1133 Brussels St.", "who": "Cyril Yu", "total": 1 }, "geometry": { "type": "Point", "coordinates": [ -122.4017069, 37.7183109 ] } },
{ "type": "Feature", "properties": { "address": "1133 Dolores St.", "who": "Cyril Yu", "total": 1 }, "geometry": { "type": "Point", "coordinates": [ -122.4247376, 37.7512918 ] } },
{ "type": "Feature", "properties": { "address": "1133 Post St.", "who": "Cyril Yu", "total": 1 }, "geometry": { "type": "Point", "coordinates": [ -122.4204018, 37.7865013 ] } },
{ "type": "Feature", "properties": { "address": "1136 Taraval St.", "who": "Cyril Yu", "total": 1 }, "geometry": { "type": "Point", "coordinates": [ -122.4785811, 37.7431489 ] } },
{ "type": "Feature", "properties": { "address": "1137 Montgomery St.", "who": "Cyril Yu", "total": 1 }, "geometry": { "type": "Point", "coordinates": [ -122.4044505, 37.7996866 ] } },
{ "type": "Feature", "properties": { "address": "1138 Valencia St.", "who": "Cyril Yu", "total": 1 }, "geometry": { "type": "Point", "coordinates": [ -122.4211103, 37.7546545 ] } },
{ "type": "Feature", "properties": { "address": "1139 Athens St.", "who": "Cyril Yu", "total": 1 }, "geometry": { "type": "Point", "coordinates": [ -122.4352779, 37.7123246 ] } },
{ "type": "Feature", "properties": { "address": "1139 Green St.", "who": "Cyril Yu", "total": 1 }, "geometry": { "type": "Point", "coordinates": [ -122.417848, 37.79816 ] } },
{ "type": "Feature", "properties": { "address": "1139 Market St.", "who": "Cyril Yu<br>Rodrigo Santos", "total": 2 }, "geometry": { "type": "Point", "coordinates": [ -122.4132923, 37.7796503 ] } },
{ "type": "Feature", "properties": { "address": "1139 Scott St.", "who": "Cyril Yu", "total": 1 }, "geometry": { "type": "Point", "coordinates": [ -122.4374057, 37.7802604 ] } },
{ "type": "Feature", "properties": { "address": "114 07th St.", "who": "Cyril Yu", "total": 1 }, "geometry": { "type": "Point", "coordinates": [ -122.410811, 37.778917 ] } },
{ "type": "Feature", "properties": { "address": "114 Bridgeview Dr.", "who": "Cyril Yu", "total": 1 }, "geometry": { "type": "Point", "coordinates": [ -122.3958248, 37.7350177 ] } },
{ "type": "Feature", "properties": { "address": "114 Bright St.", "who": "Cyril Yu", "total": 1 }, "geometry": { "type": "Point", "coordinates": [ -122.4633321, 37.7128466 ] } },
{ "type": "Feature", "properties": { "address": "114 Brighton Ave.", "who": "Cyril Yu<br>Bernie Curran", "total": 2 }, "geometry": { "type": "Point", "coordinates": [ -122.4548845, 37.7202885 ] } },
{ "type": "Feature", "properties": { "address": "114 Bronte St.", "who": "Cyril Yu", "total": 1 }, "geometry": { "type": "Point", "coordinates": [ -122.4104242, 37.7379094 ] } },
{ "type": "Feature", "properties": { "address": "114 Clearfield Dr.", "who": "Cyril Yu", "total": 1 }, "geometry": { "type": "Point", "coordinates": [ -122.4911466, 37.7316099 ] } },
{ "type": "Feature", "properties": { "address": "114 Grand View Ave.", "who": "Cyril Yu", "total": 1 }, "geometry": { "type": "Point", "coordinates": [ -122.4402947, 37.7560968 ] } },
{ "type": "Feature", "properties": { "address": "114 Jersey St.", "who": "Cyril Yu", "total": 1 }, "geometry": { "type": "Point", "coordinates": [ -122.427828, 37.751057 ] } },
{ "type": "Feature", "properties": { "address": "114 Monticello St.", "who": "Cyril Yu", "total": 1 }, "geometry": { "type": "Point", "coordinates": [ -122.4705121, 37.7164353 ] } },
{ "type": "Feature", "properties": { "address": "114 Nevada St.", "who": "Cyril Yu", "total": 1 }, "geometry": { "type": "Point", "coordinates": [ -122.4114309, 37.7410917 ] } },
{ "type": "Feature", "properties": { "address": "114 Niagara Ave.", "who": "Cyril Yu", "total": 1 }, "geometry": { "type": "Point", "coordinates": [ -122.4436938, 37.7174002 ] } },
{ "type": "Feature", "properties": { "address": "114 Powell St.", "who": "Cyril Yu", "total": 1 }, "geometry": { "type": "Point", "coordinates": [ -122.4077777, 37.7858449 ] } },
{ "type": "Feature", "properties": { "address": "114 Rousseau St.", "who": "Cyril Yu", "total": 1 }, "geometry": { "type": "Point", "coordinates": [ -122.4304117, 37.7329104 ] } },
{ "type": "Feature", "properties": { "address": "114 Sansome St.", "who": "Cyril Yu", "total": 1 }, "geometry": { "type": "Point", "coordinates": [ -122.4006838, 37.7914795 ] } },
{ "type": "Feature", "properties": { "address": "114 Santa Ynez Ave.", "who": "Cyril Yu", "total": 1 }, "geometry": { "type": "Point", "coordinates": [ -122.4404646, 37.7250234 ] } },
{ "type": "Feature", "properties": { "address": "114 Sussex St.", "who": "Cyril Yu", "total": 1 }, "geometry": { "type": "Point", "coordinates": [ -122.4351009, 37.7373151 ] } },
{ "type": "Feature", "properties": { "address": "1140 Folsom St.", "who": "Cyril Yu", "total": 1 }, "geometry": { "type": "Point", "coordinates": [ -122.4087438, 37.7762263 ] } },
{ "type": "Feature", "properties": { "address": "1140 Harrison St.", "who": "Cyril Yu", "total": 1 }, "geometry": { "type": "Point", "coordinates": [ -122.4077029, 37.7748838 ] } },
{ "type": "Feature", "properties": { "address": "1140 Hyde St.", "who": "Cyril Yu", "total": 1 }, "geometry": { "type": "Point", "coordinates": [ -122.4173046, 37.7916221 ] } },
{ "type": "Feature", "properties": { "address": "1140 Lawton St.", "who": "Cyril Yu", "total": 1 }, "geometry": { "type": "Point", "coordinates": [ -122.4754493, 37.7581858 ] } },
{ "type": "Feature", "properties": { "address": "1141 Broadway", "who": "Cyril Yu", "total": 1 }, "geometry": { "type": "Point", "coordinates": [ -122.4158666, 37.7964743 ] } },
{ "type": "Feature", "properties": { "address": "1141 Church St.", "who": "Cyril Yu", "total": 1 }, "geometry": { "type": "Point", "coordinates": [ -122.4272706, 37.7526259 ] } },
{ "type": "Feature", "properties": { "address": "1141 Irving St.", "who": "Cyril Yu", "total": 1 }, "geometry": { "type": "Point", "coordinates": [ -122.470209, 37.7636523 ] } },
{ "type": "Feature", "properties": { "address": "1142 Jackson St.", "who": "Cyril Yu", "total": 1 }, "geometry": { "type": "Point", "coordinates": [ -122.4139964, 37.7953435 ] } },
{ "type": "Feature", "properties": { "address": "1142 Vallejo St.", "who": "Cyril Yu", "total": 1 }, "geometry": { "type": "Point", "coordinates": [ -122.4161377, 37.7977862 ] } },
{ "type": "Feature", "properties": { "address": "1142 Van Ness Ave.", "who": "Cyril Yu", "total": 1 }, "geometry": { "type": "Point", "coordinates": [ -122.4211832, 37.7863845 ] } },
{ "type": "Feature", "properties": { "address": "1142 York St.", "who": "Cyril Yu<br>Rodrigo Santos", "total": 2 }, "geometry": { "type": "Point", "coordinates": [ -122.408546, 37.753678 ] } },
{ "type": "Feature", "properties": { "address": "1143 Post St.", "who": "Cyril Yu", "total": 1 }, "geometry": { "type": "Point", "coordinates": [ -122.4206451, 37.7864823 ] } },
{ "type": "Feature", "properties": { "address": "1144 Capp St.", "who": "Cyril Yu<br>Rodrigo Santos", "total": 2 }, "geometry": { "type": "Point", "coordinates": [ -122.4174152, 37.7486464 ] } },
{ "type": "Feature", "properties": { "address": "1145 Douglass St.", "who": "Cyril Yu", "total": 1 }, "geometry": { "type": "Point", "coordinates": [ -122.4379842, 37.7472167 ] } },
{ "type": "Feature", "properties": { "address": "1145 Hyde St.", "who": "Cyril Yu", "total": 1 }, "geometry": { "type": "Point", "coordinates": [ -122.4178153, 37.7916152 ] } },
{ "type": "Feature", "properties": { "address": "1147 Naples St.", "who": "Cyril Yu", "total": 1 }, "geometry": { "type": "Point", "coordinates": [ -122.436981, 37.7126576 ] } },
{ "type": "Feature", "properties": { "address": "1147 Sanchez St.", "who": "Cyril Yu", "total": 1 }, "geometry": { "type": "Point", "coordinates": [ -122.4293812, 37.750909 ] } },
{ "type": "Feature", "properties": { "address": "115 09th Ave.", "who": "Cyril Yu", "total": 1 }, "geometry": { "type": "Point", "coordinates": [ -122.4680337, 37.7863023 ] } },
{ "type": "Feature", "properties": { "address": "115 Cherry St.", "who": "Cyril Yu", "total": 1 }, "geometry": { "type": "Point", "coordinates": [ -122.4575687, 37.7892665 ] } },
{ "type": "Feature", "properties": { "address": "115 Colby St.", "who": "Cyril Yu", "total": 1 }, "geometry": { "type": "Point", "coordinates": [ -122.4137317, 37.7287264 ] } },
{ "type": "Feature", "properties": { "address": "115 Collingwood St.", "who": "Cyril Yu", "total": 1 }, "geometry": { "type": "Point", "coordinates": [ -122.4359651, 37.7605383 ] } },
{ "type": "Feature", "properties": { "address": "115 Dalewood Wy.", "who": "Cyril Yu", "total": 1 }, "geometry": { "type": "Point", "coordinates": [ -122.455548, 37.7371024 ] } },
{ "type": "Feature", "properties": { "address": "115 Gough St.", "who": "Cyril Yu", "total": 1 }, "geometry": { "type": "Point", "coordinates": [ -122.4227025, 37.774404200000014 ] } },
{ "type": "Feature", "properties": { "address": "115 Jordan Ave.", "who": "Cyril Yu", "total": 1 }, "geometry": { "type": "Point", "coordinates": [ -122.4570518, 37.7835021 ] } },
{ "type": "Feature", "properties": { "address": "115 Julian Ave.", "who": "Cyril Yu", "total": 1 }, "geometry": { "type": "Point", "coordinates": [ -122.4208332, 37.7662774 ] } },
{ "type": "Feature", "properties": { "address": "115 Maywood Dr.", "who": "Cyril Yu", "total": 1 }, "geometry": { "type": "Point", "coordinates": [ -122.4621379, 37.7343662 ] } },
{ "type": "Feature", "properties": { "address": "115 Moncada Wy.", "who": "Cyril Yu", "total": 1 }, "geometry": { "type": "Point", "coordinates": [ -122.4695678, 37.726642 ] } },
{ "type": "Feature", "properties": { "address": "115 Mountain Spring Ave.", "who": "Cyril Yu", "total": 1 }, "geometry": { "type": "Point", "coordinates": [ -122.4514345, 37.7579141 ] } },
{ "type": "Feature", "properties": { "address": "115 Sansome St.", "who": "Cyril Yu", "total": 1 }, "geometry": { "type": "Point", "coordinates": [ -122.4010603, 37.7914348 ] } },
{ "type": "Feature", "properties": { "address": "115 Spruce St.", "who": "Cyril Yu", "total": 1 }, "geometry": { "type": "Point", "coordinates": [ -122.4542653, 37.7896811 ] } },
{ "type": "Feature", "properties": { "address": "115 Steiner St.", "who": "Cyril Yu", "total": 1 }, "geometry": { "type": "Point", "coordinates": [ -122.4319316, 37.7702083 ] } },
{ "type": "Feature", "properties": { "address": "115 Tiffany Ave.", "who": "Cyril Yu", "total": 1 }, "geometry": { "type": "Point", "coordinates": [ -122.421133, 37.7450634 ] } },
{ "type": "Feature", "properties": { "address": "115 Ulloa St.", "who": "Cyril Yu", "total": 1 }, "geometry": { "type": "Point", "coordinates": [ -122.4548403, 37.7442083 ] } },
{ "type": "Feature", "properties": { "address": "1150 03rd St.", "who": "Cyril Yu", "total": 1 }, "geometry": { "type": "Point", "coordinates": [ -122.3901343, 37.7730964 ] } },
{ "type": "Feature", "properties": { "address": "1150 Bowdoin St.", "who": "Cyril Yu", "total": 1 }, "geometry": { "type": "Point", "coordinates": [ -122.4089529, 37.7215524 ] } },
{ "type": "Feature", "properties": { "address": "1150 Munich St.", "who": "Rudy Pada<br>Cyril Yu", "total": 2 }, "geometry": { "type": "Point", "coordinates": [ -122.4368846, 37.71096 ] } },
{ "type": "Feature", "properties": { "address": "1150 Quesada Ave.", "who": "Cyril Yu", "total": 1 }, "geometry": { "type": "Point", "coordinates": [ -122.3808621, 37.7276169 ] } },
{ "type": "Feature", "properties": { "address": "1150 Webster St.", "who": "Cyril Yu", "total": 1 }, "geometry": { "type": "Point", "coordinates": [ -122.4295968, 37.7810371 ] } },
{ "type": "Feature", "properties": { "address": "1151 Post St.", "who": "Cyril Yu", "total": 1 }, "geometry": { "type": "Point", "coordinates": [ -122.4207336, 37.7864923 ] } },
{ "type": "Feature", "properties": { "address": "1151 Sanchez St.", "who": "Cyril Yu", "total": 1 }, "geometry": { "type": "Point", "coordinates": [ -122.4294207, 37.7506285 ] } },
{ "type": "Feature", "properties": { "address": "1151 South Van Ness Ave.", "who": "Cyril Yu", "total": 1 }, "geometry": { "type": "Point", "coordinates": [ -122.4161874, 37.7547863 ] } },
{ "type": "Feature", "properties": { "address": "1152 De Haro St.", "who": "Cyril Yu", "total": 1 }, "geometry": { "type": "Point", "coordinates": [ -122.4009127, 37.7552914 ] } },
{ "type": "Feature", "properties": { "address": "1152 Plymouth Ave.", "who": "Cyril Yu", "total": 1 }, "geometry": { "type": "Point", "coordinates": [ -122.4559528, 37.7229327 ] } },
{ "type": "Feature", "properties": { "address": "1153 Leavenworth St.", "who": "Cyril Yu", "total": 1 }, "geometry": { "type": "Point", "coordinates": [ -122.4160097, 37.7918119 ] } },
{ "type": "Feature", "properties": { "address": "1154 Naples St.", "who": "Cyril Yu", "total": 1 }, "geometry": { "type": "Point", "coordinates": [ -122.4375338, 37.7127296 ] } },
{ "type": "Feature", "properties": { "address": "1154 Plymouth Ave.", "who": "Cyril Yu<br>Bernie Curran", "total": 2 }, "geometry": { "type": "Point", "coordinates": [ -122.4558473, 37.7230109 ] } },
{ "type": "Feature", "properties": { "address": "1155 04th St.", "who": "Rudy Pada<br>Cyril Yu", "total": 2 }, "geometry": { "type": "Point", "coordinates": [ -122.3911873, 37.7730834 ] } },
{ "type": "Feature", "properties": { "address": "1155 Alabama St.", "who": "Cyril Yu", "total": 1 }, "geometry": { "type": "Point", "coordinates": [ -122.410933, 37.753404 ] } },
{ "type": "Feature", "properties": { "address": "1155 Harrison St.", "who": "Cyril Yu", "total": 1 }, "geometry": { "type": "Point", "coordinates": [ -122.4074121, 37.7744276 ] } },
{ "type": "Feature", "properties": { "address": "1155 Jones St.", "who": "Cyril Yu", "total": 1 }, "geometry": { "type": "Point", "coordinates": [ -122.4144065, 37.7921225 ] } },
{ "type": "Feature", "properties": { "address": "1155 Pine St.", "who": "Cyril Yu", "total": 1 }, "geometry": { "type": "Point", "coordinates": [ -122.4148751, 37.7901622 ] } },
{ "type": "Feature", "properties": { "address": "1155 Valencia St.", "who": "Cyril Yu", "total": 1 }, "geometry": { "type": "Point", "coordinates": [ -122.4205787, 37.7544323 ] } },
{ "type": "Feature", "properties": { "address": "1158 Page St.", "who": "Cyril Yu", "total": 1 }, "geometry": { "type": "Point", "coordinates": [ -122.4397933, 37.7720589 ] } },
{ "type": "Feature", "properties": { "address": "1159 Church St.", "who": "Cyril Yu", "total": 1 }, "geometry": { "type": "Point", "coordinates": [ -122.4273682, 37.7523021 ] } },
{ "type": "Feature", "properties": { "address": "1159 Green St.", "who": "Cyril Yu", "total": 1 }, "geometry": { "type": "Point", "coordinates": [ -122.4181793, 37.7981218 ] } },
{ "type": "Feature", "properties": { "address": "116 Drake St.", "who": "Cyril Yu", "total": 1 }, "geometry": { "type": "Point", "coordinates": [ -122.436616, 37.7096313 ] } },
{ "type": "Feature", "properties": { "address": "116 Moreland St.", "who": "Cyril Yu", "total": 1 }, "geometry": { "type": "Point", "coordinates": [ -122.4346527, 37.7395334 ] } },
{ "type": "Feature", "properties": { "address": "116 New Montgomery St.", "who": "Cyril Yu", "total": 1 }, "geometry": { "type": "Point", "coordinates": [ -122.4004572, 37.7871623 ] } },
{ "type": "Feature", "properties": { "address": "116 Wawona St.", "who": "Cyril Yu", "total": 1 }, "geometry": { "type": "Point", "coordinates": [ -122.4671354, 37.7410927 ] } },
{ "type": "Feature", "properties": { "address": "1160 Battery St.", "who": "Cyril Yu", "total": 1 }, "geometry": { "type": "Point", "coordinates": [ -122.4014635, 37.801777 ] } },
{ "type": "Feature", "properties": { "address": "1160 Clay St.", "who": "Cyril Yu", "total": 1 }, "geometry": { "type": "Point", "coordinates": [ -122.4122964, 37.7937697 ] } },
{ "type": "Feature", "properties": { "address": "1160 Greenwich St.", "who": "Cyril Yu", "total": 1 }, "geometry": { "type": "Point", "coordinates": [ -122.4187513, 37.8014258 ] } },
{ "type": "Feature", "properties": { "address": "1160 Polk St.", "who": "Cyril Yu", "total": 1 }, "geometry": { "type": "Point", "coordinates": [ -122.4199315, 37.7875316 ] } },
{ "type": "Feature", "properties": { "address": "1160 Webster St.", "who": "Cyril Yu<br>Bernie Curran", "total": 2 }, "geometry": { "type": "Point", "coordinates": [ -122.4303337, 37.7813483 ] } },
{ "type": "Feature", "properties": { "address": "1161 Jackson St.", "who": "Cyril Yu", "total": 1 }, "geometry": { "type": "Point", "coordinates": [ -122.4141722, 37.7949334 ] } },
{ "type": "Feature", "properties": { "address": "1161 Post St.", "who": "Cyril Yu", "total": 1 }, "geometry": { "type": "Point", "coordinates": [ -122.4208663, 37.7864515 ] } },
{ "type": "Feature", "properties": { "address": "1161 Stanyan St.", "who": "Cyril Yu", "total": 1 }, "geometry": { "type": "Point", "coordinates": [ -122.4525182, 37.7630709 ] } },
{ "type": "Feature", "properties": { "address": "1161 York St.", "who": "Cyril Yu", "total": 1 }, "geometry": { "type": "Point", "coordinates": [ -122.4081385, 37.7535197 ] } },
{ "type": "Feature", "properties": { "address": "1163 Munich St.", "who": "Cyril Yu", "total": 1 }, "geometry": { "type": "Point", "coordinates": [ -122.4373851, 37.71061 ] } },
{ "type": "Feature", "properties": { "address": "1163 Shotwell St.", "who": "Rudy Pada<br>Cyril Yu", "total": 2 }, "geometry": { "type": "Point", "coordinates": [ -122.414619, 37.749865 ] } },
{ "type": "Feature", "properties": { "address": "1164 Church St.", "who": "Rudy Pada<br>Cyril Yu", "total": 2 }, "geometry": { "type": "Point", "coordinates": [ -122.4278646, 37.7522104 ] } },
{ "type": "Feature", "properties": { "address": "1165 Filbert St.", "who": "Cyril Yu", "total": 1 }, "geometry": { "type": "Point", "coordinates": [ -122.4186333, 37.8001121 ] } },
{ "type": "Feature", "properties": { "address": "1167 Pine St.", "who": "Cyril Yu", "total": 1 }, "geometry": { "type": "Point", "coordinates": [ -122.4150806, 37.7901409 ] } },
{ "type": "Feature", "properties": { "address": "1167 Stanyan St.", "who": "Rudy Pada<br>Cyril Yu", "total": 2 }, "geometry": { "type": "Point", "coordinates": [ -122.4525403, 37.7628966 ] } },
{ "type": "Feature", "properties": { "address": "1169 Bosworth St.", "who": "Cyril Yu", "total": 1 }, "geometry": { "type": "Point", "coordinates": [ -122.4398896, 37.7346597 ] } },
{ "type": "Feature", "properties": { "address": "1169 Dolores St.", "who": "Rudy Pada<br>Cyril Yu", "total": 2 }, "geometry": { "type": "Point", "coordinates": [ -122.4246629, 37.7507656 ] } },
{ "type": "Feature", "properties": { "address": "1169 Stanyan St.", "who": "Rudy Pada<br>Cyril Yu", "total": 2 }, "geometry": { "type": "Point", "coordinates": [ -122.452553, 37.762873 ] } },
{ "type": "Feature", "properties": { "address": "117 Buchanan St.", "who": "Cyril Yu", "total": 1 }, "geometry": { "type": "Point", "coordinates": [ -122.427114, 37.770929 ] } },
{ "type": "Feature", "properties": { "address": "117 Diamond St.", "who": "Rudy Pada<br>Cyril Yu", "total": 2 }, "geometry": { "type": "Point", "coordinates": [ -122.4369036, 37.7602455 ] } },
{ "type": "Feature", "properties": { "address": "117 Laidley St.", "who": "Cyril Yu", "total": 1 }, "geometry": { "type": "Point", "coordinates": [ -122.4298475, 37.7401318 ] } },
{ "type": "Feature", "properties": { "address": "1170 Harrison St.", "who": "Cyril Yu", "total": 1 }, "geometry": { "type": "Point", "coordinates": [ -122.408128, 37.7744322 ] } },
{ "type": "Feature", "properties": { "address": "1171 Palou Ave.", "who": "Cyril Yu", "total": 1 }, "geometry": { "type": "Point", "coordinates": [ -122.3830381, 37.7292948 ] } },
{ "type": "Feature", "properties": { "address": "1175 Munich St.", "who": "Cyril Yu", "total": 1 }, "geometry": { "type": "Point", "coordinates": [ -122.437722, 37.7107068 ] } },
{ "type": "Feature", "properties": { "address": "1175 Stanyan St.", "who": "Cyril Yu", "total": 1 }, "geometry": { "type": "Point", "coordinates": [ -122.4524519, 37.7628122 ] } },
{ "type": "Feature", "properties": { "address": "1176 Key Ave.", "who": "Cyril Yu", "total": 1 }, "geometry": { "type": "Point", "coordinates": [ -122.3991402, 37.7209248 ] } },
{ "type": "Feature", "properties": { "address": "1176 Quesada Ave.", "who": "Cyril Yu", "total": 1 }, "geometry": { "type": "Point", "coordinates": [ -122.381526, 37.7280092 ] } },
{ "type": "Feature", "properties": { "address": "1179 Capitol Ave.", "who": "Cyril Yu", "total": 1 }, "geometry": { "type": "Point", "coordinates": [ -122.4593959, 37.7232572 ] } },
{ "type": "Feature", "properties": { "address": "1179 Florida St.", "who": "Rudy Pada<br>Cyril Yu", "total": 2 }, "geometry": { "type": "Point", "coordinates": [ -122.4099264, 37.7531732 ] } },
{ "type": "Feature", "properties": { "address": "118 06th Ave.", "who": "Cyril Yu", "total": 1 }, "geometry": { "type": "Point", "coordinates": [ -122.4643935, 37.786301 ] } },
{ "type": "Feature", "properties": { "address": "118 15th Ave.", "who": "Rudy Pada<br>Cyril Yu", "total": 2 }, "geometry": { "type": "Point", "coordinates": [ -122.4741227, 37.7858332 ] } },
{ "type": "Feature", "properties": { "address": "118 Alta St.", "who": "Cyril Yu", "total": 1 }, "geometry": { "type": "Point", "coordinates": [ -122.405323, 37.801591 ] } },
{ "type": "Feature", "properties": { "address": "118 Brewster St.", "who": "Cyril Yu", "total": 1 }, "geometry": { "type": "Point", "coordinates": [ -122.4070723, 37.7448705 ] } },
{ "type": "Feature", "properties": { "address": "118 Dublin St.", "who": "Cyril Yu", "total": 1 }, "geometry": { "type": "Point", "coordinates": [ -122.426796, 37.7182914 ] } },
{ "type": "Feature", "properties": { "address": "118 Grant Ave.", "who": "Cyril Yu", "total": 1 }, "geometry": { "type": "Point", "coordinates": [ -122.4049308, 37.7881189 ] } },
{ "type": "Feature", "properties": { "address": "118 Henry St.", "who": "Cyril Yu", "total": 1 }, "geometry": { "type": "Point", "coordinates": [ -122.433873, 37.76687 ] } },
{ "type": "Feature", "properties": { "address": "118 Holloway Ave.", "who": "Cyril Yu", "total": 1 }, "geometry": { "type": "Point", "coordinates": [ -122.4546224, 37.7220181 ] } },
{ "type": "Feature", "properties": { "address": "118 Huntington Dr.", "who": "Cyril Yu", "total": 1 }, "geometry": { "type": "Point", "coordinates": [ -122.4963527, 37.7319874 ] } },
{ "type": "Feature", "properties": { "address": "118 Lake Merced Hill St South St.", "who": "Cyril Yu<br>Bernie Curran", "total": 2 }, "geometry": { "type": "Point", "coordinates": [ -122.4848505, 37.7112621 ] } },
{ "type": "Feature", "properties": { "address": "118 Monticello St.", "who": "Cyril Yu<br>Bernie Curran", "total": 2 }, "geometry": { "type": "Point", "coordinates": [ -122.4705453, 37.7164903 ] } },
{ "type": "Feature", "properties": { "address": "118 Woodland Ave.", "who": "Rudy Pada<br>Cyril Yu", "total": 2 }, "geometry": { "type": "Point", "coordinates": [ -122.4531485, 37.7621231 ] } },