{
"type": "FeatureCollection",
"crs": { "type": "name", "properties": { "name": "urn:ogc:def:crs:OGC:1.3:CRS84" } },
"features": [
{ "type": "Feature", "properties": { "Status": "Approved", "Address": "828 INNES AVE", "City": "San Francisco ", "Full Address": "828 INNES AVE San Francisco  ", "Latitude": "37.731573", "Longitude": "-122.3744662", "Applicant Entity (Business Name)": "Reese Dreams LLC", "type": "approved" }, "geometry": { "type": "Point", "coordinates": [ -122.3744662, 37.731573 ] } },
{ "type": "Feature", "properties": { "Status": "Approved", "Address": "4526 3RD ST", "City": "San Francisco ", "Full Address": "4526 3RD ST San Francisco  ", "Latitude": "37.7368689", "Longitude": "-122.390256", "Applicant Entity (Business Name)": "CDXX LLC", "type": "approved" }, "geometry": { "type": "Point", "coordinates": [ -122.390256, 37.7368689 ] } },
{ "type": "Feature", "properties": { "Status": "Approved", "Address": "1335 GRANT ST", "City": "San Francisco ", "Full Address": "1335 GRANT ST San Francisco  ", "Latitude": "37.7992127", "Longitude": "-122.4100535", "Applicant Entity (Business Name)": "St. Peters Gateway, Inc", "type": "approved" }, "geometry": { "type": "Point", "coordinates": [ -122.4100535, 37.7992127 ] } },
{ "type": "Feature", "properties": { "Status": "Approved", "Address": "1685 HAIGHT ST", "City": "San Francisco ", "Full Address": "1685 HAIGHT ST San Francisco  ", "Latitude": "37.7694356", "Longitude": "-122.4503232", "Applicant Entity (Business Name)": "Cole Ashbury Group LLC", "type": "approved" }, "geometry": { "type": "Point", "coordinates": [ -122.4503232, 37.7694356 ] } },
{ "type": "Feature", "properties": { "Status": "Approved", "Address": "1398 CALIFORNIA ST", "City": "San Francisco ", "Full Address": "1398 CALIFORNIA ST San Francisco  ", "Latitude": "37.7911857", "Longitude": "-122.4172899", "Applicant Entity (Business Name)": "Displease Marmot LLC", "type": "approved" }, "geometry": { "type": "Point", "coordinates": [ -122.4172899, 37.7911857 ] } },
{ "type": "Feature", "properties": { "Status": "Approved", "Address": "906 POST ST", "City": "San Francisco ", "Full Address": "906 POST ST San Francisco  ", "Latitude": "37.7873415", "Longitude": "-122.4169651", "Applicant Entity (Business Name)": "Magic Flower LLC", "type": "approved" }, "geometry": { "type": "Point", "coordinates": [ -122.4169651, 37.7873415 ] } },
{ "type": "Feature", "properties": { "Status": "Approved", "Address": "3109 FILLMORE ST", "City": "San Francisco ", "Full Address": "3109 FILLMORE ST San Francisco  ", "Latitude": "37.7981967", "Longitude": "-122.4359424", "Applicant Entity (Business Name)": "Capo Enterprises", "type": "approved" }, "geometry": { "type": "Point", "coordinates": [ -122.4359424, 37.7981967 ] } },
{ "type": "Feature", "properties": { "Status": "Approved", "Address": "2845 Geary Blvd.", "City": "San Francisco ", "Full Address": "2845 Geary Blvd. San Francisco  ", "Latitude": "37.7818794", "Longitude": "-122.4497537", "Applicant Entity (Business Name)": "Alpine Support Productions, Inc.", "type": "approved" }, "geometry": { "type": "Point", "coordinates": [ -122.4497537, 37.7818794 ] } },
{ "type": "Feature", "properties": { "Status": "Approved", "Address": "500 JONES ST", "City": "San Francisco ", "Full Address": "500 JONES ST San Francisco  ", "Latitude": "37.7859502", "Longitude": "-122.4154525", "Applicant Entity (Business Name)": "Infinity Wellness LLC", "type": "approved" }, "geometry": { "type": "Point", "coordinates": [ -122.4154525, 37.7859502 ] } },
{ "type": "Feature", "properties": { "Status": "Approved", "Address": "61 CAMBON DR APT 1", "City": "San Francisco ", "Full Address": "61 CAMBON DR APT 1 San Francisco  ", "Latitude": "37.7178087", "Longitude": "-122.4739482", "Applicant Entity (Business Name)": "Positive Vibe", "type": "approved" }, "geometry": { "type": "Point", "coordinates": [ -122.4739482, 37.7178087 ] } },
{ "type": "Feature", "properties": { "Status": "Approved", "Address": "165 MISSISSIPPI ST", "City": "San Francisco ", "Full Address": "165 MISSISSIPPI ST San Francisco  ", "Latitude": "37.7643834", "Longitude": "-122.3946294", "Applicant Entity (Business Name)": "KMBM, Inc", "type": "approved" }, "geometry": { "type": "Point", "coordinates": [ -122.3946294, 37.7643834 ] } },
{ "type": "Feature", "properties": { "Status": "Approved", "Address": "2222 BUSH", "City": "San Francisco ", "Full Address": "2222 BUSH San Francisco  ", "Latitude": "37.7883735", "Longitude": "-122.4228974", "Applicant Entity (Business Name)": "Blackstreet Holdings, LLC", "type": "approved" }, "geometry": { "type": "Point", "coordinates": [ -122.4228974, 37.7883735 ] } },
{ "type": "Feature", "properties": { "Status": "Approved", "Address": "180 O'FARRELL ST", "City": "San Francisco ", "Full Address": "180 O'FARRELL ST San Francisco  ", "Latitude": "37.7867065", "Longitude": "-122.4077488", "Applicant Entity (Business Name)": "United 415 Inc", "type": "approved" }, "geometry": { "type": "Point", "coordinates": [ -122.4077488, 37.7867065 ] } },
{ "type": "Feature", "properties": { "Status": "Approved", "Address": "899 COLUMBUS AVE", "City": "San Francisco ", "Full Address": "899 COLUMBUS AVE San Francisco  ", "Latitude": "37.8025656", "Longitude": "-122.4162845", "Applicant Entity (Business Name)": "899 Columbus LLC", "type": "approved" }, "geometry": { "type": "Point", "coordinates": [ -122.4162845, 37.8025656 ] } },
{ "type": "Feature", "properties": { "Status": "Approved", "Address": "2075 MISSION ST", "City": "San Francisco ", "Full Address": "2075 MISSION ST San Francisco  ", "Latitude": "37.7638551", "Longitude": "-122.4190855", "Applicant Entity (Business Name)": "SFCD LLC", "type": "approved" }, "geometry": { "type": "Point", "coordinates": [ -122.4190855, 37.7638551 ] } },
{ "type": "Feature", "properties": { "Status": "Approved", "Address": "313 IVY STREET", "City": "San Francisco ", "Full Address": "313 IVY STREET San Francisco  ", "Latitude": "37.7772593", "Longitude": "-122.4260356", "Applicant Entity (Business Name)": "ESTD LLC", "type": "approved" }, "geometry": { "type": "Point", "coordinates": [ -122.4260356, 37.7772593 ] } },
{ "type": "Feature", "properties": { "Status": "Approved", "Address": "1735 POLK ST", "City": "San Francisco ", "Full Address": "1735 POLK ST San Francisco  ", "Latitude": "37.7929032", "Longitude": "-122.4239108", "Applicant Entity (Business Name)": "MADRM, LLC", "type": "approved" }, "geometry": { "type": "Point", "coordinates": [ -122.4239108, 37.7929032 ] } },
{ "type": "Feature", "properties": { "Status": "Approved", "Address": "3989 17TH ST", "City": "San Francisco ", "Full Address": "3989 17TH ST San Francisco  ", "Latitude": "37.762401", "Longitude": "-122.4348123", "Applicant Entity (Business Name)": "Grassy Castro LLC", "type": "approved" }, "geometry": { "type": "Point", "coordinates": [ -122.4348123, 37.762401 ] } },
{ "type": "Feature", "properties": { "Status": "Approved", "Address": "1861 Union Street", "City": "San Francisco ", "Full Address": "1861 Union Street San Francisco  ", "Latitude": "37.7976494", "Longitude": "-122.429862", "Applicant Entity (Business Name)": "MME Union Retail, LLC", "type": "approved" }, "geometry": { "type": "Point", "coordinates": [ -122.429862, 37.7976494 ] } },
{ "type": "Feature", "properties": { "Status": "Approved", "Address": "768 STANYAN ST", "City": "San Francisco ", "Full Address": "768 STANYAN ST San Francisco  ", "Latitude": "37.7679057", "Longitude": "-122.453006", "Applicant Entity (Business Name)": "FGW HAIGHT, INC.", "type": "approved" }, "geometry": { "type": "Point", "coordinates": [ -122.453006, 37.7679057 ] } },
{ "type": "Feature", "properties": { "Status": "Approved", "Address": "2627 TAYLOR ST", "City": "San Francisco ", "Full Address": "2627 TAYLOR ST San Francisco  ", "Latitude": "37.8065553", "Longitude": "-122.4182359", "Applicant Entity (Business Name)": "Grassy Grove", "type": "approved" }, "geometry": { "type": "Point", "coordinates": [ -122.4182359, 37.8065553 ] } },
{ "type": "Feature", "properties": { "Status": "Approved", "Address": "258 NOE ST", "City": "San Francisco ", "Full Address": "258 NOE ST San Francisco  ", "Latitude": "37.7648523", "Longitude": "-122.4334732", "Applicant Entity (Business Name)": "The Flore Store", "type": "approved" }, "geometry": { "type": "Point", "coordinates": [ -122.4334732, 37.7648523 ] } },
{ "type": "Feature", "properties": { "Status": "Approved", "Address": "2715 Judah Street", "City": "San Francisco ", "Full Address": "2715 Judah Street San Francisco  ", "Latitude": "37.7609152", "Longitude": "-122.4912518", "Applicant Entity (Business Name)": "BCC SF LLC", "type": "approved" }, "geometry": { "type": "Point", "coordinates": [ -122.4912518, 37.7609152 ] } },
{ "type": "Feature", "properties": { "Status": "Approved", "Address": "518 Brannan St", "City": "San Francisco ", "Full Address": "518 Brannan St San Francisco  ", "Latitude": "37.7780813", "Longitude": "-122.3972373", "Applicant Entity (Business Name)": "SGI Brannan LLC", "type": "approved" }, "geometry": { "type": "Point", "coordinates": [ -122.3972373, 37.7780813 ] } },
{ "type": "Feature", "properties": { "Status": "Approved", "Address": "877-879 BRYANT ST", "City": "San Francisco ", "Full Address": "877-879 BRYANT ST San Francisco  ", "Latitude": "37.77461", "Longitude": "-122.403938", "Applicant Entity (Business Name)": "Bryant & Gilbert LLC", "type": "approved" }, "geometry": { "type": "Point", "coordinates": [ -122.403938, 37.77461 ] } },
{ "type": "Feature", "properties": { "Status": "Approved", "Address": "3407 Geary Blvd", "City": "San Francisco ", "Full Address": "3407 Geary Blvd San Francisco  ", "Latitude": "37.78121", "Longitude": "-122.4554776", "Applicant Entity (Business Name)": "Dai Ma Management LLC", "type": "approved" }, "geometry": { "type": "Point", "coordinates": [ -122.4554776, 37.78121 ] } },
{ "type": "Feature", "properties": { "Status": "Approved", "Address": "235 Clement St", "City": "San Francisco ", "Full Address": "235 Clement St San Francisco  ", "Latitude": "37.7829003", "Longitude": "-122.4617841", "Applicant Entity (Business Name)": "Gnarly Narwhal", "type": "approved" }, "geometry": { "type": "Point", "coordinates": [ -122.4617841, 37.7829003 ] } },
{ "type": "Feature", "properties": { "Status": "Approved", "Address": "1649 DIVISADERO ST.", "City": "San Francisco ", "Full Address": "1649 DIVISADERO ST. San Francisco  ", "Latitude": "37.7849479", "Longitude": "-122.4400432", "Applicant Entity (Business Name)": "DIVISADERO EQUITY PARTNERS", "type": "approved" }, "geometry": { "type": "Point", "coordinates": [ -122.4400432, 37.7849479 ] } },
{ "type": "Feature", "properties": { "Status": "Approved", "Address": "900 Irving Street", "City": "San Francisco ", "Full Address": "900 Irving Street San Francisco  ", "Latitude": "37.7641837", "Longitude": "-122.4675777", "Applicant Entity (Business Name)": "900 Irving LLC", "type": "approved" }, "geometry": { "type": "Point", "coordinates": [ -122.4675777, 37.7641837 ] } },
{ "type": "Feature", "properties": { "Status": "Approved", "Address": "2424 Polk Street", "City": "San Francisco ", "Full Address": "2424 Polk Street San Francisco  ", "Latitude": "37.7992036", "Longitude": "-122.4222379", "Applicant Entity (Business Name)": "A & E Green Solutions", "type": "approved" }, "geometry": { "type": "Point", "coordinates": [ -122.4222379, 37.7992036 ] } },
{ "type": "Feature", "properties": { "Status": "Approved", "Address": "928 Van Ness Avenue", "City": "San Francisco ", "Full Address": "928 Van Ness Avenue San Francisco  ", "Latitude": "37.7842628", "Longitude": "-122.4206009", "Applicant Entity (Business Name)": "caliverde llc", "type": "approved" }, "geometry": { "type": "Point", "coordinates": [ -122.4206009, 37.7842628 ] } },
{ "type": "Feature", "properties": { "Status": "Approved", "Address": "2030 Union Street", "City": "San Francisco ", "Full Address": "2030 Union Street San Francisco  ", "Latitude": "37.7976449", "Longitude": "-122.4327312", "Applicant Entity (Business Name)": "A & E Green Solutions", "type": "approved" }, "geometry": { "type": "Point", "coordinates": [ -122.4327312, 37.7976449 ] } },
{ "type": "Feature", "properties": { "Status": "Approved", "Address": "2934 Cesar Chavez", "City": "San Francisco ", "Full Address": "2934 Cesar Chavez San Francisco  ", "Latitude": "37.7485306", "Longitude": "-122.4084424", "Applicant Entity (Business Name)": "2934 Cesar Chavez JV, LLC", "type": "approved" }, "geometry": { "type": "Point", "coordinates": [ -122.4084424, 37.7485306 ] } },
{ "type": "Feature", "properties": { "Status": "Approved", "Address": "4218 MISSION ST", "City": "San Francisco ", "Full Address": "4218 MISSION ST San Francisco  ", "Latitude": "37.7297292", "Longitude": "-122.4305548", "Applicant Entity (Business Name)": "BAY AREA GREEN CROSS DISP.,INC", "type": "approved" }, "geometry": { "type": "Point", "coordinates": [ -122.4305548, 37.7297292 ] } },
{ "type": "Feature", "properties": { "App Status": "Build-Out", "Address": "2029 MARKET ST", "City": "San Francisco", "Full Address": "2029 MARKET ST San Francisco ", "Latitude": "37.7683932", "Longitude": "-122.4274806", "Applicant Entity (Business Name)": "RHMT LLC", "type": "approved" }, "geometry": { "type": "Point", "coordinates": [ -122.4274806, 37.7683932 ] } },
{ "type": "Feature", "properties": { "App Status": "Build-Out", "Address": "2414 LOMBARD ST", "City": "San Francisco", "Full Address": "2414 LOMBARD ST San Francisco ", "Latitude": "37.7993292", "Longitude": "-122.4413761", "Applicant Entity (Business Name)": "DEEP THOUGHT, LLC", "type": "approved" }, "geometry": { "type": "Point", "coordinates": [ -122.4413761, 37.7993292 ] } },
{ "type": "Feature", "properties": { "App Status": "Build-Out", "Address": "2441 MISSION ST", "City": "San Francisco", "Full Address": "2441 MISSION ST San Francisco ", "Latitude": "37.7579674", "Longitude": "-122.4187091", "Applicant Entity (Business Name)": "SHAMBALA HEALING CENTER INC", "type": "approved" }, "geometry": { "type": "Point", "coordinates": [ -122.4187091, 37.7579674 ] } },
{ "type": "Feature", "properties": { "App Status": "Build-Out", "Address": "2520 MISSION ST", "City": "San Francisco", "Full Address": "2520 MISSION ST San Francisco ", "Latitude": "37.756628", "Longitude": "-122.4190621", "Applicant Entity (Business Name)": "PURPLE STAR MD COLLECTIVE", "type": "approved" }, "geometry": { "type": "Point", "coordinates": [ -122.4190621, 37.756628 ] } },
{ "type": "Feature", "properties": { "App Status": "Build-Out", "Address": "527 HOWARD ST", "City": "San Francisco", "Full Address": "527 HOWARD ST San Francisco ", "Latitude": "37.7878287", "Longitude": "-122.3965293", "Applicant Entity (Business Name)": "HOWARD STREET PARTNERS, LLC", "type": "approved" }, "geometry": { "type": "Point", "coordinates": [ -122.3965293, 37.7878287 ] } },
{ "type": "Feature", "properties": { "App Status": "Processing", "Address": "502 14TH ST", "City": "San Francisco", "Full Address": "502 14TH ST San Francisco ", "Latitude": "37.7680961", "Longitude": "-122.4295449", "Applicant Entity (Business Name)": "THE LOVE SHACK COOPERATIVE INC", "type": "approved" }, "geometry": { "type": "Point", "coordinates": [ -122.4295449, 37.7680961 ] } },
{ "type": "Feature", "properties": { "App Status": "Processing", "Address": "14 VALENCIA ST", "City": "San Francisco", "Full Address": "14 VALENCIA ST San Francisco ", "Latitude": "37.7718398", "Longitude": "-122.422764", "Applicant Entity (Business Name)": "KETAMA COOPERATIVE INC", "type": "approved" }, "geometry": { "type": "Point", "coordinates": [ -122.422764, 37.7718398 ] } },
{ "type": "Feature", "properties": { "App Status": "Processing", "Address": "214 CALIFORNIA ST 211", "City": "San Francisco", "Full Address": "214 CALIFORNIA ST 211 San Francisco ", "Latitude": "37.7935874", "Longitude": "-122.3992288", "Applicant Entity (Business Name)": "DIRECT DISTRIBUTION INC", "type": "approved" }, "geometry": { "type": "Point", "coordinates": [ -122.3992288, 37.7935874 ] } },
{ "type": "Feature", "properties": { "App Status": "Processing", "Address": "1326 GROVE ST", "City": "San Francisco", "Full Address": "1326 GROVE ST San Francisco ", "Latitude": "37.7760711", "Longitude": "-122.4385393", "Applicant Entity (Business Name)": "BAY AREA SAFE ALTRNTVS COL INC", "type": "approved" }, "geometry": { "type": "Point", "coordinates": [ -122.4385393, 37.7760711 ] } },
{ "type": "Feature", "properties": { "App Status": "Processing", "Address": "70 2ND ST", "City": "San Francisco", "Full Address": "70 2ND ST San Francisco ", "Latitude": "37.788283", "Longitude": "-122.400411", "Applicant Entity (Business Name)": "SEVENTY SECOND STREET", "type": "approved" }, "geometry": { "type": "Point", "coordinates": [ -122.400411, 37.788283 ] } },
{ "type": "Feature", "properties": { "App Status": "Processing", "Address": "5234 MISSION ST", "City": "San Francisco", "Full Address": "5234 MISSION ST San Francisco ", "Latitude": "37.7153736", "Longitude": "-122.4421476", "Applicant Entity (Business Name)": "MSTMA INC", "type": "approved" }, "geometry": { "type": "Point", "coordinates": [ -122.4421476, 37.7153736 ] } },
{ "type": "Feature", "properties": { "App Status": "Processing", "Address": "1545 OCEAN AVE", "City": "San Francisco", "Full Address": "1545 OCEAN AVE San Francisco ", "Latitude": "37.7242749", "Longitude": "-122.4615646", "Applicant Entity (Business Name)": "WATERFALL WELLNESS CO-OP INC", "type": "approved" }, "geometry": { "type": "Point", "coordinates": [ -122.4615646, 37.7242749 ] } },
{ "type": "Feature", "properties": { "App Status": "Processing", "Address": "79 9TH ST", "City": "San Francisco", "Full Address": "79 9TH ST San Francisco ", "Latitude": "37.7766776", "Longitude": "-122.4149097", "Applicant Entity (Business Name)": "VRC LMT, INC.", "type": "approved" }, "geometry": { "type": "Point", "coordinates": [ -122.4149097, 37.7766776 ] } },
{ "type": "Feature", "properties": { "App Status": "Processing", "Address": "211 12TH ST", "City": "San Francisco", "Full Address": "211 12TH ST San Francisco ", "Latitude": "37.7717593", "Longitude": "-122.4165499", "Applicant Entity (Business Name)": "SF FOUNDATION ON GOING GREEN", "type": "approved" }, "geometry": { "type": "Point", "coordinates": [ -122.4165499, 37.7717593 ] } },
{ "type": "Feature", "properties": { "App Status": "Processing", "Address": "33 29TH ST", "City": "San Francisco", "Full Address": "33 29TH ST San Francisco ", "Latitude": "37.7439295", "Longitude": "-122.421636", "Applicant Entity (Business Name)": "GOOD LIVING MGMT II INC A CALIF CORPORATION", "type": "approved" }, "geometry": { "type": "Point", "coordinates": [ -122.421636, 37.7439295 ] } },
{ "type": "Feature", "properties": { "App Status": "Processing", "Address": "214 CALIFORNIA ST STE 205", "City": "San Francisco", "Full Address": "214 CALIFORNIA ST STE 205 San Francisco ", "Latitude": "37.7935874", "Longitude": "-122.3992288", "Applicant Entity (Business Name)": "RX FLOWERS, LLC", "type": "approved" }, "geometry": { "type": "Point", "coordinates": [ -122.3992288, 37.7935874 ] } },
{ "type": "Feature", "properties": { "App Status": "Processing", "Address": "761 BRYANT ST", "City": "San Francisco", "Full Address": "761 BRYANT ST San Francisco ", "Latitude": "37.7765797", "Longitude": "-122.4013971", "Applicant Entity (Business Name)": "ACCESS BRYANT SPC", "type": "approved" }, "geometry": { "type": "Point", "coordinates": [ -122.4013971, 37.7765797 ] } },
{ "type": "Feature", "properties": { "App Status": "Processing", "Address": "1944 OCEAN AVE", "City": "San Francisco", "Full Address": "1944 OCEAN AVE San Francisco ", "Latitude": "37.7360077", "Longitude": "-122.5008123", "Applicant Entity (Business Name)": "SF 710 INC", "type": "approved" }, "geometry": { "type": "Point", "coordinates": [ -122.5008123, 37.7360077 ] } },
{ "type": "Feature", "properties": { "App Status": "Processing", "Address": "122 10th Street", "City": "San Francisco", "Full Address": "122 10th Street San Francisco ", "Latitude": "37.7748179", "Longitude": "-122.4157457", "Applicant Entity (Business Name)": "URBAN FLOWERS", "type": "approved" }, "geometry": { "type": "Point", "coordinates": [ -122.4157457, 37.7748179 ] } },
{ "type": "Feature", "properties": { "App Status": "Processing", "Address": "2165 IRVING ST", "City": "San Francisco", "Full Address": "2165 IRVING ST San Francisco ", "Latitude": "37.763273", "Longitude": "-122.4811057", "Applicant Entity (Business Name)": "OUTER SUNSET HOLDINGS, INC", "type": "approved" }, "geometry": { "type": "Point", "coordinates": [ -122.4811057, 37.763273 ] } },
{ "type": "Feature", "properties": { "App Status": "Processing", "Address": "214 CALIFORNIA ST RM 210", "City": "San Francisco", "Full Address": "214 CALIFORNIA ST RM 210 San Francisco ", "Latitude": "37.7935874", "Longitude": "-122.3992288", "Applicant Entity (Business Name)": "214 CALIFORNIA STREET STE.210", "type": "approved" }, "geometry": { "type": "Point", "coordinates": [ -122.3992288, 37.7935874 ] } },
{ "type": "Feature", "properties": { "App Status": "Processing", "Address": "1077 POST ST", "City": "San Francisco", "Full Address": "1077 POST ST San Francisco ", "Latitude": "37.7866041", "Longitude": "-122.4194214", "Applicant Entity (Business Name)": "GRASS ROOTS NONPROFIT COLL INC", "type": "approved" }, "geometry": { "type": "Point", "coordinates": [ -122.4194214, 37.7866041 ] } },
{ "type": "Feature", "properties": { "App Status": "Processing", "Address": "3326 MISSION ST", "City": "San Francisco", "Full Address": "3326 MISSION ST San Francisco ", "Latitude": "37.7436303", "Longitude": "-122.4216185", "Applicant Entity (Business Name)": "BCOK, INC", "type": "approved" }, "geometry": { "type": "Point", "coordinates": [ -122.4216185, 37.7436303 ] } },
{ "type": "Feature", "properties": { "App Status": "Processing", "Address": "1276 MARKET ST", "City": "San Francisco", "Full Address": "1276 MARKET ST San Francisco ", "Latitude": "37.777996", "Longitude": "-122.4160147", "Applicant Entity (Business Name)": "FMSF INC", "type": "approved" }, "geometry": { "type": "Point", "coordinates": [ -122.4160147, 37.777996 ] } },
{ "type": "Feature", "properties": { "App Status": "Processing", "Address": "214 CALIFORNIA STREET STE 209 ST 209", "City": "San Francisco", "Full Address": "214 CALIFORNIA STREET STE 209 ST 209 San Francisco ", "Latitude": "37.7935874", "Longitude": "-122.3992288", "Applicant Entity (Business Name)": "214 CALIFORNIA STREET STE 209", "type": "approved" }, "geometry": { "type": "Point", "coordinates": [ -122.3992288, 37.7935874 ] } },
{ "type": "Feature", "properties": { "App Status": "Processing", "Address": "49 KEARNY ST, Fl 1-3", "City": "San Francisco", "Full Address": "49 KEARNY ST, Fl 1-3 San Francisco ", "Latitude": "37.7885915", "Longitude": "-122.4064595", "Applicant Entity (Business Name)": "710 SF INC", "type": "approved" }, "geometry": { "type": "Point", "coordinates": [ -122.4064595, 37.7885915 ] } },
{ "type": "Feature", "properties": { "App Status": "Processing", "Address": "212 CALIFORNIA ST UNIT A", "City": "San Francisco", "Full Address": "212 CALIFORNIA ST UNIT A San Francisco ", "Latitude": "37.793601", "Longitude": "-122.3991845", "Applicant Entity (Business Name)": "214 CALIFORNIA STREET STE. 201", "type": "approved" }, "geometry": { "type": "Point", "coordinates": [ -122.3991845, 37.793601 ] } },
{ "type": "Feature", "properties": { "App Status": "Processing", "Address": "214 CALIFORNIA ST STE 206", "City": "San Francisco", "Full Address": "214 CALIFORNIA ST STE 206 San Francisco ", "Latitude": "37.7935874", "Longitude": "-122.3992288", "Applicant Entity (Business Name)": "RX EDIBLES, LLC", "type": "approved" }, "geometry": { "type": "Point", "coordinates": [ -122.3992288, 37.7935874 ] } },
{ "type": "Feature", "properties": { "App Status": "Processing", "Address": "1077 POST ST", "City": "San Francisco", "Full Address": "1077 POST ST San Francisco ", "Latitude": "37.7866041", "Longitude": "-122.4194214", "Applicant Entity (Business Name)": "RX EDIBLES, LLC", "type": "approved" }, "geometry": { "type": "Point", "coordinates": [ -122.4194214, 37.7866041 ] } },
{ "type": "Feature", "properties": { "App Status": "Processing", "Address": "1356 VAN NESS AVE", "City": "San Francisco", "Full Address": "1356 VAN NESS AVE San Francisco ", "Latitude": "37.7884049", "Longitude": "-122.4216505", "Applicant Entity (Business Name)": "GILBERT STREET UNIT 4 LLC", "type": "approved" }, "geometry": { "type": "Point", "coordinates": [ -122.4216505, 37.7884049 ] } },
{ "type": "Feature", "properties": { "App Status": "Processing", "Address": "214 CALIFORNIA ST STE 213", "City": "San Francisco", "Full Address": "214 CALIFORNIA ST STE 213 San Francisco ", "Latitude": "37.7935874", "Longitude": "-122.3992288", "Applicant Entity (Business Name)": "214 CALIFORNIA STREET STE. 213", "type": "approved" }, "geometry": { "type": "Point", "coordinates": [ -122.3992288, 37.7935874 ] } },
{ "type": "Feature", "properties": { "App Status": "Processing", "Address": "214 CALIFORNIA STREET STE 207 ST 207", "City": "San Francisco", "Full Address": "214 CALIFORNIA STREET STE 207 ST 207 San Francisco ", "Latitude": "37.7935874", "Longitude": "-122.3992288", "Applicant Entity (Business Name)": "214 CALIFORNIA STREET STE 207", "type": "approved" }, "geometry": { "type": "Point", "coordinates": [ -122.3992288, 37.7935874 ] } },
{ "type": "Feature", "properties": { "App Status": "Processing", "Address": "1940 OCEAN AVE", "City": "San Francisco", "Full Address": "1940 OCEAN AVE San Francisco ", "Latitude": "37.7259419", "Longitude": "-122.4633763", "Applicant Entity (Business Name)": "SF 710 INC", "type": "approved" }, "geometry": { "type": "Point", "coordinates": [ -122.4633763, 37.7259419 ] } },
{ "type": "Feature", "properties": { "App Status": "Processing", "Address": "3015 San Bruno Ave", "City": "San Francisco", "Full Address": "3015 San Bruno Ave San Francisco ", "Latitude": "37.7236189", "Longitude": "-122.4018257", "Applicant Entity (Business Name)": "BLOOMERANG", "type": "approved" }, "geometry": { "type": "Point", "coordinates": [ -122.4018257, 37.7236189 ] } },
{ "type": "Feature", "properties": { "App Status": "Processing", "Address": "2594 Lombard Street", "City": "San Francisco", "Full Address": "2594 Lombard Street San Francisco ", "Latitude": "37.799087", "Longitude": "-122.444212", "Applicant Entity (Business Name)": "Gibert Street Unit 3 LLC", "type": "approved" }, "geometry": { "type": "Point", "coordinates": [ -122.444212, 37.799087 ] } },
{ "type": "Feature", "properties": { "App Status": "Processing - PLN", "Address": "2544 3RD ST", "City": "San Francisco", "Full Address": "2544 3RD ST San Francisco ", "Latitude": "37.7573284", "Longitude": "-122.3884304", "Applicant Entity (Business Name)": "DPC SF LLC", "type": "approved" }, "geometry": { "type": "Point", "coordinates": [ -122.3884304, 37.7573284 ] } },
{ "type": "Feature", "properties": { "App Status": "Processing - PLN", "Address": "473 HAIGHT ST", "City": "San Francisco", "Full Address": "473 HAIGHT ST San Francisco ", "Latitude": "37.7719764", "Longitude": "-122.4298696", "Applicant Entity (Business Name)": "MIPARC INC", "type": "approved" }, "geometry": { "type": "Point", "coordinates": [ -122.4298696, 37.7719764 ] } },
{ "type": "Feature", "properties": { "App Status": "Processing - PLN", "Address": "1933 MISSION ST", "City": "San Francisco", "Full Address": "1933 MISSION ST San Francisco ", "Latitude": "37.7662297", "Longitude": "-122.4193841", "Applicant Entity (Business Name)": "MED THRIVE COOPERATIVE, INC.", "type": "approved" }, "geometry": { "type": "Point", "coordinates": [ -122.4193841, 37.7662297 ] } },
{ "type": "Feature", "properties": { "App Status": "Processing - PLN", "Address": "4811 GEARY BLVD", "City": "San Francisco", "Full Address": "4811 GEARY BLVD San Francisco ", "Latitude": "37.7804212", "Longitude": "-122.4711598", "Applicant Entity (Business Name)": "UGSF, Inc.", "type": "approved" }, "geometry": { "type": "Point", "coordinates": [ -122.4711598, 37.7804212 ] } },
{ "type": "Feature", "properties": { "App Status": "Processing - PLN", "Address": "952 MISSION ST", "City": "San Francisco", "Full Address": "952 MISSION ST San Francisco ", "Latitude": "37.7819282", "Longitude": "-122.4078108", "Applicant Entity (Business Name)": "BCSF INC", "type": "approved" }, "geometry": { "type": "Point", "coordinates": [ -122.4078108, 37.7819282 ] } },
{ "type": "Feature", "properties": { "App Status": "Processing - PLN", "Address": "5258 MISSION ST", "City": "San Francisco", "Full Address": "5258 MISSION ST San Francisco ", "Latitude": "37.7151275", "Longitude": "-122.4423336", "Applicant Entity (Business Name)": "MISSION ORGANIC CENTER, INC.", "type": "approved" }, "geometry": { "type": "Point", "coordinates": [ -122.4423336, 37.7151275 ] } },
{ "type": "Feature", "properties": { "App Status": "Processing - PLN", "Address": "1256 MISSION ST", "City": "San Francisco", "Full Address": "1256 MISSION ST San Francisco ", "Latitude": "37.7769267", "Longitude": "-122.4140758", "Applicant Entity (Business Name)": "TFSSF, LLC", "type": "approved" }, "geometry": { "type": "Point", "coordinates": [ -122.4140758, 37.7769267 ] } },
{ "type": "Feature", "properties": { "App Status": "Processing - PLN", "Address": "3139 MISSION ST", "City": "San Francisco", "Full Address": "3139 MISSION ST San Francisco ", "Latitude": "37.7470104", "Longitude": "-122.4187094", "Applicant Entity (Business Name)": "MISSION HERBAL CARE INC", "type": "approved" }, "geometry": { "type": "Point", "coordinates": [ -122.4187094, 37.7470104 ] } },
{ "type": "Feature", "properties": { "App Status": "Processing - PLN", "Address": "2442 BAYSHORE BLVD", "City": "San Francisco", "Full Address": "2442 BAYSHORE BLVD San Francisco ", "Latitude": "37.7108057", "Longitude": "-122.4069259", "Applicant Entity (Business Name)": "ELEVATED SYSTEMS INC", "type": "approved" }, "geometry": { "type": "Point", "coordinates": [ -122.4069259, 37.7108057 ] } },
{ "type": "Feature", "properties": { "App Status": "Processing - PLN", "Address": "211 12TH ST GROUND", "City": "San Francisco", "Full Address": "211 12TH ST GROUND San Francisco ", "Latitude": "37.7717593", "Longitude": "-122.4165499", "Applicant Entity (Business Name)": "KINEXTUS LLC", "type": "approved" }, "geometry": { "type": "Point", "coordinates": [ -122.4165499, 37.7717593 ] } },
{ "type": "Feature", "properties": { "App Status": "Processing - PLN", "Address": "471 JESSIE ST", "City": "San Francisco", "Full Address": "471 JESSIE ST San Francisco ", "Latitude": "37.7806682", "Longitude": "-122.4102119", "Applicant Entity (Business Name)": "JESSIE STREET COLLECTIVE LLC", "type": "approved" }, "geometry": { "type": "Point", "coordinates": [ -122.4102119, 37.7806682 ] } },
{ "type": "Feature", "properties": { "App Status": "Submitted", "Address": "2594 Lombard Street", "City": "San Francisco", "Full Address": "2594 Lombard Street San Francisco ", "Latitude": "37.799087", "Longitude": "-122.444212", "Applicant Entity (Business Name)": "Gilbert St Unit 3 LLC", "type": "approved" }, "geometry": { "type": "Point", "coordinates": [ -122.444212, 37.799087 ] } }
]
}
