{
"type": "FeatureCollection",
"features": [
{ "type": "Feature", "properties": { "address": "1701 9th Ave.", "units": 6, "year": "2010" }, "geometry": { "type": "Point", "coordinates": [ -122.4661183, 37.7646705 ] } },
{ "type": "Feature", "properties": { "address": "2600 Harrison St.", "units": 19, "year": "2016" }, "geometry": { "type": "Point", "coordinates": [ -122.4124513, 37.7554211 ] } },
{ "type": "Feature", "properties": { "address": "333 Fremont St.", "units": 83, "year": "2005" }, "geometry": { "type": "Point", "coordinates": [ -122.3927654, 37.7875045 ] } },
{ "type": "Feature", "properties": { "address": "1699 Market St.", "units": 160, "year": "2016" }, "geometry": { "type": "Point", "coordinates": [ -122.4219886, 37.7724486 ] } },
{ "type": "Feature", "properties": { "address": "40 1st St.", "units": 265, "year": "2016" }, "geometry": { "type": "Point", "coordinates": [ -122.3986245, 37.7903707 ] } },
{ "type": "Feature", "properties": { "address": "2299 Market St.", "units": 18, "year": "2010" }, "geometry": { "type": "Point", "coordinates": [ -122.4328702, 37.76408 ] } },
{ "type": "Feature", "properties": { "address": "1 South Park Ave.", "units": 35, "year": "2004" }, "geometry": { "type": "Point", "coordinates": [ -122.3928782, 37.7821568 ] } },
{ "type": "Feature", "properties": { "address": "307 Octavia Blvd.", "units": 182, "year": "2012" }, "geometry": { "type": "Point", "coordinates": [ -122.4242225, 37.7748324 ] } },
{ "type": "Feature", "properties": { "address": "2290 3rd St.", "units": 71, "year": "2013" }, "geometry": { "type": "Point", "coordinates": [ -122.3888492, 37.7607183 ] } },
{ "type": "Feature", "properties": { "address": "580 De Haro St.", "units": 12, "year": "2016" }, "geometry": { "type": "Point", "coordinates": [ -122.4017401, 37.7626148 ] } },
{ "type": "Feature", "properties": { "address": "1285 Sutter St.", "units": 107, "year": "2008" }, "geometry": { "type": "Point", "coordinates": [ -122.4212454, 37.7873969 ] } },
{ "type": "Feature", "properties": { "address": "1450 15th St.", "units": 23, "year": "2014" }, "geometry": { "type": "Point", "coordinates": [ -122.4168466, 37.7671185 ] } },
{ "type": "Feature", "properties": { "address": "2655 Van Ness Ave.", "units": 29, "year": "2004" }, "geometry": { "type": "Point", "coordinates": [ -122.4245714, 37.8001377 ] } },
{ "type": "Feature", "properties": { "address": "655 Folsom St.", "units": 89, "year": "2016" }, "geometry": { "type": "Point", "coordinates": [ -122.3978348, 37.7842821 ] } },
{ "type": "Feature", "properties": { "address": "3701 Noriega St.", "units": 12, "year": "2016" }, "geometry": { "type": "Point", "coordinates": [ -122.5035608, 37.7528574 ] } },
{ "type": "Feature", "properties": { "address": "1622-1650 Broadway 0.", "units": 34, "year": "2014" }, "geometry": { "type": "Point", "coordinates": [ -122.424471, 37.795913 ] } },
{ "type": "Feature", "properties": { "address": "340-350 Fremont St.", "units": 348, "year": "2006" }, "geometry": { "type": "Point", "coordinates": [ -122.39296, 37.78704 ] } },
{ "type": "Feature", "properties": { "address": "119 7th St.", "units": 39, "year": "2014" }, "geometry": { "type": "Point", "coordinates": [ -122.4103123, 37.7790728 ] } },
{ "type": "Feature", "properties": { "address": "1 Rincon Hill 0.", "units": 382, "year": "2005" }, "geometry": { "type": "Point", "coordinates": [ -122.3920944, 37.7857456 ] } },
{ "type": "Feature", "properties": { "address": "923 Folsom St.", "units": 115, "year": "2014" }, "geometry": { "type": "Point", "coordinates": [ -122.4040185, 37.7796168 ] } },
{ "type": "Feature", "properties": { "address": "1490 Ocean Ave.", "units": 15, "year": "2013" }, "geometry": { "type": "Point", "coordinates": [ -122.4578258, 37.7245784 ] } },
{ "type": "Feature", "properties": { "address": "667 Folsom St.", "units": 230, "year": "2017" }, "geometry": { "type": "Point", "coordinates": [ -122.3980118, 37.7843022 ] } },
{ "type": "Feature", "properties": { "address": "1598 Bay St.", "units": 28, "year": "2015" }, "geometry": { "type": "Point", "coordinates": [ -122.433077, 37.8033848 ] } },
{ "type": "Feature", "properties": { "address": "3420 18th St.", "units": 16, "year": "2014" }, "geometry": { "type": "Point", "coordinates": [ -122.4200478, 37.7619676 ] } },
{ "type": "Feature", "properties": { "address": "1731 Powell St.", "units": 19, "year": "2013" }, "geometry": { "type": "Point", "coordinates": [ -122.4112871, 37.8006922 ] } },
{ "type": "Feature", "properties": { "address": "875 California St.", "units": 44, "year": "2016" }, "geometry": { "type": "Point", "coordinates": [ -122.4087206, 37.7918051 ] } },
{ "type": "Feature", "properties": { "address": "1540 Market St.", "units": 304, "year": "2017" }, "geometry": { "type": "Point", "coordinates": [ -122.4199593, 37.7750244 ] } },
{ "type": "Feature", "properties": { "address": "1 Hawthorne St.", "units": 165, "year": "2006" }, "geometry": { "type": "Point", "coordinates": [ -122.3988969, 37.7857425 ] } },
{ "type": "Feature", "properties": { "address": "2655 Bush St.", "units": 81, "year": "2009" }, "geometry": { "type": "Point", "coordinates": [ -122.4408016, 37.7859441 ] } },
{ "type": "Feature", "properties": { "address": "2101-2155 Webster St.", "units": 76, "year": "2014" }, "geometry": { "type": "Point", "coordinates": [ -122.432688, 37.79014 ] } },
{ "type": "Feature", "properties": { "address": "2224 Clement St.", "units": 16, "year": "2016" }, "geometry": { "type": "Point", "coordinates": [ -122.4834088, 37.7823757 ] } },
{ "type": "Feature", "properties": { "address": "231 Franklin St.", "units": 32, "year": "2007" }, "geometry": { "type": "Point", "coordinates": [ -122.4214765, 37.7767454 ] } },
{ "type": "Feature", "properties": { "address": "1945 Hyde St.", "units": 7, "year": "2011" }, "geometry": { "type": "Point", "coordinates": [ -122.4192514, 37.7988384 ] } },
{ "type": "Feature", "properties": { "address": "540 De Haro St.", "units": 16, "year": "2016" }, "geometry": { "type": "Point", "coordinates": [ -122.4016609, 37.7629396 ] } },
{ "type": "Feature", "properties": { "address": "750 2nd St.", "units": 14, "year": "2009" }, "geometry": { "type": "Point", "coordinates": [ -122.390271, 37.780006 ] } },
{ "type": "Feature", "properties": { "address": "520 9th St.", "units": 12, "year": "2014" }, "geometry": { "type": "Point", "coordinates": [ -122.4083666, 37.7708452 ] } },
{ "type": "Feature", "properties": { "address": "1 Rincon Hill 0.", "units": 298, "year": "2005" }, "geometry": { "type": "Point", "coordinates": [ -122.3920944, 37.7857456 ] } },
{ "type": "Feature", "properties": { "address": "480 14th St.", "units": 12, "year": "2006" }, "geometry": { "type": "Point", "coordinates": [ -122.4240093, 37.7682248 ] } },
{ "type": "Feature", "properties": { "address": "843-847 Montgomery St.", "units": 13, "year": "2002" }, "geometry": { "type": "Point", "coordinates": [ -122.4039416, 37.7969215 ] } },
{ "type": "Feature", "properties": { "address": "1266 9th Ave.", "units": 15, "year": "2008" }, "geometry": { "type": "Point", "coordinates": [ -122.4661183, 37.7646705 ] } },
{ "type": "Feature", "properties": { "address": "325 Fremont St.", "units": 118, "year": "2014" }, "geometry": { "type": "Point", "coordinates": [ -122.3929446, 37.787776099999988 ] } },
{ "type": "Feature", "properties": { "address": "2601 Van Ness Ave.", "units": 27, "year": "2014" }, "geometry": { "type": "Point", "coordinates": [ -122.4247708, 37.7997547 ] } },
{ "type": "Feature", "properties": { "address": "1 Stanyan St.", "units": 13, "year": "2008" }, "geometry": { "type": "Point", "coordinates": [ -122.4564817, 37.781165 ] } },
{ "type": "Feature", "properties": { "address": "1601 Mission St.", "units": 220, "year": "2016" }, "geometry": { "type": "Point", "coordinates": [ -122.418809, 37.7721023 ] } },
{ "type": "Feature", "properties": { "address": "631 Folsom St.", "units": 120, "year": "2008" }, "geometry": { "type": "Point", "coordinates": [ -122.3968612, 37.7847302 ] } },
{ "type": "Feature", "properties": { "address": "16 Jessie St.", "units": 51, "year": "2007" }, "geometry": { "type": "Point", "coordinates": [ -122.3989398, 37.789918 ] } },
{ "type": "Feature", "properties": { "address": "3418 26th St.", "units": 11, "year": "2011" }, "geometry": { "type": "Point", "coordinates": [ -122.4189859, 37.7491876 ] } },
{ "type": "Feature", "properties": { "address": "2525 California St.", "units": 16, "year": "2003" }, "geometry": { "type": "Point", "coordinates": [ -122.4360336, 37.7883859 ] } },
{ "type": "Feature", "properties": { "address": "233-237 Shipley St.", "units": 21, "year": "2014" }, "geometry": { "type": "Point", "coordinates": [ -122.4033995, 37.7791566 ] } },
{ "type": "Feature", "properties": { "address": "1601 Larkin St.", "units": 27, "year": "2013" }, "geometry": { "type": "Point", "coordinates": [ -122.4197824, 37.7927209 ] } },
{ "type": "Feature", "properties": { "address": "2652 Harrison St.", "units": 20, "year": "2010" }, "geometry": { "type": "Point", "coordinates": [ -122.412526, 37.7551205 ] } },
{ "type": "Feature", "properties": { "address": "110 5th St.", "units": 400, "year": "2015" }, "geometry": { "type": "Point", "coordinates": [ -122.4060656, 37.7819015 ] } },
{ "type": "Feature", "properties": { "address": "900 Minnesota St.", "units": 142, "year": "2005" }, "geometry": { "type": "Point", "coordinates": [ -122.3907207, 37.759744 ] } },
{ "type": "Feature", "properties": { "address": "1461 Pine St.", "units": 35, "year": "2005" }, "geometry": { "type": "Point", "coordinates": [ -122.4197101, 37.7895147 ] } },
{ "type": "Feature", "properties": { "address": "800 Indiana St.", "units": 326, "year": "2015" }, "geometry": { "type": "Point", "coordinates": [ -122.3916833, 37.7590294 ] } },
{ "type": "Feature", "properties": { "address": "1255-1275 Columbus Ave.", "units": 20, "year": "2011" }, "geometry": { "type": "Point", "coordinates": [ -122.4182086, 37.8056073 ] } },
{ "type": "Feature", "properties": { "address": "468 Clementina St.", "units": 13, "year": "2013" }, "geometry": { "type": "Point", "coordinates": [ -122.4055125, 37.7796705 ] } },
{ "type": "Feature", "properties": { "address": "3520 20th St.", "units": 14, "year": "2006" }, "geometry": { "type": "Point", "coordinates": [ -122.4196148, 37.7587467 ] } },
{ "type": "Feature", "properties": { "address": "1726 Haight St.", "units": 30, "year": "2004" }, "geometry": { "type": "Point", "coordinates": [ -122.4507686, 37.7696764 ] } },
{ "type": "Feature", "properties": { "address": "1840 Washington St.", "units": 26, "year": "2005" }, "geometry": { "type": "Point", "coordinates": [ -122.423771, 37.7931588 ] } },
{ "type": "Feature", "properties": { "address": "706 Mission St.", "units": 185, "year": "2013" }, "geometry": { "type": "Point", "coordinates": [ -122.4029921, 37.7852856 ] } },
{ "type": "Feature", "properties": { "address": "19-25 Mason St.", "units": 155, "year": "2015" }, "geometry": { "type": "Point", "coordinates": [ -122.4096056, 37.7837168 ] } },
{ "type": "Feature", "properties": { "address": "1946 Polk St.", "units": 41, "year": "2009" }, "geometry": { "type": "Point", "coordinates": [ -122.4208323, 37.7949439 ] } },
{ "type": "Feature", "properties": { "address": "1868 Van Ness Ave.", "units": 35, "year": "2007" }, "geometry": { "type": "Point", "coordinates": [ -122.4224371, 37.7929463 ] } },
{ "type": "Feature", "properties": { "address": "3500 19th St.", "units": 17, "year": "2008" }, "geometry": { "type": "Point", "coordinates": [ -122.4218176, 37.7603065 ] } },
{ "type": "Feature", "properties": { "address": "1395 22nd St.", "units": 250, "year": "2015" }, "geometry": { "type": "Point", "coordinates": [ -122.3946766, 37.7575383 ] } },
{ "type": "Feature", "properties": { "address": "1630 California St.", "units": 40, "year": "2002" }, "geometry": { "type": "Point", "coordinates": [ -122.4212867, 37.7908441 ] } },
{ "type": "Feature", "properties": { "address": "599 Crestmont St.", "units": 29, "year": "2015" }, "geometry": { "type": "Point", "coordinates": [ -122.460922, 37.758873 ] } },
{ "type": "Feature", "properties": { "address": "733 Front St.", "units": 69, "year": "2005" }, "geometry": { "type": "Point", "coordinates": [ -122.4000623, 37.7980575 ] } },
{ "type": "Feature", "properties": { "address": "1050-1058 Valencia St.", "units": 12, "year": "2012" }, "geometry": { "type": "Point", "coordinates": [ -122.4213176, 37.7559439 ] } },
{ "type": "Feature", "properties": { "address": "2559 Van Ness Ave.", "units": 27, "year": "2010" }, "geometry": { "type": "Point", "coordinates": [ -122.4245097, 37.7992578 ] } },
{ "type": "Feature", "properties": { "address": "355-399 Fremont St.", "units": 452, "year": "2006" }, "geometry": { "type": "Point", "coordinates": [ -122.3925265, 37.7875574 ] } },
{ "type": "Feature", "properties": { "address": "2301 Lombard St.", "units": 22, "year": "2017" }, "geometry": { "type": "Point", "coordinates": [ -122.4396386, 37.799246 ] } },
{ "type": "Feature", "properties": { "address": "248 Ocean Ave.", "units": 5, "year": "2008" }, "geometry": { "type": "Point", "coordinates": [ -122.4420531, 37.7234863 ] } },
{ "type": "Feature", "properties": { "address": null, "units": 98, "year": "2005" }, "geometry": { "type": "Point", "coordinates": [ -79.860718, 36.127071099999988 ] } },
{ "type": "Feature", "properties": { "address": "580 Hayes St.", "units": 29, "year": "2014" }, "geometry": { "type": "Point", "coordinates": [ -122.4259839, 37.7767079 ] } },
{ "type": "Feature", "properties": { "address": "950 Tennessee St.", "units": 103, "year": "2016" }, "geometry": { "type": "Point", "coordinates": [ -122.3898245, 37.7596747 ] } },
{ "type": "Feature", "properties": { "address": "45 Lansing St.", "units": 320, "year": "2011" }, "geometry": { "type": "Point", "coordinates": [ -122.3938608, 37.785972400000013 ] } },
{ "type": "Feature", "properties": { "address": "246 Ritch St.", "units": 19, "year": "2010" }, "geometry": { "type": "Point", "coordinates": [ -122.3958055, 37.7802473 ] } },
{ "type": "Feature", "properties": { "address": "690 Market St.", "units": 19, "year": "2014" }, "geometry": { "type": "Point", "coordinates": [ -122.4032778, 37.7883046 ] } },
{ "type": "Feature", "properties": { "address": "310 Townsend St.", "units": 45, "year": "2005" }, "geometry": { "type": "Point", "coordinates": [ -122.3956663, 37.7769445 ] } },
{ "type": "Feature", "properties": { "address": "2353 Lombard St.", "units": 21, "year": "2013" }, "geometry": { "type": "Point", "coordinates": [ -122.4401329, 37.799111 ] } },
{ "type": "Feature", "properties": { "address": "248/252 9th St.", "units": 15, "year": "2014" }, "geometry": { "type": "Point", "coordinates": [ -122.4194155, 37.7749295 ] } },
{ "type": "Feature", "properties": { "address": "200 Dolores St.", "units": 11, "year": "2010" }, "geometry": { "type": "Point", "coordinates": [ -122.4268834, 37.7660269 ] } },
{ "type": "Feature", "properties": { "address": "899 Valencia St.", "units": 18, "year": "2011" }, "geometry": { "type": "Point", "coordinates": [ -122.4211097, 37.758737 ] } },
{ "type": "Feature", "properties": { "address": "240 Pacific Ave.", "units": 33, "year": "2015" }, "geometry": { "type": "Point", "coordinates": [ -122.4004298, 37.7979458 ] } },
{ "type": "Feature", "properties": { "address": "2900 22nd St.", "units": 14, "year": "2000" }, "geometry": { "type": "Point", "coordinates": [ -122.41256, 37.7560006 ] } },
{ "type": "Feature", "properties": { "address": "1299 Bush St.", "units": 26, "year": "2006" }, "geometry": { "type": "Point", "coordinates": [ -122.4183757, 37.7887251 ] } },
{ "type": "Feature", "properties": { "address": "1001 Van Ness Ave.", "units": 239, "year": "2016" }, "geometry": { "type": "Point", "coordinates": [ -122.4218618, 37.7849729 ] } },
{ "type": "Feature", "properties": { "address": "181 Fremont St.", "units": 74, "year": "2012" }, "geometry": { "type": "Point", "coordinates": [ -122.3953565, 37.7898082 ] } },
{ "type": "Feature", "properties": { "address": "75 Howard St.", "units": 133, "year": "2015" }, "geometry": { "type": "Point", "coordinates": [ -122.3915948, 37.7915968 ] } },
{ "type": "Feature", "properties": { "address": "829 Folsom St.", "units": 69, "year": "2004" }, "geometry": { "type": "Point", "coordinates": [ -122.4018175, 37.7812714 ] } },
{ "type": "Feature", "properties": { "address": "1200 17th St.", "units": 135, "year": "2016" }, "geometry": { "type": "Point", "coordinates": [ -122.3953565, 37.7656838 ] } },
{ "type": "Feature", "properties": { "address": "1717 17th St.", "units": 21, "year": "2010" }, "geometry": { "type": "Point", "coordinates": [ -122.4012207, 37.7644869 ] } },
{ "type": "Feature", "properties": { "address": "2001 Market St.", "units": 81, "year": "2010" }, "geometry": { "type": "Point", "coordinates": [ -122.4270525, 37.7687595 ] } }
]
}
