{
"type": "FeatureCollection",
"features": [
{ "type": "Feature", "properties": { "project_id": "2016-130", "project_name": "824 Hyde", "housing_tenure": "Unknown", "section_415_declaration": "Fee Payment", "entitlement_approval_date": "01/05/2017", "completion_date": "02/27/2021", "units": 14, "affordable_units": 0, "neighborhood": "Nob Hill", "Latitude": 37.774809017000003, "Longitude": -122.410902859999, "year": "2021" }, "geometry": { "type": "Point", "coordinates": [ -122.410902859998998, 37.774809017 ] } },
{ "type": "Feature", "properties": { "project_id": "2002-005", "project_name": "77 Van Ness", "housing_tenure": "Ownership", "section_415_declaration": "On-site BMR Project", "entitlement_approval_date": "01/10/2002", "completion_date": "03/01/2011", "units": 50, "affordable_units": 6, "neighborhood": "Hayes Valley", "Latitude": 37.709905974000002, "Longitude": -122.424864530999, "year": "2011" }, "geometry": { "type": "Point", "coordinates": [ -122.424864530999002, 37.709905974 ] } },
{ "type": "Feature", "properties": { "project_id": "2015-054", "project_name": "240 Pacific", "housing_tenure": "Unknown", "section_415_declaration": "Fee Payment", "entitlement_approval_date": "12/10/2015", "completion_date": "02/01/2020", "units": 33, "affordable_units": 0, "neighborhood": "Financial District/South Beach", "Latitude": 37.780922548, "Longitude": -122.407391962999, "year": "2020" }, "geometry": { "type": "Point", "coordinates": [ -122.407391962999, 37.780922548 ] } },
{ "type": "Feature", "properties": { "project_id": "2005-006", "project_name": "470 Clementina", "housing_tenure": "Ownership", "section_415_declaration": "On-site BMR Project", "entitlement_approval_date": "02/24/2005", "completion_date": "07/24/2007", "units": 12, "affordable_units": 1, "neighborhood": "South of Market", "Latitude": 37.773974219000003, "Longitude": -122.413394378999, "year": "2007" }, "geometry": { "type": "Point", "coordinates": [ -122.413394378999001, 37.773974219 ] } },
{ "type": "Feature", "properties": { "project_id": "2003-021", "project_name": "2525 California", "housing_tenure": "Unknown", "section_415_declaration": "Fee Payment", "entitlement_approval_date": "10/02/2003", "completion_date": "09/15/2003", "units": 16, "affordable_units": 0, "neighborhood": "Pacific Heights", "Latitude": 37.732633127, "Longitude": -122.404212181999, "year": "2003" }, "geometry": { "type": "Point", "coordinates": [ -122.404212181999, 37.732633127 ] } },
{ "type": "Feature", "properties": { "project_id": "2015-022", "project_name": "901 Tennessee", "housing_tenure": "Ownership", "section_415_declaration": "On-site BMR Project", "entitlement_approval_date": "06/04/2015", "completion_date": "10/01/2018", "units": 44, "affordable_units": 6, "neighborhood": "Potrero Hill", "Latitude": 37.781873255000001, "Longitude": -122.39878463999899, "year": "2018" }, "geometry": { "type": "Point", "coordinates": [ -122.398784639998993, 37.781873255 ] } },
{ "type": "Feature", "properties": { "project_id": "2014-034", "project_name": "3420 18th", "housing_tenure": "Unknown", "section_415_declaration": "Fee Payment", "entitlement_approval_date": "12/17/2014", "completion_date": "04/26/2017", "units": 16, "affordable_units": 0, "neighborhood": "Mission", "Latitude": 37.7791075, "Longitude": -122.403479445999, "year": "2017" }, "geometry": { "type": "Point", "coordinates": [ -122.403479445998997, 37.7791075 ] } },
{ "type": "Feature", "properties": { "project_id": "2011-005", "project_name": "1255-1275 Columbus", "housing_tenure": "Unknown", "section_415_declaration": "Fee Payment", "entitlement_approval_date": "07/28/2011", "completion_date": "05/15/2017", "units": 20, "affordable_units": 0, "neighborhood": "Russian Hill", "Latitude": 37.766950713999996, "Longitude": -122.396895419999, "year": "2017" }, "geometry": { "type": "Point", "coordinates": [ -122.396895419998998, 37.766950714 ] } },
{ "type": "Feature", "properties": { "project_id": "2010-008", "project_name": "200 Dolores", "housing_tenure": "Unknown", "section_415_declaration": "Fee Payment", "entitlement_approval_date": "05/13/2010", "completion_date": "10/07/2016", "units": 11, "affordable_units": 0, "neighborhood": "Castro/Upper Market", "Latitude": 37.710930999, "Longitude": -122.460240130999, "year": "2016" }, "geometry": { "type": "Point", "coordinates": [ -122.460240130998997, 37.710930999 ] } },
{ "type": "Feature", "properties": { "project_id": "2003-008", "project_name": "88 Townsend (Formerly 639-669 2nd )", "housing_tenure": "Ownership", "section_415_declaration": "On-site BMR Project", "entitlement_approval_date": "07/31/2003", "completion_date": "09/22/2007", "units": 112, "affordable_units": 13, "neighborhood": "Financial District/South Beach", "Latitude": 37.78610271, "Longitude": -122.38868129199901, "year": "2007" }, "geometry": { "type": "Point", "coordinates": [ -122.388681291999006, 37.78610271 ] } },
{ "type": "Feature", "properties": { "project_id": "2015-029", "project_name": "Shipley House", "housing_tenure": "Ownership", "section_415_declaration": "On-site BMR Project", "entitlement_approval_date": "09/03/2015", "completion_date": "12/02/2020", "units": 15, "affordable_units": 2, "neighborhood": "South of Market", "Latitude": 37.791071148, "Longitude": -122.391144416999, "year": "2020" }, "geometry": { "type": "Point", "coordinates": [ -122.391144416998998, 37.791071148 ] } },
{ "type": "Feature", "properties": { "project_id": "2006-007", "project_name": "480 14th", "housing_tenure": "Ownership", "section_415_declaration": "Fee Payment", "entitlement_approval_date": "01/01/2006", "completion_date": "05/08/2008", "units": 12, "affordable_units": 0, "neighborhood": "Mission", "Latitude": 37.758836578999997, "Longitude": -122.419664943999, "year": "2008" }, "geometry": { "type": "Point", "coordinates": [ -122.419664943998995, 37.758836579 ] } },
{ "type": "Feature", "properties": { "project_id": "2004-006", "project_name": "329 Bay", "housing_tenure": "Ownership", "section_415_declaration": "On-site BMR Project", "entitlement_approval_date": "07/01/2004", "completion_date": "08/23/2008", "units": 21, "affordable_units": 2, "neighborhood": "North Beach", "Latitude": 37.786344151999998, "Longitude": -122.413955467999, "year": "2008" }, "geometry": { "type": "Point", "coordinates": [ -122.413955467999003, 37.786344152 ] } },
{ "type": "Feature", "properties": { "project_id": "2009-003", "project_name": "1622-1650 Broadway", "housing_tenure": "Unknown", "section_415_declaration": "Fee Payment", "entitlement_approval_date": "07/16/2009", "completion_date": "02/27/2017", "units": 34, "affordable_units": 0, "neighborhood": "Pacific Heights", "Latitude": 37.78582138, "Longitude": -122.44076997699899, "year": "2017" }, "geometry": { "type": "Point", "coordinates": [ -122.440769976998993, 37.78582138 ] } },
{ "type": "Feature", "properties": { "project_id": "2012-014", "project_name": "1050 Valencia", "housing_tenure": "Ownership", "section_415_declaration": "Fee Payment", "entitlement_approval_date": "10/25/2012", "completion_date": "11/15/2016", "units": 12, "affordable_units": 0, "neighborhood": "Mission", "Latitude": 37.725577893999997, "Longitude": -122.395623903999, "year": "2016" }, "geometry": { "type": "Point", "coordinates": [ -122.395623903998995, 37.725577894 ] } },
{ "type": "Feature", "properties": { "project_id": "2004-011", "project_name": "520 Chestnut", "housing_tenure": "Ownership", "section_415_declaration": "On-site BMR Project", "entitlement_approval_date": "08/12/2004", "completion_date": "02/01/2007", "units": 20, "affordable_units": 2, "neighborhood": "North Beach", "Latitude": 37.780699933000001, "Longitude": -122.41326998999899, "year": "2007" }, "geometry": { "type": "Point", "coordinates": [ -122.413269989998994, 37.780699933 ] } },
{ "type": "Feature", "properties": { "project_id": "2010-021", "project_name": "411 Valencia", "housing_tenure": "Ownership", "section_415_declaration": "On-site BMR Project", "entitlement_approval_date": "02/10/2011", "completion_date": "06/22/2021", "units": 16, "affordable_units": 2, "neighborhood": "Mission", "Latitude": 37.717010014000003, "Longitude": -122.478923092999, "year": "2021" }, "geometry": { "type": "Point", "coordinates": [ -122.478923092998997, 37.717010014 ] } },
{ "type": "Feature", "properties": { "project_id": "2001-002", "project_name": "149 Fair Oaks", "housing_tenure": "Ownership", "section_415_declaration": "On-site BMR Project", "entitlement_approval_date": "07/12/2001", "completion_date": "11/15/2006", "units": 12, "affordable_units": 1, "neighborhood": "Mission", "Latitude": 37.75791707, "Longitude": -122.395475851999, "year": "2006" }, "geometry": { "type": "Point", "coordinates": [ -122.395475851998995, 37.75791707 ] } },
{ "type": "Feature", "properties": { "project_id": "2005-010", "project_name": "Summit 800", "housing_tenure": "Ownership", "section_415_declaration": "Off-site BMR Project", "entitlement_approval_date": "06/16/2005", "completion_date": "06/19/2014", "units": 182, "affordable_units": 0, "neighborhood": "Lakeshore", "Latitude": 37.787682150999998, "Longitude": -122.392694532999, "year": "2014" }, "geometry": { "type": "Point", "coordinates": [ -122.392694532999002, 37.787682151 ] } },
{ "type": "Feature", "properties": { "project_id": "2015-009", "project_name": "150 Van Ness", "housing_tenure": "Rental", "section_415_declaration": "On-site BMR Project", "entitlement_approval_date": "04/16/2015", "completion_date": "07/29/2021", "units": 420, "affordable_units": 50, "neighborhood": "Tenderloin", "Latitude": 37.783687362000002, "Longitude": -122.409574739999, "year": "2021" }, "geometry": { "type": "Point", "coordinates": [ -122.409574739999002, 37.783687362 ] } },
{ "type": "Feature", "properties": { "project_id": "2005-021", "project_name": "5800 Third  - Buildings 1 & 2", "housing_tenure": "Ownership", "section_415_declaration": "On-site BMR Project", "entitlement_approval_date": "09/15/2005", "completion_date": "09/05/2014", "units": 139, "affordable_units": 17, "neighborhood": "Bayview Hunters Point", "Latitude": 37.782424065000001, "Longitude": -122.409350164999, "year": "2014" }, "geometry": { "type": "Point", "coordinates": [ -122.409350164998997, 37.782424065 ] } },
{ "type": "Feature", "properties": { "project_id": "2006-011", "project_name": "1 Hawthorne", "housing_tenure": "Ownership", "section_415_declaration": "Fee Payment", "entitlement_approval_date": "04/13/2006", "completion_date": "06/05/2010", "units": 165, "affordable_units": 0, "neighborhood": "Financial District/South Beach", "Latitude": 37.789470678999997, "Longitude": -122.404113111999, "year": "2010" }, "geometry": { "type": "Point", "coordinates": [ -122.404113111998996, 37.789470679 ] } },
{ "type": "Feature", "properties": { "project_id": "2007-007", "project_name": "One Ecker Place", "housing_tenure": "Ownership", "section_415_declaration": "Fee Payment", "entitlement_approval_date": "01/18/2007", "completion_date": "03/12/2011", "units": 51, "affordable_units": 0, "neighborhood": "Financial District/South Beach", "Latitude": 37.778515286999998, "Longitude": -122.39432423599899, "year": "2011" }, "geometry": { "type": "Point", "coordinates": [ -122.394324235998994, 37.778515287 ] } },
{ "type": "Feature", "properties": { "project_id": "1999-004", "project_name": "Magnolia Place", "housing_tenure": "Rental", "section_415_declaration": "On-site BMR Project", "entitlement_approval_date": "06/03/1999", "completion_date": "01/28/2003", "units": 27, "affordable_units": 3, "neighborhood": "Marina", "Latitude": 37.771563778999997, "Longitude": -122.418801504999, "year": "2003" }, "geometry": { "type": "Point", "coordinates": [ -122.418801504998996, 37.771563779 ] } },
{ "type": "Feature", "properties": { "project_id": "1997-001", "project_name": "USF - Loyola Village", "housing_tenure": "Rental", "section_415_declaration": "On-site BMR Project", "entitlement_approval_date": "03/06/1997", "completion_date": "08/14/2002", "units": 136, "affordable_units": 18, "neighborhood": "Lone Mountain/USF", "Latitude": 37.779324944000003, "Longitude": -122.451345437999, "year": "2002" }, "geometry": { "type": "Point", "coordinates": [ -122.451345437998995, 37.779324944 ] } },
{ "type": "Feature", "properties": { "project_id": "2013-006", "project_name": "5400 Geary  (aka 369 18th Ave)", "housing_tenure": "Ownership", "section_415_declaration": "On-site BMR Project", "entitlement_approval_date": "05/09/2013", "completion_date": "06/22/2016", "units": 43, "affordable_units": 5, "neighborhood": "Outer Richmond", "Latitude": 37.777729735000001, "Longitude": -122.418403789999, "year": "2016" }, "geometry": { "type": "Point", "coordinates": [ -122.418403789999005, 37.777729735 ] } },
{ "type": "Feature", "properties": { "project_id": "2013-055", "project_name": "2353 Lombard", "housing_tenure": "Unknown", "section_415_declaration": "Fee Payment", "entitlement_approval_date": "01/10/2013", "completion_date": "01/12/2015", "units": 21, "affordable_units": 0, "neighborhood": "Marina", "Latitude": 37.756018795000003, "Longitude": -122.419407094999, "year": "2015" }, "geometry": { "type": "Point", "coordinates": [ -122.419407094999002, 37.756018795 ] } },
{ "type": "Feature", "properties": { "project_id": "2014-018", "project_name": "580 Hayes", "housing_tenure": "Unknown", "section_415_declaration": "Fee Payment", "entitlement_approval_date": "03/23/2017", "completion_date": "05/14/2020", "units": 29, "affordable_units": 0, "neighborhood": "Hayes Valley", "Latitude": 37.774186409000002, "Longitude": -122.418126654999, "year": "2020" }, "geometry": { "type": "Point", "coordinates": [ -122.418126654999, 37.774186409 ] } },
{ "type": "Feature", "properties": { "project_id": "1998-006", "project_name": "945 Vermont", "housing_tenure": "Ownership", "section_415_declaration": "On-site BMR Project", "entitlement_approval_date": "10/16/1998", "completion_date": "12/01/2003", "units": 10, "affordable_units": 1, "neighborhood": "Potrero Hill", "Latitude": 37.750476446, "Longitude": -122.390788454999, "year": "2003" }, "geometry": { "type": "Point", "coordinates": [ -122.390788454998997, 37.750476446 ] } },
{ "type": "Feature", "properties": { "project_id": "2011-023", "project_name": "574 Natoma", "housing_tenure": "Ownership", "section_415_declaration": "On-site BMR Project", "entitlement_approval_date": "04/14/2011", "completion_date": "12/20/2017", "units": 11, "affordable_units": 2, "neighborhood": "South of Market", "Latitude": 37.78587343, "Longitude": -122.393748741999, "year": "2017" }, "geometry": { "type": "Point", "coordinates": [ -122.393748741999005, 37.78587343 ] } },
{ "type": "Feature", "properties": { "project_id": "2000-005", "project_name": "745 Clement", "housing_tenure": "Ownership", "section_415_declaration": "On-site BMR Project", "entitlement_approval_date": "09/27/2000", "completion_date": "11/19/2004", "units": 14, "affordable_units": 1, "neighborhood": "Inner Richmond", "Latitude": 37.76213355, "Longitude": -122.503109062999, "year": "2004" }, "geometry": { "type": "Point", "coordinates": [ -122.503109062999002, 37.76213355 ] } },
{ "type": "Feature", "properties": { "project_id": "2007-006", "project_name": "75 Moss", "housing_tenure": "Ownership", "section_415_declaration": "On-site BMR Project", "entitlement_approval_date": "01/11/2007", "completion_date": "05/02/2011", "units": 14, "affordable_units": 1, "neighborhood": "South of Market", "Latitude": 37.78990623, "Longitude": -122.398956123999, "year": "2011" }, "geometry": { "type": "Point", "coordinates": [ -122.398956123999, 37.78990623 ] } },
{ "type": "Feature", "properties": { "project_id": "2015-063", "project_name": "37 Grace", "housing_tenure": "Unknown", "section_415_declaration": "Fee Payment", "entitlement_approval_date": "10/25/2016", "completion_date": "02/10/2020", "units": 11, "affordable_units": 0, "neighborhood": "South of Market", "Latitude": 37.77399, "Longitude": -122.40479, "year": "2020" }, "geometry": { "type": "Point", "coordinates": [ -122.40479, 37.77399 ] } },
{ "type": "Feature", "properties": { "project_id": "2004-001", "project_name": "Ritz Carlton I", "housing_tenure": "Ownership", "section_415_declaration": "Off-site BMR Project", "entitlement_approval_date": "04/01/2004", "completion_date": "05/30/2006", "units": 52, "affordable_units": 0, "neighborhood": "Financial District/South Beach", "Latitude": 37.746169739000003, "Longitude": -122.419827783999, "year": "2006" }, "geometry": { "type": "Point", "coordinates": [ -122.419827783998997, 37.746169739 ] } },
{ "type": "Feature", "properties": { "project_id": "2004-016", "project_name": "Shipley Square", "housing_tenure": "Ownership", "section_415_declaration": "On-site BMR Project", "entitlement_approval_date": "10/21/2004", "completion_date": "07/01/2010", "units": 78, "affordable_units": 8, "neighborhood": "South of Market", "Latitude": 37.781154821000001, "Longitude": -122.401651399999, "year": "2010" }, "geometry": { "type": "Point", "coordinates": [ -122.401651399998997, 37.781154821 ] } },
{ "type": "Feature", "properties": { "project_id": "2005-025", "project_name": "410 Jessie", "housing_tenure": "Ownership", "section_415_declaration": "On-site BMR Project", "entitlement_approval_date": "10/27/2005", "completion_date": "01/21/2009", "units": 24, "affordable_units": 2, "neighborhood": "South of Market", "Latitude": 37.783242365, "Longitude": -122.420478424999, "year": "2009" }, "geometry": { "type": "Point", "coordinates": [ -122.420478424999004, 37.783242365 ] } },
{ "type": "Feature", "properties": { "project_id": "2007-011", "project_name": "NEMA, Phase I (South & North Tower)", "housing_tenure": "Rental", "section_415_declaration": "On-site BMR Project", "entitlement_approval_date": "04/05/2007", "completion_date": "02/27/2015", "units": 317, "affordable_units": 38, "neighborhood": "South of Market", "Latitude": 37.775679079, "Longitude": -122.41704470299899, "year": "2015" }, "geometry": { "type": "Point", "coordinates": [ -122.417044702998993, 37.775679079 ] } },
{ "type": "Feature", "properties": { "project_id": "1995-007", "project_name": "3930 24th", "housing_tenure": "Rental", "section_415_declaration": "On-site BMR Project", "entitlement_approval_date": "10/12/1995", "completion_date": "10/18/2001", "units": 19, "affordable_units": 2, "neighborhood": "Noe Valley", "Latitude": 37.751758426000002, "Longitude": -122.43043474199899, "year": "2001" }, "geometry": { "type": "Point", "coordinates": [ -122.430434741998994, 37.751758426 ] } },
{ "type": "Feature", "properties": { "project_id": "1999-008", "project_name": "900 Van Ness", "housing_tenure": "Rental", "section_415_declaration": "On-site BMR Project", "entitlement_approval_date": "10/14/1999", "completion_date": "06/08/2004", "units": 28, "affordable_units": 3, "neighborhood": "Tenderloin", "Latitude": 37.784124513999998, "Longitude": -122.415684122999, "year": "2004" }, "geometry": { "type": "Point", "coordinates": [ -122.415684122998996, 37.784124514 ] } },
{ "type": "Feature", "properties": { "project_id": "2003-013", "project_name": "Odeon", "housing_tenure": "Ownership", "section_415_declaration": "On-site BMR Project", "entitlement_approval_date": "06/26/2003", "completion_date": "08/11/2005", "units": 29, "affordable_units": 3, "neighborhood": "Financial District/South Beach", "Latitude": 37.78469338, "Longitude": -122.408132485999, "year": "2005" }, "geometry": { "type": "Point", "coordinates": [ -122.408132485999005, 37.78469338 ] } },
{ "type": "Feature", "properties": { "project_id": "2013-001", "project_name": "2895 San Bruno", "housing_tenure": "Ownership", "section_415_declaration": "On-site BMR Project", "entitlement_approval_date": "01/24/2013", "completion_date": "01/08/2019", "units": 10, "affordable_units": 1, "neighborhood": "Portola", "Latitude": 37.769201433, "Longitude": -122.40347298699901, "year": "2019" }, "geometry": { "type": "Point", "coordinates": [ -122.403472986999006, 37.769201433 ] } },
{ "type": "Feature", "properties": { "project_id": "2014-023", "project_name": "Knox", "housing_tenure": "Ownership", "section_415_declaration": "On-site BMR Project", "entitlement_approval_date": "09/02/2014", "completion_date": "10/25/2018", "units": 91, "affordable_units": 11, "neighborhood": "Potrero Hill", "Latitude": 37.710316378000002, "Longitude": -122.403518555999, "year": "2018" }, "geometry": { "type": "Point", "coordinates": [ -122.403518555999, 37.710316378 ] } },
{ "type": "Feature", "properties": { "project_id": "2005-020", "project_name": "One Rincon, Phase II", "housing_tenure": "Unknown", "section_415_declaration": "Fee Payment", "entitlement_approval_date": "09/01/2005", "completion_date": "09/01/2010", "units": 298, "affordable_units": 0, "neighborhood": "Financial District/South Beach", "Latitude": 37.725173124000001, "Longitude": -122.395520042999, "year": "2010" }, "geometry": { "type": "Point", "coordinates": [ -122.395520042998996, 37.725173124 ] } },
{ "type": "Feature", "properties": { "project_id": "2009-016", "project_name": "Lumina", "housing_tenure": "Ownership", "section_415_declaration": "Off-site BMR Project", "entitlement_approval_date": "09/10/2009", "completion_date": "11/26/2012", "units": 655, "affordable_units": 0, "neighborhood": "Financial District/South Beach", "Latitude": 37.780005717000002, "Longitude": -122.390270962999, "year": "2012" }, "geometry": { "type": "Point", "coordinates": [ -122.390270962998997, 37.780005717 ] } },
{ "type": "Feature", "properties": { "project_id": "2013-007", "project_name": "The Civic", "housing_tenure": "Rental", "section_415_declaration": "On-site BMR Project", "entitlement_approval_date": "05/23/2013", "completion_date": "05/21/2019", "units": 162, "affordable_units": 19, "neighborhood": "Tenderloin", "Latitude": 37.785962235, "Longitude": -122.403214441999, "year": "2019" }, "geometry": { "type": "Point", "coordinates": [ -122.403214441998998, 37.785962235 ] } },
{ "type": "Feature", "properties": { "project_id": "2001-003", "project_name": "Sierra Heights", "housing_tenure": "Ownership", "section_415_declaration": "On-site BMR Project", "entitlement_approval_date": "07/12/2001", "completion_date": "11/13/2008", "units": 67, "affordable_units": 7, "neighborhood": "Potrero Hill", "Latitude": 37.776791762000002, "Longitude": -122.418328475999, "year": "2008" }, "geometry": { "type": "Point", "coordinates": [ -122.418328475999004, 37.776791762 ] } },
{ "type": "Feature", "properties": { "project_id": "2014-014", "project_name": "Rockwell", "housing_tenure": "Ownership", "section_415_declaration": "On-site BMR Project", "entitlement_approval_date": "06/01/2017", "completion_date": "09/18/2019", "units": 261, "affordable_units": 31, "neighborhood": "Western Addition", "Latitude": 37.788363253999997, "Longitude": -122.420841303999, "year": "2019" }, "geometry": { "type": "Point", "coordinates": [ -122.420841303998998, 37.788363254 ] } },
{ "type": "Feature", "properties": { "project_id": "2002-014", "project_name": "525 Gough", "housing_tenure": "Ownership", "section_415_declaration": "On-site BMR Project", "entitlement_approval_date": "04/06/2000", "completion_date": "05/29/2004", "units": 21, "affordable_units": 3, "neighborhood": "Hayes Valley", "Latitude": 37.710223458999998, "Longitude": -122.392856769999, "year": "2004" }, "geometry": { "type": "Point", "coordinates": [ -122.392856769999, 37.710223459 ] } },
{ "type": "Feature", "properties": { "project_id": "2011-027", "project_name": "AVA 55 9th", "housing_tenure": "Rental", "section_415_declaration": "On-site BMR Project", "entitlement_approval_date": "07/14/2011", "completion_date": "06/30/2014", "units": 273, "affordable_units": 33, "neighborhood": "South of Market", "Latitude": 37.777492416000001, "Longitude": -122.423560367999, "year": "2014" }, "geometry": { "type": "Point", "coordinates": [ -122.423560367999002, 37.777492416 ] } },
{ "type": "Feature", "properties": { "project_id": "2017-029", "project_name": "2444 Lombard", "housing_tenure": "Ownership", "section_415_declaration": "On-site BMR Project", "entitlement_approval_date": "11/09/2018", "completion_date": "07/07/2021", "units": 95, "affordable_units": 22, "neighborhood": "Marina", "Latitude": 37.75017498, "Longitude": -122.418561819999, "year": "2021" }, "geometry": { "type": "Point", "coordinates": [ -122.418561819998999, 37.75017498 ] } },
{ "type": "Feature", "properties": { "project_id": "2014-019", "project_name": "1550 Mission (Goodwill)", "housing_tenure": "Rental", "section_415_declaration": "On-site BMR Project", "entitlement_approval_date": "07/17/2014", "completion_date": "11/13/2019", "units": 548, "affordable_units": 110, "neighborhood": "Mission", "Latitude": 37.787838444999998, "Longitude": -122.393031007999, "year": "2019" }, "geometry": { "type": "Point", "coordinates": [ -122.393031007998999, 37.787838445 ] } },
{ "type": "Feature", "properties": { "project_id": "2011-019", "project_name": "3418 26th", "housing_tenure": "Rental", "section_415_declaration": "Fee Payment", "entitlement_approval_date": "04/07/2011", "completion_date": "08/21/2015", "units": 11, "affordable_units": 0, "neighborhood": "Mission", "Latitude": 37.76856011, "Longitude": -122.426308195999, "year": "2015" }, "geometry": { "type": "Point", "coordinates": [ -122.426308195998999, 37.76856011 ] } },
{ "type": "Feature", "properties": { "project_id": "2003-026", "project_name": "888 Paris", "housing_tenure": "Rental", "section_415_declaration": "On-site BMR Project", "entitlement_approval_date": "12/22/2003", "completion_date": "05/25/2006", "units": 67, "affordable_units": 8, "neighborhood": "Excelsior", "Latitude": 37.767547604999997, "Longitude": -122.428032333999, "year": "2006" }, "geometry": { "type": "Point", "coordinates": [ -122.428032333998999, 37.767547605 ] } },
{ "type": "Feature", "properties": { "project_id": "2010-012", "project_name": "246 Ritch", "housing_tenure": "Ownership", "section_415_declaration": "Fee Payment", "entitlement_approval_date": "07/15/2010", "completion_date": "04/18/2014", "units": 19, "affordable_units": 0, "neighborhood": "South of Market", "Latitude": 37.764362355000003, "Longitude": -122.40102882999901, "year": "2014" }, "geometry": { "type": "Point", "coordinates": [ -122.401028829999007, 37.764362355 ] } },
{ "type": "Feature", "properties": { "project_id": "2004-012", "project_name": "Book Concern Building", "housing_tenure": "Ownership", "section_415_declaration": "On-site BMR Project", "entitlement_approval_date": "08/23/2004", "completion_date": "05/04/2007", "units": 60, "affordable_units": 6, "neighborhood": "Tenderloin", "Latitude": 37.799729385, "Longitude": -122.439131793999, "year": "2007" }, "geometry": { "type": "Point", "coordinates": [ -122.439131793998996, 37.799729385 ] } },
{ "type": "Feature", "properties": { "project_id": "2020-012", "project_name": "480 Warren ADUs", "housing_tenure": "Rental", "section_415_declaration": "On-site BMR Project", "entitlement_approval_date": "03/02/2020", "completion_date": "12/20/2022", "units": 13, "affordable_units": 0, "neighborhood": "Inner Sunset", "Latitude": 37.75855, "Longitude": -122.46378, "year": "2022" }, "geometry": { "type": "Point", "coordinates": [ -122.46378, 37.75855 ] } },
{ "type": "Feature", "properties": { "project_id": "2015-025", "project_name": "750 Harrison", "housing_tenure": "Rental", "section_415_declaration": "On-site BMR Project", "entitlement_approval_date": "06/11/2015", "completion_date": "08/03/2019", "units": 79, "affordable_units": 9, "neighborhood": "South of Market", "Latitude": 37.781803736000001, "Longitude": -122.415896548999, "year": "2019" }, "geometry": { "type": "Point", "coordinates": [ -122.415896548999001, 37.781803736 ] } },
{ "type": "Feature", "properties": { "project_id": "2005-015", "project_name": "733 Front", "housing_tenure": "Unknown", "section_415_declaration": "Fee Payment", "entitlement_approval_date": "06/24/2005", "completion_date": "06/25/2008", "units": 69, "affordable_units": 0, "neighborhood": "Financial District/South Beach", "Latitude": 37.788086044000003, "Longitude": -122.41958911699901, "year": "2008" }, "geometry": { "type": "Point", "coordinates": [ -122.419589116999006, 37.788086044 ] } },
{ "type": "Feature", "properties": { "project_id": "2012-022", "project_name": "181 Fremont", "housing_tenure": "Ownership", "section_415_declaration": "Fee Payment", "entitlement_approval_date": "05/09/2012", "completion_date": "01/23/2015", "units": 74, "affordable_units": 0, "neighborhood": "Financial District/South Beach", "Latitude": 37.767101377000003, "Longitude": -122.419446135999, "year": "2015" }, "geometry": { "type": "Point", "coordinates": [ -122.419446135998996, 37.767101377 ] } },
{ "type": "Feature", "properties": { "project_id": "2001-007", "project_name": "Tiffany Gardens", "housing_tenure": "Rental", "section_415_declaration": "On-site BMR Project", "entitlement_approval_date": "12/20/2001", "completion_date": "03/30/2006", "units": 33, "affordable_units": 3, "neighborhood": "Bernal Heights", "Latitude": 37.717764369000001, "Longitude": -122.386781423999, "year": "2006" }, "geometry": { "type": "Point", "coordinates": [ -122.386781423998997, 37.717764369 ] } },
{ "type": "Feature", "properties": { "project_id": "2009-009", "project_name": "Rincon Green", "housing_tenure": "Rental", "section_415_declaration": "On-site BMR Project", "entitlement_approval_date": "04/02/2009", "completion_date": "05/25/2013", "units": 326, "affordable_units": 50, "neighborhood": "Financial District/South Beach", "Latitude": 37.778164902, "Longitude": -122.404677383999, "year": "2013" }, "geometry": { "type": "Point", "coordinates": [ -122.404677383999001, 37.778164902 ] } },
{ "type": "Feature", "properties": { "project_id": "2013-012", "project_name": "450 Hayes (Parcel J)", "housing_tenure": "Ownership", "section_415_declaration": "On-site BMR Project", "entitlement_approval_date": "07/26/2013", "completion_date": "07/20/2016", "units": 41, "affordable_units": 5, "neighborhood": "Hayes Valley", "Latitude": 37.779773217, "Longitude": -122.40558633699899, "year": "2016" }, "geometry": { "type": "Point", "coordinates": [ -122.405586336998994, 37.779773217 ] } },
{ "type": "Feature", "properties": { "project_id": "2004-023", "project_name": "1587 15th", "housing_tenure": "Ownership", "section_415_declaration": "On-site BMR Project", "entitlement_approval_date": "01/01/2005", "completion_date": "07/28/2011", "units": 24, "affordable_units": 3, "neighborhood": "Mission", "Latitude": 37.776067396999998, "Longitude": -122.414073829999, "year": "2011" }, "geometry": { "type": "Point", "coordinates": [ -122.414073829998998, 37.776067397 ] } },
{ "type": "Feature", "properties": { "project_id": "2016-052", "project_name": "2224 Clement", "housing_tenure": "Unknown", "section_415_declaration": "Fee Payment", "entitlement_approval_date": "05/12/2016", "completion_date": "02/09/2021", "units": 16, "affordable_units": 0, "neighborhood": "Outer Richmond", "Latitude": 37.752807918000002, "Longitude": -122.503572959999, "year": "2021" }, "geometry": { "type": "Point", "coordinates": [ -122.503572959999005, 37.752807918 ] } },
{ "type": "Feature", "properties": { "project_id": "2003-009", "project_name": "Watermark", "housing_tenure": "Ownership", "section_415_declaration": "On-site BMR Project", "entitlement_approval_date": "05/01/2003", "completion_date": "07/28/2006", "units": 135, "affordable_units": 16, "neighborhood": "Financial District/South Beach", "Latitude": 37.786147698000001, "Longitude": -122.39429127099901, "year": "2006" }, "geometry": { "type": "Point", "coordinates": [ -122.394291270999005, 37.786147698 ] } },
{ "type": "Feature", "properties": { "project_id": "2005-001", "project_name": "788 Minna", "housing_tenure": "Ownership", "section_415_declaration": "On-site BMR Project", "entitlement_approval_date": "01/01/2005", "completion_date": "06/30/2006", "units": 18, "affordable_units": 2, "neighborhood": "South of Market", "Latitude": 37.710970947, "Longitude": -122.404375865999, "year": "2006" }, "geometry": { "type": "Point", "coordinates": [ -122.404375865999, 37.710970947 ] } },
{ "type": "Feature", "properties": { "project_id": "2010-017", "project_name": "1645 Pacific", "housing_tenure": "Ownership", "section_415_declaration": "On-site BMR Project, Fee Payment", "entitlement_approval_date": "12/16/2010", "completion_date": "07/22/2014", "units": 39, "affordable_units": 5, "neighborhood": "Russian Hill", "Latitude": 37.770074203, "Longitude": -122.426207773999, "year": "2014" }, "geometry": { "type": "Point", "coordinates": [ -122.426207773998996, 37.770074203 ] } },
{ "type": "Feature", "properties": { "project_id": "2011-031", "project_name": "527-529 Stevenson", "housing_tenure": "Rental", "section_415_declaration": "On-site BMR Project", "entitlement_approval_date": "05/26/2011", "completion_date": "05/04/2015", "units": 60, "affordable_units": 9, "neighborhood": "South of Market", "Latitude": 37.758750845000002, "Longitude": -122.42097772599899, "year": "2015" }, "geometry": { "type": "Point", "coordinates": [ -122.420977725998995, 37.758750845 ] } },
{ "type": "Feature", "properties": { "project_id": "2014-009", "project_name": "Duboce", "housing_tenure": "Rental", "section_415_declaration": "On-site BMR Project", "entitlement_approval_date": "05/01/2014", "completion_date": "05/20/2019", "units": 87, "affordable_units": 10, "neighborhood": "Castro/Upper Market", "Latitude": 37.762147831, "Longitude": -122.39186164399899, "year": "2019" }, "geometry": { "type": "Point", "coordinates": [ -122.391861643998993, 37.762147831 ] } },
{ "type": "Feature", "properties": { "project_id": "2002-010", "project_name": "Symphony Towers", "housing_tenure": "Ownership", "section_415_declaration": "On-site BMR Project", "entitlement_approval_date": "10/17/2002", "completion_date": "02/22/2008", "units": 130, "affordable_units": 16, "neighborhood": "Tenderloin", "Latitude": 37.76090076, "Longitude": -122.489529450999, "year": "2008" }, "geometry": { "type": "Point", "coordinates": [ -122.489529450999001, 37.76090076 ] } },
{ "type": "Feature", "properties": { "project_id": "2008-022", "project_name": "901 Bush", "housing_tenure": "Ownership", "section_415_declaration": "On-site BMR Project", "entitlement_approval_date": "06/12/2008", "completion_date": "08/04/2012", "units": 38, "affordable_units": 5, "neighborhood": "Nob Hill", "Latitude": 37.789927933999998, "Longitude": -122.40518354199899, "year": "2012" }, "geometry": { "type": "Point", "coordinates": [ -122.405183541998994, 37.789927934 ] } },
{ "type": "Feature", "properties": { "project_id": "2013-063", "project_name": "1335 Folsom", "housing_tenure": "Rental", "section_415_declaration": "On-site BMR Project", "entitlement_approval_date": "12/09/2015", "completion_date": "01/31/2020", "units": 53, "affordable_units": 7, "neighborhood": "South of Market", "Latitude": 37.80562, "Longitude": -122.4122, "year": "2020" }, "geometry": { "type": "Point", "coordinates": [ -122.4122, 37.80562 ] } },
{ "type": "Feature", "properties": { "project_id": "2013-011", "project_name": "1490 Ocean", "housing_tenure": "Unknown", "section_415_declaration": "Fee Payment", "entitlement_approval_date": "07/11/2013", "completion_date": "11/28/2016", "units": 15, "affordable_units": 0, "neighborhood": "West of Twin Peaks", "Latitude": 37.777036111000001, "Longitude": -122.423879374999, "year": "2016" }, "geometry": { "type": "Point", "coordinates": [ -122.423879374999004, 37.777036111 ] } },
{ "type": "Feature", "properties": { "project_id": "2010-007", "project_name": "301-303, 307-309 & 313-315 Moraga", "housing_tenure": "Unknown", "section_415_declaration": "Fee Payment", "entitlement_approval_date": "03/25/2010", "completion_date": "09/13/2013", "units": 6, "affordable_units": 0, "neighborhood": "Inner Sunset", "Latitude": 37.766053872999997, "Longitude": -122.426975218999, "year": "2013" }, "geometry": { "type": "Point", "coordinates": [ -122.426975218999004, 37.766053873 ] } },
{ "type": "Feature", "properties": { "project_id": "2001-006", "project_name": "Mission Terrace Condominiums", "housing_tenure": "Ownership", "section_415_declaration": "On-site BMR Project", "entitlement_approval_date": "12/06/2001", "completion_date": "02/05/2004", "units": 18, "affordable_units": 2, "neighborhood": "Outer Mission", "Latitude": 37.744274058000002, "Longitude": -122.42134368299899, "year": "2004" }, "geometry": { "type": "Point", "coordinates": [ -122.421343682998994, 37.744274058 ] } },
{ "type": "Feature", "properties": { "project_id": "2016-011", "project_name": "580 De Haro", "housing_tenure": "Unknown", "section_415_declaration": "Fee Payment", "entitlement_approval_date": "02/25/2016", "completion_date": "07/24/2021", "units": 12, "affordable_units": 0, "neighborhood": "Potrero Hill", "Latitude": 37.777664086000001, "Longitude": -122.404157099999, "year": "2021" }, "geometry": { "type": "Point", "coordinates": [ -122.404157099998997, 37.777664086 ] } },
{ "type": "Feature", "properties": { "project_id": "2004-008", "project_name": "Millwheel South", "housing_tenure": "Ownership", "section_415_declaration": "On-site BMR Project", "entitlement_approval_date": "07/01/2004", "completion_date": "08/28/2014", "units": 32, "affordable_units": 4, "neighborhood": "Potrero Hill", "Latitude": 37.754173424000001, "Longitude": -122.39034562299901, "year": "2014" }, "geometry": { "type": "Point", "coordinates": [ -122.390345622999007, 37.754173424 ] } },
{ "type": "Feature", "properties": { "project_id": "2003-005", "project_name": "170 Off Third", "housing_tenure": "Ownership", "section_415_declaration": "On-site BMR Project", "entitlement_approval_date": "02/27/2003", "completion_date": "03/24/2006", "units": 198, "affordable_units": 24, "neighborhood": "Mission Bay", "Latitude": 37.78641298, "Longitude": -122.396372464999, "year": "2006" }, "geometry": { "type": "Point", "coordinates": [ -122.396372464999004, 37.78641298 ] } },
{ "type": "Feature", "properties": { "project_id": "2009-008", "project_name": "1946 Polk (1591 Pacific)", "housing_tenure": "Unknown", "section_415_declaration": "Fee Payment", "entitlement_approval_date": "03/19/2009", "completion_date": "02/27/2013", "units": 41, "affordable_units": 0, "neighborhood": "Russian Hill", "Latitude": 37.786051264000001, "Longitude": -122.39136372799901, "year": "2013" }, "geometry": { "type": "Point", "coordinates": [ -122.391363727999007, 37.786051264 ] } },
{ "type": "Feature", "properties": { "project_id": "2003-022", "project_name": "Silver Park", "housing_tenure": "Rental", "section_415_declaration": "On-site BMR Project", "entitlement_approval_date": "11/17/2003", "completion_date": "05/10/2006", "units": 40, "affordable_units": 4, "neighborhood": "Bayview Hunters Point", "Latitude": 37.792764398000003, "Longitude": -122.42161171599901, "year": "2006" }, "geometry": { "type": "Point", "coordinates": [ -122.421611715999006, 37.792764398 ] } },
{ "type": "Feature", "properties": { "project_id": "2014-035", "project_name": "233 Shipley", "housing_tenure": "Unknown", "section_415_declaration": "Fee Payment", "entitlement_approval_date": "12/18/2014", "completion_date": "12/07/2017", "units": 21, "affordable_units": 0, "neighborhood": "South of Market", "Latitude": 37.776371329, "Longitude": -122.40916118099901, "year": "2017" }, "geometry": { "type": "Point", "coordinates": [ -122.409161180999007, 37.776371329 ] } },
{ "type": "Feature", "properties": { "project_id": "2013-056", "project_name": "2554-2558 Mission", "housing_tenure": "Ownership", "section_415_declaration": "Land Dedication", "entitlement_approval_date": "01/24/2013", "completion_date": "09/13/2016", "units": 114, "affordable_units": 0, "neighborhood": "Mission", "Latitude": 37.77587441, "Longitude": -122.414746093999, "year": "2016" }, "geometry": { "type": "Point", "coordinates": [ -122.414746093999, 37.77587441 ] } },
{ "type": "Feature", "properties": { "project_id": "2011-026", "project_name": "1945 Hyde", "housing_tenure": "Unknown", "section_415_declaration": "Fee Payment", "entitlement_approval_date": "06/23/2011", "completion_date": "10/14/2014", "units": 7, "affordable_units": 0, "neighborhood": "Russian Hill", "Latitude": 37.777363322, "Longitude": -122.415305204999, "year": "2014" }, "geometry": { "type": "Point", "coordinates": [ -122.415305204999001, 37.777363322 ] } },
{ "type": "Feature", "properties": { "project_id": "1997-005", "project_name": "388 Beale", "housing_tenure": "Rental", "section_415_declaration": "On-site BMR Project", "entitlement_approval_date": "09/18/1997", "completion_date": "06/25/2003", "units": 23, "affordable_units": 23, "neighborhood": "Financial District/South Beach", "Latitude": 37.787602055999997, "Longitude": -122.391910711999, "year": "2003" }, "geometry": { "type": "Point", "coordinates": [ -122.391910711999003, 37.787602056 ] } },
{ "type": "Feature", "properties": { "project_id": "1998-007", "project_name": "1578 Indiana", "housing_tenure": "Ownership", "section_415_declaration": "On-site BMR Project", "entitlement_approval_date": "11/19/1996", "completion_date": "12/20/2002", "units": 12, "affordable_units": 2, "neighborhood": "Bayview Hunters Point", "Latitude": 37.756592701000002, "Longitude": -122.47716709199899, "year": "2002" }, "geometry": { "type": "Point", "coordinates": [ -122.477167091998993, 37.756592701 ] } },
{ "type": "Feature", "properties": { "project_id": "2005-028", "project_name": "680 Illinois", "housing_tenure": "Ownership", "section_415_declaration": "Off-site BMR Project", "entitlement_approval_date": "12/15/2005", "completion_date": "02/25/2010", "units": 35, "affordable_units": 0, "neighborhood": "Potrero Hill", "Latitude": 37.759671685999997, "Longitude": -122.390862987999, "year": "2010" }, "geometry": { "type": "Point", "coordinates": [ -122.390862987999, 37.759671686 ] } },
{ "type": "Feature", "properties": { "project_id": "2013-016", "project_name": "2290 3rd", "housing_tenure": "Ownership", "section_415_declaration": "Fee Payment", "entitlement_approval_date": "09/26/2013", "completion_date": "02/01/2016", "units": 71, "affordable_units": 0, "neighborhood": "Potrero Hill", "Latitude": 37.764955462000003, "Longitude": -122.394124716999, "year": "2016" }, "geometry": { "type": "Point", "coordinates": [ -122.394124716999002, 37.764955462 ] } },
{ "type": "Feature", "properties": { "project_id": "2002-006", "project_name": "1828 Geneva", "housing_tenure": "Rental", "section_415_declaration": "On-site BMR Project", "entitlement_approval_date": "02/07/2002", "completion_date": "03/20/2003", "units": 48, "affordable_units": 6, "neighborhood": "Excelsior", "Latitude": 37.769443201999998, "Longitude": -122.42262315599901, "year": "2003" }, "geometry": { "type": "Point", "coordinates": [ -122.422623155999005, 37.769443202 ] } },
{ "type": "Feature", "properties": { "project_id": "2016-131", "project_name": "1801 Mission", "housing_tenure": "Ownership", "section_415_declaration": "On-site BMR Project", "entitlement_approval_date": "01/05/2017", "completion_date": "02/27/2021", "units": 24, "affordable_units": 3, "neighborhood": "Mission", "Latitude": 37.784177151000002, "Longitude": -122.39776830899901, "year": "2021" }, "geometry": { "type": "Point", "coordinates": [ -122.397768308999005, 37.784177151 ] } },
{ "type": "Feature", "properties": { "project_id": "2007-014", "project_name": "1868 Van Ness", "housing_tenure": "Unknown", "section_415_declaration": "Fee Payment", "entitlement_approval_date": "09/20/2007", "completion_date": "11/12/2011", "units": 35, "affordable_units": 0, "neighborhood": "Russian Hill", "Latitude": 37.714496359000002, "Longitude": -122.465751679999, "year": "2011" }, "geometry": { "type": "Point", "coordinates": [ -122.465751679999002, 37.714496359 ] } },
{ "type": "Feature", "properties": { "project_id": "2012-013", "project_name": "Alchemy by Alta", "housing_tenure": "Rental", "section_415_declaration": "On-site BMR Project", "entitlement_approval_date": "09/06/2012", "completion_date": "03/27/2017", "units": 330, "affordable_units": 50, "neighborhood": "Hayes Valley", "Latitude": 37.755943989000002, "Longitude": -122.421317650999, "year": "2017" }, "geometry": { "type": "Point", "coordinates": [ -122.421317650999001, 37.755943989 ] } },
{ "type": "Feature", "properties": { "project_id": "1996-001", "project_name": "1301 San Jose/Glen Court", "housing_tenure": "Ownership", "section_415_declaration": "On-site BMR Project", "entitlement_approval_date": "04/04/1996", "completion_date": "04/15/2000", "units": 31, "affordable_units": 3, "neighborhood": "Outer Mission", "Latitude": 37.733740932000003, "Longitude": -122.429880201999, "year": "2000" }, "geometry": { "type": "Point", "coordinates": [ -122.429880201998998, 37.733740932 ] } },
{ "type": "Feature", "properties": { "project_id": "2005-005", "project_name": "1598 Dolores", "housing_tenure": "Ownership", "section_415_declaration": "On-site BMR Project", "entitlement_approval_date": "02/23/2005", "completion_date": "06/09/2005", "units": 13, "affordable_units": 1, "neighborhood": "Noe Valley", "Latitude": 37.779570808000003, "Longitude": -122.40564298899901, "year": "2005" }, "geometry": { "type": "Point", "coordinates": [ -122.405642988999006, 37.779570808 ] } },
{ "type": "Feature", "properties": { "project_id": "2005-035", "project_name": "722 Montgomery", "housing_tenure": "Unknown", "section_415_declaration": "Fee Payment", "entitlement_approval_date": "06/08/2006", "completion_date": "03/13/2017", "units": 12, "affordable_units": 0, "neighborhood": "Chinatown", "Latitude": 37.78706681, "Longitude": -122.392976799999, "year": "2017" }, "geometry": { "type": "Point", "coordinates": [ -122.392976799999005, 37.78706681 ] } },
{ "type": "Feature", "properties": { "project_id": "1998-002", "project_name": "70 Ocean", "housing_tenure": "Rental", "section_415_declaration": "On-site BMR Project", "entitlement_approval_date": "05/05/1998", "completion_date": "06/29/2000", "units": 20, "affordable_units": 2, "neighborhood": "Outer Mission", "Latitude": 37.768304145999998, "Longitude": -122.42253139399899, "year": "2000" }, "geometry": { "type": "Point", "coordinates": [ -122.422531393998995, 37.768304146 ] } },
{ "type": "Feature", "properties": { "project_id": "2003-012", "project_name": "Valencia 270", "housing_tenure": "Ownership", "section_415_declaration": "On-site BMR Project", "entitlement_approval_date": "06/12/2003", "completion_date": "11/30/2006", "units": 28, "affordable_units": 3, "neighborhood": "Mission", "Latitude": 37.786188488000001, "Longitude": -122.40763290599899, "year": "2006" }, "geometry": { "type": "Point", "coordinates": [ -122.407632905998994, 37.786188488 ] } },
{ "type": "Feature", "properties": { "project_id": "2004-015", "project_name": "1 South Park", "housing_tenure": "Ownership", "section_415_declaration": "Fee Payment", "entitlement_approval_date": "12/14/2000", "completion_date": "02/27/2004", "units": 35, "affordable_units": 0, "neighborhood": "Financial District/South Beach", "Latitude": 37.78138491, "Longitude": -122.401360195999, "year": "2004" }, "geometry": { "type": "Point", "coordinates": [ -122.401360195999004, 37.78138491 ] } },
{ "type": "Feature", "properties": { "project_id": "2009-017", "project_name": "750 Second", "housing_tenure": "Unknown", "section_415_declaration": "Fee Payment", "entitlement_approval_date": "12/10/2009", "completion_date": "04/02/2014", "units": 14, "affordable_units": 0, "neighborhood": "Mission Bay", "Latitude": 37.788237856000002, "Longitude": -122.41805784799899, "year": "2014" }, "geometry": { "type": "Point", "coordinates": [ -122.418057847998995, 37.788237856 ] } },
{ "type": "Feature", "properties": { "project_id": "2011-018", "project_name": "2421 16th", "housing_tenure": "Ownership", "section_415_declaration": "On-site BMR Project", "entitlement_approval_date": "02/28/2011", "completion_date": "06/30/2014", "units": 12, "affordable_units": 1, "neighborhood": "Mission", "Latitude": 37.74920644, "Longitude": -122.41890797599901, "year": "2014" }, "geometry": { "type": "Point", "coordinates": [ -122.418907975999005, 37.74920644 ] } },
{ "type": "Feature", "properties": { "project_id": "2008-008", "project_name": "1 Stanyan", "housing_tenure": "Unknown", "section_415_declaration": "Fee Payment", "entitlement_approval_date": "02/21/2008", "completion_date": "11/26/2013", "units": 13, "affordable_units": 0, "neighborhood": "Lone Mountain/USF", "Latitude": 37.760306801, "Longitude": -122.421761911999, "year": "2013" }, "geometry": { "type": "Point", "coordinates": [ -122.421761911998999, 37.760306801 ] } },
{ "type": "Feature", "properties": { "project_id": "2015-044", "project_name": "1463 Lombard", "housing_tenure": "Ownership", "section_415_declaration": "On-site BMR Project", "entitlement_approval_date": "10/15/2015", "completion_date": "05/09/2020", "units": 14, "affordable_units": 3, "neighborhood": "Marina", "Latitude": 37.778048755999997, "Longitude": -122.40444669099899, "year": "2020" }, "geometry": { "type": "Point", "coordinates": [ -122.404446690998995, 37.778048756 ] } },
{ "type": "Feature", "properties": { "project_id": "2002-001", "project_name": "843 Montgomery", "housing_tenure": "Unknown", "section_415_declaration": "Fee Payment", "entitlement_approval_date": "01/01/2002", "completion_date": "02/23/2006", "units": 13, "affordable_units": 0, "neighborhood": "Chinatown", "Latitude": 37.80075645, "Longitude": -122.423558377999, "year": "2006" }, "geometry": { "type": "Point", "coordinates": [ -122.423558377999001, 37.80075645 ] } },
{ "type": "Feature", "properties": { "project_id": "2003-017", "project_name": "199 New Montgomery", "housing_tenure": "Ownership", "section_415_declaration": "On-site BMR Project", "entitlement_approval_date": "08/21/2003", "completion_date": "10/29/2007", "units": 166, "affordable_units": 18, "neighborhood": "Financial District/South Beach", "Latitude": 37.764113016000003, "Longitude": -122.402986545999, "year": "2007" }, "geometry": { "type": "Point", "coordinates": [ -122.402986545998999, 37.764113016 ] } },
{ "type": "Feature", "properties": { "project_id": "2014-029", "project_name": "520 9th", "housing_tenure": "Unknown", "section_415_declaration": "Fee Payment", "entitlement_approval_date": "11/13/2014", "completion_date": "12/30/2016", "units": 12, "affordable_units": 0, "neighborhood": "South of Market", "Latitude": 37.773064361000003, "Longitude": -122.432031852999, "year": "2016" }, "geometry": { "type": "Point", "coordinates": [ -122.432031852999003, 37.773064361 ] } },
{ "type": "Feature", "properties": { "project_id": "2014-022", "project_name": "923 Folsom", "housing_tenure": "Ownership", "section_415_declaration": "Fee Payment", "entitlement_approval_date": "08/14/2014", "completion_date": "02/14/2018", "units": 115, "affordable_units": 0, "neighborhood": "South of Market", "Latitude": 37.757963408999998, "Longitude": -122.394571812999, "year": "2018" }, "geometry": { "type": "Point", "coordinates": [ -122.394571812999004, 37.757963409 ] } },
{ "type": "Feature", "properties": { "project_id": "2013-002", "project_name": "1 Henry Adams", "housing_tenure": "Rental", "section_415_declaration": "Land Dedication", "entitlement_approval_date": "01/31/2013", "completion_date": "12/07/2018", "units": 239, "affordable_units": 0, "neighborhood": "Mission Bay", "Latitude": 37.771823861000001, "Longitude": -122.403882620999, "year": "2018" }, "geometry": { "type": "Point", "coordinates": [ -122.403882620998999, 37.771823861 ] } },
{ "type": "Feature", "properties": { "project_id": "2009-012", "project_name": "Avalon Ocean", "housing_tenure": "Rental", "section_415_declaration": "On-site BMR Project", "entitlement_approval_date": "05/28/2009", "completion_date": "07/20/2013", "units": 173, "affordable_units": 26, "neighborhood": "West of Twin Peaks", "Latitude": 37.777223610999997, "Longitude": -122.41736135999901, "year": "2013" }, "geometry": { "type": "Point", "coordinates": [ -122.417361359999006, 37.777223611 ] } },
{ "type": "Feature", "properties": { "project_id": "2014-015", "project_name": "1433 Bush", "housing_tenure": "Ownership", "section_415_declaration": "On-site BMR Project", "entitlement_approval_date": "06/05/2014", "completion_date": "03/21/2018", "units": 40, "affordable_units": 6, "neighborhood": "Nob Hill", "Latitude": 37.763734692, "Longitude": -122.388305885999, "year": "2018" }, "geometry": { "type": "Point", "coordinates": [ -122.388305885999003, 37.763734692 ] } },
{ "type": "Feature", "properties": { "project_id": "2005-024", "project_name": "55 Trumbull", "housing_tenure": "Rental", "section_415_declaration": "On-site BMR Project", "entitlement_approval_date": "10/27/2005", "completion_date": "12/31/2016", "units": 18, "affordable_units": 2, "neighborhood": "Excelsior", "Latitude": 37.783172563999997, "Longitude": -122.40768908899901, "year": "2016" }, "geometry": { "type": "Point", "coordinates": [ -122.407689088999007, 37.783172564 ] } },
{ "type": "Feature", "properties": { "project_id": "2007-010", "project_name": "231 Franklin", "housing_tenure": "Unknown", "section_415_declaration": "Fee Payment", "entitlement_approval_date": "04/05/2007", "completion_date": "12/18/2010", "units": 32, "affordable_units": 0, "neighborhood": "Hayes Valley", "Latitude": 37.775679079, "Longitude": -122.41704470299899, "year": "2010" }, "geometry": { "type": "Point", "coordinates": [ -122.417044702998993, 37.775679079 ] } },
{ "type": "Feature", "properties": { "project_id": "2016-024", "project_name": "22 Franklin", "housing_tenure": "Rental", "section_415_declaration": "On-site BMR Project", "entitlement_approval_date": "04/07/2016", "completion_date": "07/01/2020", "units": 35, "affordable_units": 4, "neighborhood": "Hayes Valley", "Latitude": 37.791787646000003, "Longitude": -122.408790973999, "year": "2020" }, "geometry": { "type": "Point", "coordinates": [ -122.408790973999004, 37.791787646 ] } },
{ "type": "Feature", "properties": { "project_id": "2000-006", "project_name": "1311 43rd", "housing_tenure": "Rental", "section_415_declaration": "On-site BMR Project", "entitlement_approval_date": "11/02/2000", "completion_date": "08/17/2005", "units": 12, "affordable_units": 1, "neighborhood": "Sunset/Parkside", "Latitude": 37.787031118999998, "Longitude": -122.393642197999, "year": "2005" }, "geometry": { "type": "Point", "coordinates": [ -122.393642197999, 37.787031119 ] } },
{ "type": "Feature", "properties": { "project_id": "2006-006", "project_name": "Trinity Plaza Apartments, Phase III", "housing_tenure": "Rental", "section_415_declaration": "On-site BMR Project", "entitlement_approval_date": "11/06/2006", "completion_date": "01/29/2009", "units": 540, "affordable_units": 82, "neighborhood": "South of Market", "Latitude": 37.768257075999998, "Longitude": -122.423928411999, "year": "2009" }, "geometry": { "type": "Point", "coordinates": [ -122.423928411999, 37.768257076 ] } },
{ "type": "Feature", "properties": { "project_id": "2005-009", "project_name": "74 New Montgomery", "housing_tenure": "Ownership", "section_415_declaration": "On-site BMR Project", "entitlement_approval_date": "05/19/2005", "completion_date": "12/19/2014", "units": 107, "affordable_units": 11, "neighborhood": "Financial District/South Beach", "Latitude": 37.715091891, "Longitude": -122.476490857999, "year": "2014" }, "geometry": { "type": "Point", "coordinates": [ -122.476490857998996, 37.715091891 ] } },
{ "type": "Feature", "properties": { "project_id": "2016-121", "project_name": "3620 Cesar Chavez", "housing_tenure": "Unknown", "section_415_declaration": "Fee Payment", "entitlement_approval_date": "09/21/2016", "completion_date": "01/06/2021", "units": 24, "affordable_units": 0, "neighborhood": "Mission", "Latitude": 37.79038, "Longitude": -122.41919, "year": "2021" }, "geometry": { "type": "Point", "coordinates": [ -122.41919, 37.79038 ] } },
{ "type": "Feature", "properties": { "project_id": "2003-029", "project_name": "3000 23rd", "housing_tenure": "Rental", "section_415_declaration": "On-site BMR Project", "entitlement_approval_date": "03/08/2004", "completion_date": "06/27/2008", "units": 54, "affordable_units": 7, "neighborhood": "Mission", "Latitude": 37.788247978000001, "Longitude": -122.403232212999, "year": "2008" }, "geometry": { "type": "Point", "coordinates": [ -122.403232212999001, 37.788247978 ] } },
{ "type": "Feature", "properties": { "project_id": "2014-028", "project_name": "815-825 Tennessee", "housing_tenure": "Ownership", "section_415_declaration": "On-site BMR Project", "entitlement_approval_date": "10/19/2014", "completion_date": "09/07/2016", "units": 69, "affordable_units": 10, "neighborhood": "Potrero Hill", "Latitude": 37.770781464000002, "Longitude": -122.40832332599901, "year": "2016" }, "geometry": { "type": "Point", "coordinates": [ -122.408323325999007, 37.770781464 ] } },
{ "type": "Feature", "properties": { "project_id": "2011-022", "project_name": "1600 Market", "housing_tenure": "Ownership", "section_415_declaration": "Units for Off-site Project", "entitlement_approval_date": "01/12/2011", "completion_date": "07/30/2013", "units": 24, "affordable_units": 23, "neighborhood": "Hayes Valley", "Latitude": 37.779014347999997, "Longitude": -122.409446333999, "year": "2013" }, "geometry": { "type": "Point", "coordinates": [ -122.409446333999, 37.779014348 ] } },
{ "type": "Feature", "properties": { "project_id": "2015-005", "project_name": "100 Van Ness, Phase II", "housing_tenure": "Rental", "section_415_declaration": "On-site BMR Project", "entitlement_approval_date": "04/02/2015", "completion_date": "09/27/2018", "units": 18, "affordable_units": 2, "neighborhood": "Tenderloin", "Latitude": 37.777134048999997, "Longitude": -122.41882290999899, "year": "2018" }, "geometry": { "type": "Point", "coordinates": [ -122.418822909998994, 37.777134049 ] } },
{ "type": "Feature", "properties": { "project_id": "2002-013", "project_name": "Glen Park Marketplace", "housing_tenure": "Ownership", "section_415_declaration": "On-site BMR Project", "entitlement_approval_date": "12/19/2002", "completion_date": "08/15/2005", "units": 15, "affordable_units": 2, "neighborhood": "Glen Park", "Latitude": 37.778131062, "Longitude": -122.423576683999, "year": "2005" }, "geometry": { "type": "Point", "coordinates": [ -122.423576683999002, 37.778131062 ] } },
{ "type": "Feature", "properties": { "project_id": "2008-028", "project_name": "The Century", "housing_tenure": "Ownership", "section_415_declaration": "On-site BMR Project", "entitlement_approval_date": "10/23/2008", "completion_date": "08/21/2017", "units": 22, "affordable_units": 3, "neighborhood": "Castro/Upper Market", "Latitude": 37.780779275, "Longitude": -122.410310273999, "year": "2017" }, "geometry": { "type": "Point", "coordinates": [ -122.410310273999002, 37.780779275 ] } },
{ "type": "Feature", "properties": { "project_id": "2003-016", "project_name": "Broderick Place", "housing_tenure": "Ownership", "section_415_declaration": "On-site BMR Project", "entitlement_approval_date": "07/26/2003", "completion_date": "01/06/2006", "units": 70, "affordable_units": 8, "neighborhood": "Hayes Valley", "Latitude": 37.786605588999997, "Longitude": -122.399099441999, "year": "2006" }, "geometry": { "type": "Point", "coordinates": [ -122.399099441998999, 37.786605589 ] } },
{ "type": "Feature", "properties": { "project_id": "2018-004", "project_name": "1140-1150 Harrison", "housing_tenure": "Unknown", "section_415_declaration": "Fee Payment", "entitlement_approval_date": "04/26/2018", "completion_date": "11/30/2021", "units": 144, "affordable_units": 19, "neighborhood": "South of Market", "Latitude": 37.78744, "Longitude": -122.39031, "year": "2021" }, "geometry": { "type": "Point", "coordinates": [ -122.39031, 37.78744 ] } },
{ "type": "Feature", "properties": { "project_id": "2006-010", "project_name": "3190 Scott", "housing_tenure": "Ownership", "section_415_declaration": "On-site BMR Project", "entitlement_approval_date": "03/23/2006", "completion_date": "04/14/2010", "units": 12, "affordable_units": 1, "neighborhood": "Marina", "Latitude": 37.785817426999998, "Longitude": -122.398867887999, "year": "2010" }, "geometry": { "type": "Point", "coordinates": [ -122.398867887999003, 37.785817427 ] } },
{ "type": "Feature", "properties": { "project_id": "1999-003", "project_name": "Village at Petrini Place", "housing_tenure": "Ownership", "section_415_declaration": "On-site BMR Project", "entitlement_approval_date": "05/13/1999", "completion_date": "09/18/2001", "units": 134, "affordable_units": 13, "neighborhood": "Lone Mountain/USF", "Latitude": 37.800607659000001, "Longitude": -122.432468248999, "year": "2001" }, "geometry": { "type": "Point", "coordinates": [ -122.432468248999001, 37.800607659 ] } },
{ "type": "Feature", "properties": { "project_id": "2015-062", "project_name": "25 Grace", "housing_tenure": "Unknown", "section_415_declaration": "Fee Payment", "entitlement_approval_date": "10/13/2017", "completion_date": "08/26/2020", "units": 11, "affordable_units": 0, "neighborhood": "South of Market", "Latitude": 37.7747, "Longitude": -122.41431, "year": "2020" }, "geometry": { "type": "Point", "coordinates": [ -122.41431, 37.7747 ] } },
{ "type": "Feature", "properties": { "project_id": "2005-002", "project_name": "Bayshore", "housing_tenure": "Ownership", "section_415_declaration": "Units for Off-site Project", "entitlement_approval_date": "01/01/2005", "completion_date": "03/14/2013", "units": 12, "affordable_units": 12, "neighborhood": "Visitacion Valley", "Latitude": 37.789460907, "Longitude": -122.419727288999, "year": "2013" }, "geometry": { "type": "Point", "coordinates": [ -122.419727288998999, 37.789460907 ] } },
{ "type": "Feature", "properties": { "project_id": "2002-009", "project_name": "1630 California", "housing_tenure": "Ownership", "section_415_declaration": "Fee Payment", "entitlement_approval_date": "06/20/2002", "completion_date": "02/11/2011", "units": 40, "affordable_units": 0, "neighborhood": "Nob Hill", "Latitude": 37.782378817000001, "Longitude": -122.420163260999, "year": "2011" }, "geometry": { "type": "Point", "coordinates": [ -122.420163260999004, 37.782378817 ] } },
{ "type": "Feature", "properties": { "project_id": "2004-019", "project_name": "The Royal", "housing_tenure": "Ownership", "section_415_declaration": "On-site BMR Project", "entitlement_approval_date": "12/09/2004", "completion_date": "01/31/2009", "units": 46, "affordable_units": 5, "neighborhood": "Financial District/South Beach", "Latitude": 37.775328559000002, "Longitude": -122.43744628299901, "year": "2009" }, "geometry": { "type": "Point", "coordinates": [ -122.437446282999005, 37.775328559 ] } },
{ "type": "Feature", "properties": { "project_id": "2015-018", "project_name": "1238 Sutter", "housing_tenure": "Ownership", "section_415_declaration": "On-site BMR Project", "entitlement_approval_date": "05/14/2015", "completion_date": "12/15/2018", "units": 37, "affordable_units": 4, "neighborhood": "Nob Hill", "Latitude": 37.753531191999997, "Longitude": -122.394231279999, "year": "2018" }, "geometry": { "type": "Point", "coordinates": [ -122.394231279999005, 37.753531192 ] } },
{ "type": "Feature", "properties": { "project_id": "2010-011", "project_name": "Mosso", "housing_tenure": "Rental", "section_415_declaration": "On-site BMR Project", "entitlement_approval_date": "06/10/2010", "completion_date": "02/06/2014", "units": 182, "affordable_units": 27, "neighborhood": "South of Market", "Latitude": 37.780218861000002, "Longitude": -122.395816319999, "year": "2014" }, "geometry": { "type": "Point", "coordinates": [ -122.395816319999, 37.780218861 ] } },
{ "type": "Feature", "properties": { "project_id": "2003-025", "project_name": "SOMA Grand", "housing_tenure": "Ownership", "section_415_declaration": "On-site BMR Project", "entitlement_approval_date": "12/09/2003", "completion_date": "03/23/2005", "units": 246, "affordable_units": 29, "neighborhood": "South of Market", "Latitude": 37.716071452000001, "Longitude": -122.43953406799901, "year": "2005" }, "geometry": { "type": "Point", "coordinates": [ -122.439534067999006, 37.716071452 ] } },
{ "type": "Feature", "properties": { "project_id": "2010-018", "project_name": "Linea", "housing_tenure": "Ownership", "section_415_declaration": "Off-site BMR Project", "entitlement_approval_date": "12/09/2010", "completion_date": "11/21/2013", "units": 114, "affordable_units": 0, "neighborhood": "Hayes Valley", "Latitude": 37.760768305, "Longitude": -122.38797456299901, "year": "2013" }, "geometry": { "type": "Point", "coordinates": [ -122.387974562999005, 37.760768305 ] } },
{ "type": "Feature", "properties": { "project_id": "2011-032", "project_name": "899 Valencia", "housing_tenure": "Unknown", "section_415_declaration": "Fee Payment", "entitlement_approval_date": "04/21/2011", "completion_date": "02/20/2013", "units": 18, "affordable_units": 0, "neighborhood": "Mission", "Latitude": 37.778631181000002, "Longitude": -122.40712699999899, "year": "2013" }, "geometry": { "type": "Point", "coordinates": [ -122.407126999998994, 37.778631181 ] } },
{ "type": "Feature", "properties": { "project_id": "2008-021", "project_name": "Blu", "housing_tenure": "Ownership", "section_415_declaration": "Fee Payment", "entitlement_approval_date": "06/12/2008", "completion_date": "08/04/2012", "units": 120, "affordable_units": 0, "neighborhood": "Financial District/South Beach", "Latitude": 37.789522135, "Longitude": -122.412277111999, "year": "2012" }, "geometry": { "type": "Point", "coordinates": [ -122.412277111999003, 37.789522135 ] } },
{ "type": "Feature", "properties": { "project_id": "2013-018", "project_name": "Potrero 1001", "housing_tenure": "Ownership", "section_415_declaration": "On-site BMR Project", "entitlement_approval_date": "10/03/2013", "completion_date": "12/20/2017", "units": 37, "affordable_units": 5, "neighborhood": "Potrero Hill", "Latitude": 37.792778731, "Longitude": -122.419763490999, "year": "2017" }, "geometry": { "type": "Point", "coordinates": [ -122.419763490999003, 37.792778731 ] } },
{ "type": "Feature", "properties": { "project_id": "2006-003", "project_name": "340 Fremont", "housing_tenure": "Unknown", "section_415_declaration": "Fee Payment", "entitlement_approval_date": "06/15/2006", "completion_date": "02/10/2017", "units": 348, "affordable_units": 0, "neighborhood": "Financial District/South Beach", "Latitude": 37.787322433, "Longitude": -122.39222370799899, "year": "2017" }, "geometry": { "type": "Point", "coordinates": [ -122.392223707998994, 37.787322433 ] } },
{ "type": "Feature", "properties": { "project_id": "1998-001", "project_name": "118 Wood", "housing_tenure": "Rental", "section_415_declaration": "On-site BMR Project", "entitlement_approval_date": "03/12/1998", "completion_date": "01/31/2000", "units": 22, "affordable_units": 2, "neighborhood": "Lone Mountain/USF", "Latitude": 37.724044614999997, "Longitude": -122.43704577099901, "year": "2000" }, "geometry": { "type": "Point", "coordinates": [ -122.437045770999006, 37.724044615 ] } },
{ "type": "Feature", "properties": { "project_id": "1998-003", "project_name": "Carlin Senior Apartments", "housing_tenure": "Rental", "section_415_declaration": "On-site BMR Project", "entitlement_approval_date": "06/18/1998", "completion_date": "04/21/2000", "units": 36, "affordable_units": 4, "neighborhood": "Mission", "Latitude": 37.776250255999997, "Longitude": -122.42249034499901, "year": "2000" }, "geometry": { "type": "Point", "coordinates": [ -122.422490344999005, 37.776250256 ] } },
{ "type": "Feature", "properties": { "project_id": "2005-016", "project_name": "1158 Sutter", "housing_tenure": "Ownership", "section_415_declaration": "On-site BMR Project", "entitlement_approval_date": "07/14/2005", "completion_date": "02/27/2012", "units": 14, "affordable_units": 1, "neighborhood": "Nob Hill", "Latitude": 37.793212386999997, "Longitude": -122.42374572499899, "year": "2012" }, "geometry": { "type": "Point", "coordinates": [ -122.423745724998994, 37.793212387 ] } },
{ "type": "Feature", "properties": { "project_id": "2011-030", "project_name": "Marlow", "housing_tenure": "Ownership", "section_415_declaration": "On-site BMR Project", "entitlement_approval_date": "12/15/2011", "completion_date": "08/03/2015", "units": 98, "affordable_units": 15, "neighborhood": "Russian Hill", "Latitude": 37.780998031000003, "Longitude": -122.41016812999899, "year": "2015" }, "geometry": { "type": "Point", "coordinates": [ -122.410168129998993, 37.780998031 ] } },
{ "type": "Feature", "properties": { "project_id": "1999-007", "project_name": "Metro@Showplace Square", "housing_tenure": "Rental", "section_415_declaration": "On-site BMR Project", "entitlement_approval_date": "08/05/1999", "completion_date": "09/27/2003", "units": 148, "affordable_units": 15, "neighborhood": "Mission Bay", "Latitude": 37.78405247, "Longitude": -122.42064220699901, "year": "2003" }, "geometry": { "type": "Point", "coordinates": [ -122.420642206999005, 37.78405247 ] } },
{ "type": "Feature", "properties": { "project_id": "2005-029", "project_name": "900 Minnesota", "housing_tenure": "Ownership", "section_415_declaration": "Fee Payment", "entitlement_approval_date": "04/07/2005", "completion_date": "04/24/2009", "units": 142, "affordable_units": 0, "neighborhood": "Potrero Hill", "Latitude": 37.761033788, "Longitude": -122.411506012999, "year": "2009" }, "geometry": { "type": "Point", "coordinates": [ -122.411506012998998, 37.761033788 ] } },
{ "type": "Feature", "properties": { "project_id": "2012-021", "project_name": "L Seven", "housing_tenure": "Rental", "section_415_declaration": "On-site BMR Project", "entitlement_approval_date": "12/06/2012", "completion_date": "07/07/2020", "units": 410, "affordable_units": 62, "neighborhood": "South of Market", "Latitude": 37.789748930999998, "Longitude": -122.39529236099899, "year": "2020" }, "geometry": { "type": "Point", "coordinates": [ -122.395292360998994, 37.789748931 ] } },
{ "type": "Feature", "properties": { "project_id": "2001-010", "project_name": "2200 Mission", "housing_tenure": "Ownership", "section_415_declaration": "On-site BMR Project", "entitlement_approval_date": "01/01/2002", "completion_date": "04/03/2008", "units": 23, "affordable_units": 3, "neighborhood": "Mission", "Latitude": 37.796913922000002, "Longitude": -122.403900551999, "year": "2008" }, "geometry": { "type": "Point", "coordinates": [ -122.403900551999001, 37.796913922 ] } },
{ "type": "Feature", "properties": { "project_id": "2006-017", "project_name": "Trinity Plaza Apartments, Phase II (Building B)", "housing_tenure": "Rental", "section_415_declaration": "On-site BMR Project", "entitlement_approval_date": "08/03/2006", "completion_date": "03/19/2010", "units": 418, "affordable_units": 63, "neighborhood": "South of Market", "Latitude": 37.778456857999998, "Longitude": -122.413427037999, "year": "2010" }, "geometry": { "type": "Point", "coordinates": [ -122.413427037999, 37.778456858 ] } },
{ "type": "Feature", "properties": { "project_id": "2013-015", "project_name": "480 Potrero", "housing_tenure": "Rental", "section_415_declaration": "On-site BMR Project", "entitlement_approval_date": "08/08/2013", "completion_date": "12/18/2020", "units": 77, "affordable_units": 11, "neighborhood": "Mission", "Latitude": 37.76079825, "Longitude": -122.388901957999, "year": "2020" }, "geometry": { "type": "Point", "coordinates": [ -122.388901957998996, 37.76079825 ] } },
{ "type": "Feature", "properties": { "project_id": "2005-017", "project_name": "1840 Washington", "housing_tenure": "Ownership", "section_415_declaration": "Fee Payment", "entitlement_approval_date": "07/14/2005", "completion_date": "03/23/2007", "units": 26, "affordable_units": 0, "neighborhood": "Pacific Heights", "Latitude": 37.777026481999997, "Longitude": -122.395739507999, "year": "2007" }, "geometry": { "type": "Point", "coordinates": [ -122.395739507998996, 37.777026482 ] } },
{ "type": "Feature", "properties": { "project_id": "2007-013", "project_name": "Bayside Vista", "housing_tenure": "Ownership", "section_415_declaration": "On-site BMR Project", "entitlement_approval_date": "06/07/2007", "completion_date": "07/10/2014", "units": 64, "affordable_units": 6, "neighborhood": "Bayview Hunters Point", "Latitude": 37.792911255999996, "Longitude": -122.422413832999, "year": "2014" }, "geometry": { "type": "Point", "coordinates": [ -122.422413832998998, 37.792911256 ] } },
{ "type": "Feature", "properties": { "project_id": "1996-002", "project_name": "Pacific Homes (AKA 1800 Washington and 1701 Jackson)", "housing_tenure": "Ownership", "section_415_declaration": "On-site BMR Project", "entitlement_approval_date": "04/18/1996", "completion_date": "06/10/2000", "units": 149, "affordable_units": 6, "neighborhood": "Pacific Heights", "Latitude": 37.793431705000003, "Longitude": -122.423427723999, "year": "2000" }, "geometry": { "type": "Point", "coordinates": [ -122.423427723998998, 37.793431705 ] } },
{ "type": "Feature", "properties": { "project_id": "1999-006", "project_name": "545 Leavenworth", "housing_tenure": "Ownership", "section_415_declaration": "On-site BMR Project", "entitlement_approval_date": "06/17/1999", "completion_date": "07/21/2004", "units": 12, "affordable_units": 1, "neighborhood": "Tenderloin", "Latitude": 37.770290134, "Longitude": -122.402805829999, "year": "2004" }, "geometry": { "type": "Point", "coordinates": [ -122.402805829998997, 37.770290134 ] } },
{ "type": "Feature", "properties": { "project_id": "2013-003", "project_name": "855 Brannan", "housing_tenure": "Rental", "section_415_declaration": "On-site BMR Project", "entitlement_approval_date": "02/14/2013", "completion_date": "12/19/2018", "units": 432, "affordable_units": 55, "neighborhood": "South of Market", "Latitude": 37.800682623999997, "Longitude": -122.41128750399901, "year": "2018" }, "geometry": { "type": "Point", "coordinates": [ -122.411287503999006, 37.800682624 ] } },
{ "type": "Feature", "properties": { "project_id": "2013-009", "project_name": "388 Fulton (Parcel F)", "housing_tenure": "Ownership", "section_415_declaration": "On-site BMR Project", "entitlement_approval_date": "06/06/2013", "completion_date": "01/04/2018", "units": 69, "affordable_units": 8, "neighborhood": "Hayes Valley", "Latitude": 37.724533, "Longitude": -122.457881964999, "year": "2018" }, "geometry": { "type": "Point", "coordinates": [ -122.457881964999004, 37.724533 ] } },
{ "type": "Feature", "properties": { "project_id": "2001-005", "project_name": "6901 Geary", "housing_tenure": "Rental", "section_415_declaration": "On-site BMR Project", "entitlement_approval_date": "11/15/2001", "completion_date": "03/07/2003", "units": 15, "affordable_units": 2, "neighborhood": "Outer Richmond", "Latitude": 37.728792626999997, "Longitude": -122.440534249, "year": "2003" }, "geometry": { "type": "Point", "coordinates": [ -122.440534249, 37.728792627 ] } },
{ "type": "Feature", "properties": { "project_id": "2004-009", "project_name": "Millwheel North", "housing_tenure": "Ownership", "section_415_declaration": "On-site BMR Project", "entitlement_approval_date": "08/05/2004", "completion_date": "06/05/2009", "units": 39, "affordable_units": 5, "neighborhood": "Potrero Hill", "Latitude": 37.782976763999997, "Longitude": -122.407904830999, "year": "2009" }, "geometry": { "type": "Point", "coordinates": [ -122.407904830999001, 37.782976764 ] } },
{ "type": "Feature", "properties": { "project_id": "2012-024", "project_name": "1875 Mission", "housing_tenure": "Ownership", "section_415_declaration": "On-site BMR Project", "entitlement_approval_date": "09/06/2012", "completion_date": "03/02/2015", "units": 39, "affordable_units": 6, "neighborhood": "Mission", "Latitude": 37.772524136000001, "Longitude": -122.42346964599901, "year": "2015" }, "geometry": { "type": "Point", "coordinates": [ -122.423469645999006, 37.772524136 ] } },
{ "type": "Feature", "properties": { "project_id": "2008-020", "project_name": "248 Ocean", "housing_tenure": "Rental", "section_415_declaration": "Fee Payment", "entitlement_approval_date": "05/22/2008", "completion_date": "04/10/2009", "units": 5, "affordable_units": 0, "neighborhood": "Outer Mission", "Latitude": 37.783626298999998, "Longitude": -122.397682263999, "year": "2009" }, "geometry": { "type": "Point", "coordinates": [ -122.397682263999002, 37.783626299 ] } },
{ "type": "Feature", "properties": { "project_id": "2011-025", "project_name": "The Hayes", "housing_tenure": "Ownership", "section_415_declaration": "On-site BMR Project", "entitlement_approval_date": "06/06/2011", "completion_date": "02/02/2015", "units": 128, "affordable_units": 17, "neighborhood": "Hayes Valley", "Latitude": 37.798823311, "Longitude": -122.419263236999, "year": "2015" }, "geometry": { "type": "Point", "coordinates": [ -122.419263236999001, 37.798823311 ] } },
{ "type": "Feature", "properties": { "project_id": "1997-004", "project_name": "949 Post", "housing_tenure": "Rental", "section_415_declaration": "On-site BMR Project", "entitlement_approval_date": "08/04/1997", "completion_date": "12/04/2003", "units": 24, "affordable_units": 24, "neighborhood": "Tenderloin", "Latitude": 37.786883591, "Longitude": -122.41743308199899, "year": "2003" }, "geometry": { "type": "Point", "coordinates": [ -122.417433081998993, 37.786883591 ] } },
{ "type": "Feature", "properties": { "project_id": "2016-113", "project_name": "345 6th", "housing_tenure": "Rental", "section_415_declaration": "On-site BMR Project", "entitlement_approval_date": "11/17/2016", "completion_date": "06/01/2021", "units": 102, "affordable_units": 14, "neighborhood": "South of Market", "Latitude": 37.78308097, "Longitude": -122.409968581999, "year": "2021" }, "geometry": { "type": "Point", "coordinates": [ -122.409968581998996, 37.78308097 ] } },
{ "type": "Feature", "properties": { "project_id": "2002-007", "project_name": "222 Valencia", "housing_tenure": "Ownership", "section_415_declaration": "On-site BMR Project", "entitlement_approval_date": "05/02/2002", "completion_date": "11/18/2005", "units": 10, "affordable_units": 1, "neighborhood": "Mission", "Latitude": 37.762084377000001, "Longitude": -122.389010963999, "year": "2005" }, "geometry": { "type": "Point", "coordinates": [ -122.389010963998999, 37.762084377 ] } },
{ "type": "Feature", "properties": { "project_id": "2016-029", "project_name": "1301 16th", "housing_tenure": "Rental", "section_415_declaration": "On-site BMR Project", "entitlement_approval_date": "05/05/2016", "completion_date": "08/03/2019", "units": 172, "affordable_units": 28, "neighborhood": "Mission Bay", "Latitude": 37.789893463, "Longitude": -122.398415842999, "year": "2019" }, "geometry": { "type": "Point", "coordinates": [ -122.398415842999, 37.789893463 ] } },
{ "type": "Feature", "properties": { "project_id": "2000-007", "project_name": "The Metropolitan", "housing_tenure": "Ownership", "section_415_declaration": "On-site BMR Project", "entitlement_approval_date": "03/22/2001", "completion_date": "02/02/2002", "units": 342, "affordable_units": 34, "neighborhood": "Financial District/South Beach", "Latitude": 37.788838751, "Longitude": -122.421269686999, "year": "2002" }, "geometry": { "type": "Point", "coordinates": [ -122.421269686998997, 37.788838751 ] } },
{ "type": "Feature", "properties": { "project_id": "2014-010", "project_name": "O&M", "housing_tenure": "Rental", "section_415_declaration": "On-site BMR Project", "entitlement_approval_date": "05/01/2014", "completion_date": "09/27/2017", "units": 111, "affordable_units": 16, "neighborhood": "Potrero Hill", "Latitude": 37.755927976000002, "Longitude": -122.388602972999, "year": "2017" }, "geometry": { "type": "Point", "coordinates": [ -122.388602972998996, 37.755927976 ] } },
{ "type": "Feature", "properties": { "project_id": "2005-012", "project_name": "Candlestick Cove - Building B", "housing_tenure": "Unknown", "section_415_declaration": "Fee Payment", "entitlement_approval_date": "06/16/2005", "completion_date": "08/05/2010", "units": 98, "affordable_units": 0, "neighborhood": "Bayview Hunters Point", "Latitude": 37.712880415999997, "Longitude": -122.393115878999, "year": "2010" }, "geometry": { "type": "Point", "coordinates": [ -122.393115878998998, 37.712880416 ] } },
{ "type": "Feature", "properties": { "project_id": "2000-002", "project_name": "6900 Geary", "housing_tenure": "Rental", "section_415_declaration": "On-site BMR Project", "entitlement_approval_date": "04/27/2000", "completion_date": "06/27/2003", "units": 17, "affordable_units": 2, "neighborhood": "Outer Richmond", "Latitude": 37.76309764, "Longitude": -122.421294971999, "year": "2003" }, "geometry": { "type": "Point", "coordinates": [ -122.421294971999004, 37.76309764 ] } },
{ "type": "Feature", "properties": { "project_id": "2014-036", "project_name": "99 Rausch", "housing_tenure": "Ownership", "section_415_declaration": "On-site BMR Project", "entitlement_approval_date": "02/27/2014", "completion_date": "10/14/2015", "units": 112, "affordable_units": 13, "neighborhood": "South of Market", "Latitude": 37.774152487000002, "Longitude": -122.41255299199899, "year": "2015" }, "geometry": { "type": "Point", "coordinates": [ -122.412552991998993, 37.774152487 ] } },
{ "type": "Feature", "properties": { "project_id": "2010-010", "project_name": "Mosso", "housing_tenure": "Rental", "section_415_declaration": "On-site BMR Project", "entitlement_approval_date": "05/20/2010", "completion_date": "02/27/2015", "units": 281, "affordable_units": 42, "neighborhood": "South of Market", "Latitude": 37.780548914999997, "Longitude": -122.40449794099899, "year": "2015" }, "geometry": { "type": "Point", "coordinates": [ -122.404497940998993, 37.780548915 ] } },
{ "type": "Feature", "properties": { "project_id": "2006-018", "project_name": "Trinity Plaza Apartments, Phase I (Building A)", "housing_tenure": "Rental", "section_415_declaration": "On-site BMR Project", "entitlement_approval_date": "11/14/2006", "completion_date": "09/12/2007", "units": 440, "affordable_units": 12, "neighborhood": "South of Market", "Latitude": 37.791013807, "Longitude": -122.407696709999, "year": "2007" }, "geometry": { "type": "Point", "coordinates": [ -122.407696709999001, 37.791013807 ] } },
{ "type": "Feature", "properties": { "project_id": "2015-027", "project_name": "1700 Market", "housing_tenure": "Ownership", "section_415_declaration": "On-site BMR Project", "entitlement_approval_date": "06/25/2015", "completion_date": "08/06/2019", "units": 42, "affordable_units": 5, "neighborhood": "Hayes Valley", "Latitude": 37.774965213000002, "Longitude": -122.42017687299899, "year": "2019" }, "geometry": { "type": "Point", "coordinates": [ -122.420176872998994, 37.774965213 ] } },
{ "type": "Feature", "properties": { "project_id": "2003-006", "project_name": "69 Clementina", "housing_tenure": "Ownership", "section_415_declaration": "On-site BMR Project", "entitlement_approval_date": "03/13/2003", "completion_date": "07/11/2008", "units": 18, "affordable_units": 2, "neighborhood": "Financial District/South Beach", "Latitude": 37.770379536999997, "Longitude": -122.401062326999, "year": "2008" }, "geometry": { "type": "Point", "coordinates": [ -122.401062326998996, 37.770379537 ] } },
{ "type": "Feature", "properties": { "project_id": "2006-009", "project_name": "1299 Bush", "housing_tenure": "Unknown", "section_415_declaration": "Fee Payment", "entitlement_approval_date": "03/09/2006", "completion_date": "05/14/2010", "units": 26, "affordable_units": 0, "neighborhood": "Nob Hill", "Latitude": 37.799026628999997, "Longitude": -122.44062809699901, "year": "2010" }, "geometry": { "type": "Point", "coordinates": [ -122.440628096999006, 37.799026629 ] } },
{ "type": "Feature", "properties": { "project_id": "2004-004", "project_name": "2655 Van Ness", "housing_tenure": "Ownership", "section_415_declaration": "Fee Payment", "entitlement_approval_date": "06/17/2004", "completion_date": "03/07/2007", "units": 29, "affordable_units": 0, "neighborhood": "Marina", "Latitude": 37.772485306, "Longitude": -122.40855896599901, "year": "2007" }, "geometry": { "type": "Point", "coordinates": [ -122.408558965999006, 37.772485306 ] } },
{ "type": "Feature", "properties": { "project_id": "2009-007", "project_name": "Olume", "housing_tenure": "Rental", "section_415_declaration": "On-site BMR Project", "entitlement_approval_date": "02/20/2009", "completion_date": "06/19/2013", "units": 121, "affordable_units": 18, "neighborhood": "South of Market", "Latitude": 37.794803678000001, "Longitude": -122.421175423999, "year": "2013" }, "geometry": { "type": "Point", "coordinates": [ -122.421175423999003, 37.794803678 ] } },
{ "type": "Feature", "properties": { "project_id": "2003-002", "project_name": "4343 3rd", "housing_tenure": "Ownership", "section_415_declaration": "On-site BMR Project", "entitlement_approval_date": "01/16/2003", "completion_date": "06/10/2006", "units": 16, "affordable_units": 2, "neighborhood": "Bayview Hunters Point", "Latitude": 37.790183348, "Longitude": -122.421345670999, "year": "2006" }, "geometry": { "type": "Point", "coordinates": [ -122.421345670999003, 37.790183348 ] } },
{ "type": "Feature", "properties": { "project_id": "2009-018", "project_name": "Blanc", "housing_tenure": "Ownership", "section_415_declaration": "On-site BMR Project", "entitlement_approval_date": "11/23/2009", "completion_date": "09/30/2013", "units": 35, "affordable_units": 4, "neighborhood": "Nob Hill", "Latitude": 37.766972298, "Longitude": -122.420496458999, "year": "2013" }, "geometry": { "type": "Point", "coordinates": [ -122.420496458998997, 37.766972298 ] } },
{ "type": "Feature", "properties": { "project_id": "2017-044", "project_name": "606 Capp", "housing_tenure": "Unknown", "section_415_declaration": "Fee Payment", "entitlement_approval_date": "01/18/2018", "completion_date": "03/04/2022", "units": 96, "affordable_units": 14, "neighborhood": "Mission", "Latitude": 37.76958, "Longitude": -122.42611, "year": "2022" }, "geometry": { "type": "Point", "coordinates": [ -122.42611, 37.76958 ] } },
{ "type": "Feature", "properties": { "project_id": "2010-019", "project_name": "616 20th", "housing_tenure": "Ownership", "section_415_declaration": "On-site BMR Project", "entitlement_approval_date": "12/16/2010", "completion_date": "06/04/2014", "units": 16, "affordable_units": 2, "neighborhood": "Potrero Hill", "Latitude": 37.768284903999998, "Longitude": -122.427136664999, "year": "2014" }, "geometry": { "type": "Point", "coordinates": [ -122.427136664998997, 37.768284904 ] } },
{ "type": "Feature", "properties": { "project_id": "2014-016", "project_name": "The Martin", "housing_tenure": "Rental", "section_415_declaration": "On-site BMR Project", "entitlement_approval_date": "06/19/2014", "completion_date": "11/25/2017", "units": 93, "affordable_units": 12, "neighborhood": "Potrero Hill", "Latitude": 37.779072868999997, "Longitude": -122.410312379999, "year": "2017" }, "geometry": { "type": "Point", "coordinates": [ -122.410312379998999, 37.779072869 ] } },
{ "type": "Feature", "properties": { "project_id": "1999-001", "project_name": "Providence", "housing_tenure": "Ownership", "section_415_declaration": "On-site BMR Project", "entitlement_approval_date": "01/21/1999", "completion_date": "01/28/2002", "units": 81, "affordable_units": 9, "neighborhood": "Sunset/Parkside", "Latitude": 37.780767300999997, "Longitude": -122.40214184099899, "year": "2002" }, "geometry": { "type": "Point", "coordinates": [ -122.402141840998993, 37.780767301 ] } },
{ "type": "Feature", "properties": { "project_id": "2003-018", "project_name": "The Potrero", "housing_tenure": "Ownership", "section_415_declaration": "On-site BMR Project", "entitlement_approval_date": "09/04/2003", "completion_date": "11/17/2010", "units": 165, "affordable_units": 20, "neighborhood": "Potrero Hill", "Latitude": 37.764414785, "Longitude": -122.44342863899899, "year": "2010" }, "geometry": { "type": "Point", "coordinates": [ -122.443428638998995, 37.764414785 ] } },
{ "type": "Feature", "properties": { "project_id": "2013-057", "project_name": "1321 Mission /104 9th", "housing_tenure": "Rental", "section_415_declaration": "Exempt Project", "entitlement_approval_date": "02/07/2013", "completion_date": "09/29/2016", "units": 160, "affordable_units": 0, "neighborhood": "South of Market", "Latitude": 37.776721111000001, "Longitude": -122.419177324999, "year": "2016" }, "geometry": { "type": "Point", "coordinates": [ -122.419177324998998, 37.776721111 ] } },
{ "type": "Feature", "properties": { "project_id": "2012-007", "project_name": "Candlestick Heights", "housing_tenure": "Rental", "section_415_declaration": "Units for Off-site Project", "entitlement_approval_date": "04/12/2012", "completion_date": "06/04/2016", "units": 196, "affordable_units": 19, "neighborhood": "Bayview Hunters Point", "Latitude": 37.766665445999998, "Longitude": -122.398974469, "year": "2016" }, "geometry": { "type": "Point", "coordinates": [ -122.398974469, 37.766665446 ] } },
{ "type": "Feature", "properties": { "project_id": "2008-024", "project_name": "1355 Pacific", "housing_tenure": "Ownership", "section_415_declaration": "On-site BMR Project", "entitlement_approval_date": "08/14/2008", "completion_date": "08/28/2013", "units": 23, "affordable_units": 2, "neighborhood": "Russian Hill", "Latitude": 37.761183007, "Longitude": -122.38811870299899, "year": "2013" }, "geometry": { "type": "Point", "coordinates": [ -122.388118702998995, 37.761183007 ] } },
{ "type": "Feature", "properties": { "project_id": "2016-023", "project_name": "The Rise Hayes Valley", "housing_tenure": "Rental", "section_415_declaration": "On-site BMR Project", "entitlement_approval_date": "03/31/2016", "completion_date": "01/10/2019", "units": 160, "affordable_units": 19, "neighborhood": "Mission", "Latitude": 37.774767691000001, "Longitude": -122.420590200999, "year": "2019" }, "geometry": { "type": "Point", "coordinates": [ -122.420590200999001, 37.774767691 ] } },
{ "type": "Feature", "properties": { "project_id": "2015-056", "project_name": "1598 Bay", "housing_tenure": "Unknown", "section_415_declaration": "Fee Payment", "entitlement_approval_date": "09/02/2014", "completion_date": "08/17/2017", "units": 28, "affordable_units": 0, "neighborhood": "Marina", "Latitude": 37.773688796000002, "Longitude": -122.41348599099901, "year": "2017" }, "geometry": { "type": "Point", "coordinates": [ -122.413485990999007, 37.773688796 ] } },
{ "type": "Feature", "properties": { "project_id": "2003-023", "project_name": "1725 Washington", "housing_tenure": "Ownership", "section_415_declaration": "On-site BMR Project", "entitlement_approval_date": "12/02/2003", "completion_date": "08/08/2006", "units": 16, "affordable_units": 2, "neighborhood": "Russian Hill", "Latitude": 37.775022042000003, "Longitude": -122.412460637999, "year": "2006" }, "geometry": { "type": "Point", "coordinates": [ -122.412460637999004, 37.775022042 ] } },
{ "type": "Feature", "properties": { "project_id": "2014-021", "project_name": "Rowan", "housing_tenure": "Ownership", "section_415_declaration": "On-site BMR Project", "entitlement_approval_date": "07/24/2014", "completion_date": "11/15/2017", "units": 70, "affordable_units": 11, "neighborhood": "Mission", "Latitude": 37.77954119, "Longitude": -122.403659254999, "year": "2017" }, "geometry": { "type": "Point", "coordinates": [ -122.403659254998999, 37.77954119 ] } },
{ "type": "Feature", "properties": { "project_id": "2005-008", "project_name": "Millennium Tower", "housing_tenure": "Ownership", "section_415_declaration": "Off-site BMR Project", "entitlement_approval_date": "05/05/2005", "completion_date": "05/05/2009", "units": 419, "affordable_units": 0, "neighborhood": "Financial District/South Beach", "Latitude": 37.787457861999997, "Longitude": -122.40130989599901, "year": "2009" }, "geometry": { "type": "Point", "coordinates": [ -122.401309895999006, 37.787457862 ] } },
{ "type": "Feature", "properties": { "project_id": "2008-029", "project_name": "570 Jessie", "housing_tenure": "Rental", "section_415_declaration": "On-site BMR Project", "entitlement_approval_date": "11/06/2008", "completion_date": "06/15/2012", "units": 47, "affordable_units": 6, "neighborhood": "South of Market", "Latitude": 37.768340932000001, "Longitude": -122.421742895999, "year": "2012" }, "geometry": { "type": "Point", "coordinates": [ -122.421742895999003, 37.768340932 ] } },
{ "type": "Feature", "properties": { "project_id": "2003-011", "project_name": "Landmark Union Sq.", "housing_tenure": "Ownership", "section_415_declaration": "On-site BMR Project", "entitlement_approval_date": "05/15/2003", "completion_date": "02/02/2006", "units": 39, "affordable_units": 2, "neighborhood": "Financial District/South Beach", "Latitude": 37.768520838000001, "Longitude": -122.42259340499901, "year": "2006" }, "geometry": { "type": "Point", "coordinates": [ -122.422593404999006, 37.768520838 ] } },
{ "type": "Feature", "properties": { "project_id": "2002-002", "project_name": "The Redstone", "housing_tenure": "Ownership", "section_415_declaration": "On-site BMR Project", "entitlement_approval_date": "01/01/2002", "completion_date": "10/04/2007", "units": 24, "affordable_units": 4, "neighborhood": "Russian Hill", "Latitude": 37.775995181, "Longitude": -122.412506680999, "year": "2007" }, "geometry": { "type": "Point", "coordinates": [ -122.412506680999002, 37.775995181 ] } },
{ "type": "Feature", "properties": { "project_id": "2010-014", "project_name": "Onyx, Phase I", "housing_tenure": "Ownership", "section_415_declaration": "On-site BMR Project", "entitlement_approval_date": "08/16/2010", "completion_date": "11/12/2013", "units": 20, "affordable_units": 2, "neighborhood": "Potrero Hill", "Latitude": 37.764047447000003, "Longitude": -122.43276122699901, "year": "2013" }, "geometry": { "type": "Point", "coordinates": [ -122.432761226999006, 37.764047447 ] } },
{ "type": "Feature", "properties": { "project_id": "2011-017", "project_name": "Fifteen Fifteen", "housing_tenure": "Ownership", "section_415_declaration": "On-site BMR Project", "entitlement_approval_date": "04/21/2011", "completion_date": "02/27/2015", "units": 40, "affordable_units": 7, "neighborhood": "Mission", "Latitude": 37.765341833999997, "Longitude": -122.41077445699899, "year": "2015" }, "geometry": { "type": "Point", "coordinates": [ -122.410774456998993, 37.765341834 ] } },
{ "type": "Feature", "properties": { "project_id": "2008-014", "project_name": "3500 19th", "housing_tenure": "Unknown", "section_415_declaration": "Fee Payment", "entitlement_approval_date": "01/01/2008", "completion_date": "08/08/2008", "units": 17, "affordable_units": 0, "neighborhood": "Mission", "Latitude": 37.782383396999997, "Longitude": -122.41544707899899, "year": "2008" }, "geometry": { "type": "Point", "coordinates": [ -122.415447078998994, 37.782383397 ] } },
{ "type": "Feature", "properties": { "project_id": "2003-028", "project_name": "Union", "housing_tenure": "Ownership", "section_415_declaration": "On-site BMR Project", "entitlement_approval_date": "03/20/2003", "completion_date": "05/17/2007", "units": 76, "affordable_units": 9, "neighborhood": "Mission", "Latitude": 37.754857895999997, "Longitude": -122.412465722999, "year": "2007" }, "geometry": { "type": "Point", "coordinates": [ -122.412465722999002, 37.754857896 ] } },
{ "type": "Feature", "properties": { "project_id": "2014-030", "project_name": "682 Page", "housing_tenure": "Rental", "section_415_declaration": "On-site BMR Project", "entitlement_approval_date": "11/13/2014", "completion_date": "03/21/2017", "units": 12, "affordable_units": 1, "neighborhood": "Hayes Valley", "Latitude": 37.788247978000001, "Longitude": -122.403232212999, "year": "2017" }, "geometry": { "type": "Point", "coordinates": [ -122.403232212999001, 37.788247978 ] } },
{ "type": "Feature", "properties": { "project_id": "2004-021", "project_name": "Northpoint Apartments", "housing_tenure": "Rental", "section_415_declaration": "On-site BMR Project", "entitlement_approval_date": "12/15/2004", "completion_date": "07/23/2008", "units": 72, "affordable_units": 9, "neighborhood": "North Beach", "Latitude": 37.77626009, "Longitude": -122.397105148999, "year": "2008" }, "geometry": { "type": "Point", "coordinates": [ -122.397105148999003, 37.77626009 ] } },
{ "type": "Feature", "properties": { "project_id": "2016-055", "project_name": "2000-2070 Bryant", "housing_tenure": "Rental", "section_415_declaration": "On-site BMR Project, Land Dedication", "entitlement_approval_date": "06/02/2016", "completion_date": "06/15/2020", "units": 199, "affordable_units": 3, "neighborhood": "Mission", "Latitude": 37.762907075000001, "Longitude": -122.401732115999, "year": "2020" }, "geometry": { "type": "Point", "coordinates": [ -122.401732115998996, 37.762907075 ] } },
{ "type": "Feature", "properties": { "project_id": "2012-016", "project_name": "33 Tehama", "housing_tenure": "Rental", "section_415_declaration": "On-site BMR Project", "entitlement_approval_date": "12/06/2012", "completion_date": "11/15/2018", "units": 398, "affordable_units": 60, "neighborhood": "Financial District/South Beach", "Latitude": 37.7736944, "Longitude": -122.40966687599899, "year": "2018" }, "geometry": { "type": "Point", "coordinates": [ -122.409666875998994, 37.7736944 ] } },
{ "type": "Feature", "properties": { "project_id": "2013-060", "project_name": "400 Grove", "housing_tenure": "Ownership", "section_415_declaration": "On-site BMR Project", "entitlement_approval_date": "07/14/2016", "completion_date": "10/10/2018", "units": 34, "affordable_units": 4, "neighborhood": "Hayes Valley", "Latitude": 37.773208603999997, "Longitude": -122.41188546199901, "year": "2018" }, "geometry": { "type": "Point", "coordinates": [ -122.411885461999006, 37.773208604 ] } },
{ "type": "Feature", "properties": { "project_id": "2005-003", "project_name": "1461 Pine", "housing_tenure": "Rental", "section_415_declaration": "Fee Payment", "entitlement_approval_date": "02/03/2005", "completion_date": "09/07/2006", "units": 35, "affordable_units": 0, "neighborhood": "Nob Hill", "Latitude": 37.773193804999998, "Longitude": -122.40256056499901, "year": "2006" }, "geometry": { "type": "Point", "coordinates": [ -122.402560564999007, 37.773193805 ] } },
{ "type": "Feature", "properties": { "project_id": "2013-049", "project_name": "1601 Larkin", "housing_tenure": "Unknown", "section_415_declaration": "Fee Payment", "entitlement_approval_date": "10/03/2013", "completion_date": "09/20/2016", "units": 27, "affordable_units": 0, "neighborhood": "Russian Hill", "Latitude": 37.778159244000001, "Longitude": -122.42583239499901, "year": "2016" }, "geometry": { "type": "Point", "coordinates": [ -122.425832394999006, 37.778159244 ] } },
{ "type": "Feature", "properties": { "project_id": "2009-014", "project_name": "870 Harrison", "housing_tenure": "Ownership", "section_415_declaration": "On-site BMR Project", "entitlement_approval_date": "09/03/2009", "completion_date": "12/28/2012", "units": 26, "affordable_units": 4, "neighborhood": "South of Market", "Latitude": 37.779734345999998, "Longitude": -122.392510994999, "year": "2012" }, "geometry": { "type": "Point", "coordinates": [ -122.392510994999, 37.779734346 ] } },